PairName,SeqType,NumMatches,Inliers,TimeMS,H_Error,MMA@3,MMA@5,MMA@7,MHA_Acc@3,MHA_Acc@5,MHA_Acc@7,AUC@1,AUC@3,AUC@5,AUC@10
i_ajuntament_1_2,illumination,870,810,253.17,0.2548,0.9287,0.9609,0.9805,1,1,1,0.7452,0.9151,0.9490,0.9745
i_ajuntament_1_3,illumination,670,521,5.93,1.2749,0.7448,0.8731,0.9164,1,1,1,0.0000,0.5750,0.7450,0.8725
i_ajuntament_1_4,illumination,458,249,5.62,0.9766,0.5284,0.6550,0.7162,1,1,1,0.0234,0.6745,0.8047,0.9023
i_ajuntament_1_5,illumination,482,258,5.46,1.0618,0.5270,0.6369,0.7033,1,1,1,0.0000,0.6461,0.7876,0.8938
i_ajuntament_1_6,illumination,477,262,5.79,1.0301,0.5472,0.6792,0.7568,1,1,1,0.0000,0.6566,0.7940,0.8970
i_autannes_1_2,illumination,749,676,13.31,0.5568,0.8972,0.9399,0.9599,1,1,1,0.4432,0.8144,0.8886,0.9443
i_autannes_1_3,illumination,677,559,6.65,0.5636,0.8227,0.8936,0.9394,1,1,1,0.4364,0.8121,0.8873,0.9436
i_autannes_1_4,illumination,831,600,7.31,1.0298,0.7160,0.8351,0.8953,1,1,1,0.0000,0.6567,0.7940,0.8970
i_autannes_1_5,illumination,823,617,7.24,1.1260,0.7363,0.8226,0.8870,1,1,1,0.0000,0.6247,0.7748,0.8874
i_autannes_1_6,illumination,814,674,5.91,0.9709,0.8256,0.9005,0.9349,1,1,1,0.0291,0.6764,0.8058,0.9029
i_bologna_1_2,illumination,845,791,11.81,0.2580,0.9349,0.9799,0.9905,1,1,1,0.7420,0.9140,0.9484,0.9742
i_bologna_1_3,illumination,791,708,5.21,0.3712,0.8925,0.9520,0.9709,1,1,1,0.6288,0.8763,0.9258,0.9629
i_bologna_1_4,illumination,801,695,5.34,0.8651,0.8677,0.9413,0.9638,1,1,1,0.1349,0.7116,0.8270,0.9135
i_bologna_1_5,illumination,814,710,5.50,1.1369,0.8686,0.9287,0.9558,1,1,1,0.0000,0.6210,0.7726,0.8863
i_bologna_1_6,illumination,804,688,5.43,1.3336,0.8458,0.9067,0.9453,1,1,1,0.0000,0.5555,0.7333,0.8666
i_books_1_2,illumination,608,573,5.03,0.0000,0.9474,0.9655,0.9720,1,1,1,1.0000,1.0000,1.0000,1.0000
i_books_1_3,illumination,715,674,5.52,0.2466,0.9413,0.9538,0.9692,1,1,1,0.7534,0.9178,0.9507,0.9753
i_books_1_4,illumination,740,693,5.28,0.0000,0.9392,0.9595,0.9757,1,1,1,1.0000,1.0000,1.0000,1.0000
i_books_1_5,illumination,740,698,5.28,0.2329,0.9419,0.9500,0.9568,1,1,1,0.7671,0.9224,0.9534,0.9767
i_books_1_6,illumination,693,644,5.16,0.2190,0.9278,0.9394,0.9509,1,1,1,0.7810,0.9270,0.9562,0.9781
i_boutique_1_2,illumination,1045,955,6.72,0.0000,0.9139,0.9464,0.9608,1,1,1,1.0000,1.0000,1.0000,1.0000
i_boutique_1_3,illumination,1085,973,7.01,0.4003,0.8857,0.9373,0.9650,1,1,1,0.5997,0.8666,0.9199,0.9600
i_boutique_1_4,illumination,1060,947,7.13,0.4723,0.8745,0.9283,0.9500,1,1,1,0.5277,0.8426,0.9055,0.9528
i_boutique_1_5,illumination,866,634,6.92,0.7023,0.7252,0.8222,0.8741,1,1,1,0.2977,0.7659,0.8595,0.9298
i_boutique_1_6,illumination,866,621,7.30,0.6338,0.7113,0.8164,0.8591,1,1,1,0.3662,0.7887,0.8732,0.9366
i_bridger_1_2,illumination,1125,968,13.60,0.4966,0.8427,0.9333,0.9724,1,1,1,0.5034,0.8345,0.9007,0.9503
i_bridger_1_3,illumination,1053,870,6.84,0.7204,0.8224,0.9031,0.9459,1,1,1,0.2796,0.7599,0.8559,0.9280
i_bridger_1_4,illumination,932,800,6.38,0.3736,0.8573,0.9163,0.9549,1,1,1,0.6264,0.8755,0.9253,0.9626
i_bridger_1_5,illumination,789,632,5.95,0.0000,0.8074,0.8910,0.9379,1,1,1,1.0000,1.0000,1.0000,1.0000
i_bridger_1_6,illumination,432,274,5.28,1.5683,0.6181,0.7222,0.8102,1,1,1,0.0000,0.4772,0.6863,0.8432
i_brooklyn_1_2,illumination,1371,1192,7.77,0.4053,0.8600,0.9329,0.9650,1,1,1,0.5947,0.8649,0.9189,0.9595
i_brooklyn_1_3,illumination,1418,1280,7.49,1.2541,0.8850,0.9549,0.9760,1,1,1,0.0000,0.5820,0.7492,0.8746
i_brooklyn_1_4,illumination,1250,958,7.72,1.1236,0.7456,0.8656,0.9272,1,1,1,0.0000,0.6255,0.7753,0.8876
i_brooklyn_1_5,illumination,1420,1262,7.63,1.4066,0.8761,0.9521,0.9768,1,1,1,0.0000,0.5311,0.7187,0.8593
i_brooklyn_1_6,illumination,1337,1116,8.50,1.4762,0.7951,0.9200,0.9648,1,1,1,0.0000,0.5079,0.7048,0.8524
i_castle_1_2,illumination,1336,1008,9.23,0.7562,0.7515,0.8398,0.8892,1,1,1,0.2438,0.7479,0.8488,0.9244
i_castle_1_3,illumination,1354,1168,12.36,0.4631,0.8589,0.9306,0.9549,1,1,1,0.5369,0.8456,0.9074,0.9537
i_castle_1_4,illumination,1125,980,8.18,0.5348,0.8560,0.9271,0.9582,1,1,1,0.4652,0.8217,0.8930,0.9465
i_castle_1_5,illumination,1097,823,7.57,0.9532,0.7420,0.8359,0.8952,1,1,1,0.0468,0.6823,0.8094,0.9047
i_castle_1_6,illumination,1113,783,7.58,0.6600,0.6963,0.8014,0.8598,1,1,1,0.3400,0.7800,0.8680,0.9340
i_chestnuts_1_2,illumination,1097,990,6.32,0.3939,0.9025,0.9417,0.9654,1,1,1,0.6061,0.8687,0.9212,0.9606
i_chestnuts_1_3,illumination,1094,975,6.23,0.0000,0.8958,0.9369,0.9680,1,1,1,1.0000,1.0000,1.0000,1.0000
i_chestnuts_1_4,illumination,1069,957,6.27,0.4363,0.8980,0.9280,0.9616,1,1,1,0.5637,0.8546,0.9127,0.9564
i_chestnuts_1_5,illumination,997,874,6.19,0.5739,0.8666,0.9168,0.9569,1,1,1,0.4261,0.8087,0.8852,0.9426
i_chestnuts_1_6,illumination,912,760,6.23,0.2962,0.8333,0.8882,0.9331,1,1,1,0.7038,0.9013,0.9408,0.9704
i_crownday_1_2,illumination,968,705,7.14,0.3712,0.7283,0.8419,0.8926,1,1,1,0.6288,0.8763,0.9258,0.9629
i_crownday_1_3,illumination,1085,878,7.31,0.4655,0.8065,0.8940,0.9401,1,1,1,0.5345,0.8448,0.9069,0.9534
i_crownday_1_4,illumination,1102,942,7.18,0.5661,0.8539,0.9065,0.9519,1,1,1,0.4339,0.8113,0.8868,0.9434
i_crownday_1_5,illumination,1192,1072,7.14,0.4508,0.8951,0.9404,0.9706,1,1,1,0.5492,0.8497,0.9098,0.9549
i_crownday_1_6,illumination,964,714,6.88,0.5953,0.7303,0.8351,0.9015,1,1,1,0.4047,0.8016,0.8809,0.9405
i_dome_1_2,illumination,1365,1312,7.61,0.0738,0.9612,0.9795,0.9817,1,1,1,0.9262,0.9754,0.9852,0.9926
i_dome_1_3,illumination,810,580,6.78,1.1237,0.7148,0.7975,0.8481,1,1,1,0.0000,0.6254,0.7753,0.8876
i_dome_1_4,illumination,825,599,7.10,0.7441,0.7236,0.7988,0.8485,1,1,1,0.2559,0.7520,0.8512,0.9256
i_dome_1_5,illumination,826,612,7.18,0.9644,0.7361,0.8208,0.8668,1,1,1,0.0356,0.6785,0.8071,0.9036
i_dome_1_6,illumination,1124,957,6.86,0.2559,0.8514,0.9093,0.9359,1,1,1,0.7441,0.9147,0.9488,0.9744
i_duda_1_2,illumination,692,675,4.77,0.2558,0.9783,0.9913,0.9957,1,1,1,0.7442,0.9147,0.9488,0.9744
i_duda_1_3,illumination,667,648,4.68,0.3345,0.9685,0.9925,0.9955,1,1,1,0.6655,0.8885,0.9331,0.9665
i_duda_1_4,illumination,630,602,4.65,0.6005,0.9571,0.9794,0.9857,1,1,1,0.3995,0.7998,0.8799,0.9400
i_duda_1_5,illumination,590,556,4.49,0.3186,0.9475,0.9814,0.9881,1,1,1,0.6814,0.8938,0.9363,0.9681
i_duda_1_6,illumination,466,432,4.32,0.3930,0.9313,0.9614,0.9742,1,1,1,0.6070,0.8690,0.9214,0.9607
i_fenis_1_2,illumination,1328,1238,6.86,0.2420,0.9292,0.9699,0.9880,1,1,1,0.7580,0.9193,0.9516,0.9758
i_fenis_1_3,illumination,1220,1022,7.19,0.6659,0.8410,0.9123,0.9516,1,1,1,0.3341,0.7780,0.8668,0.9334
i_fenis_1_4,illumination,844,474,6.90,1.0191,0.5438,0.6801,0.7441,1,1,1,0.0000,0.6603,0.7962,0.8981
i_fenis_1_5,illumination,750,380,9.57,1.4029,0.4733,0.6107,0.6947,1,1,1,0.0000,0.5324,0.7194,0.8597
i_fenis_1_6,illumination,835,521,6.95,1.2214,0.5940,0.7102,0.7796,1,1,1,0.0000,0.5929,0.7557,0.8779
i_fog_1_2,illumination,1024,937,5.84,0.3724,0.9170,0.9531,0.9766,1,1,1,0.6276,0.8759,0.9255,0.9628
i_fog_1_3,illumination,848,747,5.98,0.3417,0.8856,0.9410,0.9611,1,1,1,0.6583,0.8861,0.9317,0.9658
i_fog_1_4,illumination,770,652,6.48,0.3538,0.8455,0.9182,0.9494,1,1,1,0.6462,0.8821,0.9292,0.9646
i_fog_1_5,illumination,483,391,5.71,0.3963,0.8137,0.8468,0.8613,1,1,1,0.6037,0.8679,0.9207,0.9604
i_fog_1_6,illumination,421,327,4.93,0.8262,0.7815,0.8052,0.8266,1,1,1,0.1738,0.7246,0.8348,0.9174
i_fruits_1_2,illumination,1172,1075,14.85,0.0858,0.9181,0.9522,0.9710,1,1,1,0.9142,0.9714,0.9828,0.9914
i_fruits_1_3,illumination,1139,1023,7.30,0.3238,0.8955,0.9491,0.9701,1,1,1,0.6762,0.8921,0.9352,0.9676
i_fruits_1_4,illumination,1138,1006,7.55,0.2490,0.8814,0.9455,0.9675,1,1,1,0.7510,0.9170,0.9502,0.9751
i_fruits_1_5,illumination,1147,1017,7.49,0.3874,0.8823,0.9451,0.9704,1,1,1,0.6126,0.8709,0.9225,0.9613
i_fruits_1_6,illumination,1159,1036,7.47,0.3515,0.8956,0.9500,0.9758,1,1,1,0.6485,0.8828,0.9297,0.9648
i_gonnenberg_1_2,illumination,1262,1136,6.66,0.0000,0.9025,0.9311,0.9453,1,1,1,1.0000,1.0000,1.0000,1.0000
i_gonnenberg_1_3,illumination,1260,1127,6.65,0.0000,0.9000,0.9389,0.9595,1,1,1,1.0000,1.0000,1.0000,1.0000
i_gonnenberg_1_4,illumination,1181,1041,6.77,0.6815,0.8704,0.9145,0.9433,1,1,1,0.3185,0.7728,0.8637,0.9318
i_gonnenberg_1_5,illumination,1194,1056,6.36,0.3298,0.8836,0.9238,0.9439,1,1,1,0.6702,0.8901,0.9340,0.9670
i_gonnenberg_1_6,illumination,1231,1092,6.45,0.7467,0.8855,0.9245,0.9439,1,1,1,0.2533,0.7511,0.8507,0.9253
i_greenhouse_1_2,illumination,1486,1303,8.60,0.2164,0.8802,0.9394,0.9623,1,1,1,0.7836,0.9279,0.9567,0.9784
i_greenhouse_1_3,illumination,1534,1335,9.31,0.4578,0.8748,0.9179,0.9465,1,1,1,0.5422,0.8474,0.9084,0.9542
i_greenhouse_1_4,illumination,1480,1246,9.07,0.5587,0.8392,0.8993,0.9311,1,1,1,0.4413,0.8138,0.8883,0.9441
i_greenhouse_1_5,illumination,1494,1251,8.63,0.7584,0.8307,0.8983,0.9357,1,1,1,0.2416,0.7472,0.8483,0.9242
i_greenhouse_1_6,illumination,1359,1088,8.58,0.9953,0.7925,0.8727,0.9095,1,1,1,0.0047,0.6682,0.8009,0.9005
i_greentea_1_2,illumination,1106,1001,7.50,0.0000,0.9060,0.9295,0.9421,1,1,1,1.0000,1.0000,1.0000,1.0000
i_greentea_1_3,illumination,1259,1191,7.56,0.0000,0.9476,0.9738,0.9833,1,1,1,1.0000,1.0000,1.0000,1.0000
i_greentea_1_4,illumination,1284,1229,7.34,0.0777,0.9579,0.9751,0.9813,1,1,1,0.9223,0.9741,0.9845,0.9922
i_greentea_1_5,illumination,1249,1209,7.25,0.0514,0.9688,0.9832,0.9872,1,1,1,0.9486,0.9829,0.9897,0.9949
i_greentea_1_6,illumination,1071,1010,6.48,0.1954,0.9430,0.9645,0.9767,1,1,1,0.8046,0.9349,0.9609,0.9805
i_indiana_1_2,illumination,1107,907,6.46,0.5686,0.8148,0.8934,0.9449,1,1,1,0.4314,0.8105,0.8863,0.9431
i_indiana_1_3,illumination,1093,854,6.67,0.4530,0.7722,0.8692,0.9241,1,1,1,0.5470,0.8490,0.9094,0.9547
i_indiana_1_4,illumination,1051,780,6.94,0.6343,0.7307,0.8354,0.9049,1,1,1,0.3657,0.7886,0.8731,0.9366
i_indiana_1_5,illumination,1017,763,6.57,0.8052,0.7266,0.8338,0.9027,1,1,1,0.1948,0.7316,0.8390,0.9195
i_indiana_1_6,illumination,989,716,6.93,0.5755,0.7078,0.8150,0.8797,1,1,1,0.4245,0.8082,0.8849,0.9425
i_kions_1_2,illumination,627,510,12.16,0.8283,0.7974,0.8724,0.9027,1,1,1,0.1717,0.7239,0.8343,0.9172
i_kions_1_3,illumination,620,498,6.23,0.6882,0.7919,0.8726,0.9065,1,1,1,0.3118,0.7706,0.8624,0.9312
i_kions_1_4,illumination,554,419,4.94,0.8149,0.7401,0.8646,0.9043,1,1,1,0.1851,0.7284,0.8370,0.9185
i_kions_1_5,illumination,558,432,4.75,0.5872,0.7473,0.8674,0.9050,1,1,1,0.4128,0.8043,0.8826,0.9413
i_kions_1_6,illumination,601,472,5.31,0.5140,0.7787,0.8719,0.9035,1,1,1,0.4860,0.8287,0.8972,0.9486
i_ktirio_1_2,illumination,800,777,5.31,0.1219,0.9712,0.9812,0.9838,1,1,1,0.8781,0.9594,0.9756,0.9878
i_ktirio_1_3,illumination,712,608,5.35,0.5993,0.8455,0.9087,0.9213,1,1,1,0.4007,0.8002,0.8801,0.9401
i_ktirio_1_4,illumination,660,520,5.55,1.1511,0.7758,0.8621,0.9045,1,1,1,0.0000,0.6163,0.7698,0.8849
i_ktirio_1_5,illumination,699,553,5.46,0.6404,0.7840,0.8455,0.8712,1,1,1,0.3596,0.7865,0.8719,0.9360
i_ktirio_1_6,illumination,635,489,5.39,1.5944,0.7622,0.8409,0.8976,1,1,1,0.0000,0.4685,0.6811,0.8406
i_kurhaus_1_2,illumination,1337,1245,6.92,0.0000,0.9312,0.9641,0.9753,1,1,1,1.0000,1.0000,1.0000,1.0000
i_kurhaus_1_3,illumination,1256,1122,6.97,0.2300,0.8949,0.9403,0.9594,1,1,1,0.7700,0.9233,0.9540,0.9770
i_kurhaus_1_4,illumination,1175,990,6.80,0.0000,0.8477,0.9047,0.9311,1,1,1,1.0000,1.0000,1.0000,1.0000
i_kurhaus_1_5,illumination,1132,938,7.15,0.6317,0.8242,0.8913,0.9178,1,1,1,0.3683,0.7894,0.8737,0.9368
i_kurhaus_1_6,illumination,1086,858,7.10,0.6590,0.7855,0.8702,0.9024,1,1,1,0.3410,0.7803,0.8682,0.9341
i_leuven_1_2,illumination,754,723,5.16,1.0104,0.9536,0.9775,0.9867,1,1,1,0.0000,0.6632,0.7979,0.8990
i_leuven_1_3,illumination,746,703,6.02,0.9945,0.9370,0.9732,0.9879,1,1,1,0.0055,0.6685,0.8011,0.9005
i_leuven_1_4,illumination,730,670,5.38,1.9134,0.9110,0.9548,0.9740,1,1,1,0.0000,0.3622,0.6173,0.8087
i_leuven_1_5,illumination,687,619,5.43,1.5339,0.8996,0.9491,0.9636,1,1,1,0.0000,0.4887,0.6932,0.8466
i_leuven_1_6,illumination,644,571,5.73,6.2088,0.7484,0.8789,0.9286,0,0,1,0.0000,0.0000,0.0000,0.3791
i_lionday_1_2,illumination,1032,749,7.19,1.0459,0.7064,0.7975,0.8508,1,1,1,0.0000,0.6514,0.7908,0.8954
i_lionday_1_3,illumination,1034,796,7.13,1.5380,0.7621,0.8337,0.8723,1,1,1,0.0000,0.4873,0.6924,0.8462
i_lionday_1_4,illumination,851,416,7.38,3.5605,0.4019,0.5676,0.6710,0,1,1,0.0000,0.0000,0.2879,0.6440
i_lionday_1_5,illumination,991,582,7.36,2.3633,0.5035,0.6589,0.7376,1,1,1,0.0000,0.2122,0.5273,0.7637
i_lionday_1_6,illumination,1067,794,7.41,2.3732,0.7085,0.8135,0.8641,1,1,1,0.0000,0.2089,0.5254,0.7627
i_lionnight_1_2,illumination,1458,1386,7.75,0.7976,0.9451,0.9636,0.9726,1,1,1,0.2024,0.7341,0.8405,0.9202
i_lionnight_1_3,illumination,1303,1132,7.80,1.4650,0.8542,0.8895,0.9148,1,1,1,0.0000,0.5117,0.7070,0.8535
i_lionnight_1_4,illumination,1463,1399,7.76,0.7831,0.9522,0.9692,0.9733,1,1,1,0.2169,0.7390,0.8434,0.9217
i_lionnight_1_5,illumination,1434,1295,7.73,1.3034,0.8940,0.9149,0.9205,1,1,1,0.0000,0.5655,0.7393,0.8697
i_lionnight_1_6,illumination,1437,1338,7.76,1.0537,0.9248,0.9408,0.9492,1,1,1,0.0000,0.6488,0.7893,0.8946
i_londonbridge_1_2,illumination,878,827,6.05,1.1219,0.9317,0.9795,0.9852,1,1,1,0.0000,0.6260,0.7756,0.8878
i_londonbridge_1_3,illumination,891,811,6.90,1.1672,0.8990,0.9607,0.9832,1,1,1,0.0000,0.6109,0.7666,0.8833
i_londonbridge_1_4,illumination,872,762,6.60,1.6096,0.8475,0.9438,0.9736,1,1,1,0.0000,0.4635,0.6781,0.8390
i_londonbridge_1_5,illumination,773,491,6.75,1.7618,0.5718,0.7490,0.8499,1,1,1,0.0000,0.4127,0.6476,0.8238
i_londonbridge_1_6,illumination,844,733,5.96,0.9114,0.8602,0.9396,0.9668,1,1,1,0.0886,0.6962,0.8177,0.9089
i_melon_1_2,illumination,531,504,4.55,0.3756,0.9492,0.9774,0.9849,1,1,1,0.6244,0.8748,0.9249,0.9624
i_melon_1_3,illumination,508,445,4.53,0.3120,0.8720,0.9331,0.9528,1,1,1,0.6880,0.8960,0.9376,0.9688
i_melon_1_4,illumination,399,273,4.53,2.1845,0.6642,0.7469,0.8095,1,1,1,0.0000,0.2718,0.5631,0.7816
i_melon_1_5,illumination,493,416,4.46,0.0000,0.8438,0.9026,0.9331,1,1,1,1.0000,1.0000,1.0000,1.0000
i_melon_1_6,illumination,462,375,4.58,0.0000,0.8117,0.8701,0.9199,1,1,1,1.0000,1.0000,1.0000,1.0000
i_miniature_1_2,illumination,1296,1244,6.79,0.5265,0.9545,0.9823,0.9923,1,1,1,0.4735,0.8245,0.8947,0.9474
i_miniature_1_3,illumination,1146,1048,6.65,0.5240,0.9023,0.9503,0.9738,1,1,1,0.4760,0.8253,0.8952,0.9476
i_miniature_1_4,illumination,952,761,6.66,0.6122,0.7878,0.8550,0.9002,1,1,1,0.3878,0.7959,0.8776,0.9388
i_miniature_1_5,illumination,617,400,6.25,0.8300,0.6321,0.7115,0.7747,1,1,1,0.1700,0.7233,0.8340,0.9170
i_miniature_1_6,illumination,1176,1045,6.99,0.8854,0.8818,0.9294,0.9583,1,1,1,0.1146,0.7049,0.8229,0.9115
i_nescafe_1_2,illumination,821,707,5.98,0.0000,0.8611,0.9050,0.9391,1,1,1,1.0000,1.0000,1.0000,1.0000
i_nescafe_1_3,illumination,913,802,6.06,0.5291,0.8762,0.9069,0.9387,1,1,1,0.4709,0.8236,0.8942,0.9471
i_nescafe_1_4,illumination,923,814,6.02,0.0000,0.8841,0.9090,0.9350,1,1,1,1.0000,1.0000,1.0000,1.0000
i_nescafe_1_5,illumination,807,695,6.94,0.4343,0.8600,0.8984,0.9182,1,1,1,0.5657,0.8552,0.9131,0.9566
i_nescafe_1_6,illumination,873,731,6.62,0.4296,0.8339,0.8900,0.9278,1,1,1,0.5704,0.8568,0.9141,0.9570
i_nijmegen_1_2,illumination,1402,1158,7.99,0.9631,0.8081,0.8951,0.9437,1,1,1,0.0369,0.6790,0.8074,0.9037
i_nijmegen_1_3,illumination,1481,1254,8.02,0.7252,0.8292,0.9109,0.9507,1,1,1,0.2748,0.7583,0.8550,0.9275
i_nijmegen_1_4,illumination,1052,705,7.36,1.1493,0.6568,0.7852,0.8536,1,1,1,0.0000,0.6169,0.7701,0.8851
i_nijmegen_1_5,illumination,1421,1180,8.35,1.0206,0.8079,0.9015,0.9500,1,1,1,0.0000,0.6598,0.7959,0.8979
i_nijmegen_1_6,illumination,1399,1144,8.18,0.6457,0.8006,0.8949,0.9371,1,1,1,0.3543,0.7848,0.8709,0.9354
i_nuts_1_2,illumination,1085,855,7.44,0.6370,0.7853,0.8802,0.9364,1,1,1,0.3630,0.7877,0.8726,0.9363
i_nuts_1_3,illumination,918,641,7.28,0.7423,0.6906,0.8072,0.8780,1,1,1,0.2577,0.7526,0.8515,0.9258
i_nuts_1_4,illumination,744,466,7.48,1.7686,0.6169,0.7460,0.8374,1,1,1,0.0000,0.4105,0.6463,0.8231
i_nuts_1_5,illumination,591,314,7.39,1.3675,0.5144,0.6565,0.7547,1,1,1,0.0000,0.5442,0.7265,0.8633
i_nuts_1_6,illumination,473,152,7.37,2.0656,0.3108,0.4503,0.5581,1,1,1,0.0000,0.3115,0.5869,0.7934
i_objects_1_2,illumination,1286,1099,7.84,0.6507,0.8546,0.9285,0.9611,1,1,1,0.3493,0.7831,0.8699,0.9349
i_objects_1_3,illumination,1253,1020,8.54,0.8789,0.8085,0.8978,0.9505,1,1,1,0.1211,0.7070,0.8242,0.9121
i_objects_1_4,illumination,1148,816,7.57,0.7602,0.7047,0.8423,0.9094,1,1,1,0.2398,0.7466,0.8480,0.9240
i_objects_1_5,illumination,1168,812,7.70,0.9984,0.6935,0.8348,0.9101,1,1,1,0.0016,0.6672,0.8003,0.9002
i_objects_1_6,illumination,1367,1247,7.27,0.2430,0.9181,0.9576,0.9832,1,1,1,0.7570,0.9190,0.9514,0.9757
i_parking_1_2,illumination,802,708,5.32,0.3386,0.8865,0.9414,0.9676,1,1,1,0.6614,0.8871,0.9323,0.9661
i_parking_1_3,illumination,808,680,5.37,0.2993,0.8441,0.9270,0.9579,1,1,1,0.7007,0.9002,0.9401,0.9701
i_parking_1_4,illumination,701,544,5.42,1.3408,0.7318,0.8645,0.9201,1,1,1,0.0000,0.5531,0.7318,0.8659
i_parking_1_5,illumination,630,400,5.26,1.0851,0.6175,0.7381,0.8159,1,1,1,0.0000,0.6383,0.7830,0.8915
i_parking_1_6,illumination,682,521,5.34,0.8757,0.7478,0.8343,0.8856,1,1,1,0.1243,0.7081,0.8249,0.9124
i_partyfood_1_2,illumination,527,521,4.28,0.2735,0.9867,0.9943,0.9943,1,1,1,0.7265,0.9088,0.9453,0.9726
i_partyfood_1_3,illumination,497,486,4.10,0.5289,0.9759,0.9960,0.9980,1,1,1,0.4711,0.8237,0.8942,0.9471
i_partyfood_1_4,illumination,454,438,4.05,0.6505,0.9626,0.9912,0.9978,1,1,1,0.3495,0.7832,0.8699,0.9350
i_partyfood_1_5,illumination,441,425,4.11,0.5950,0.9615,0.9864,0.9955,1,1,1,0.4050,0.8017,0.8810,0.9405
i_partyfood_1_6,illumination,412,390,4.03,1.1133,0.9442,0.9806,0.9903,1,1,1,0.0000,0.6289,0.7773,0.8887
i_pinard_1_2,illumination,561,529,4.68,0.4974,0.9412,0.9715,0.9822,1,1,1,0.5026,0.8342,0.9005,0.9503
i_pinard_1_3,illumination,557,457,5.68,0.6180,0.8097,0.8600,0.8959,1,1,1,0.3820,0.7940,0.8764,0.9382
i_pinard_1_4,illumination,559,458,6.07,0.0000,0.8211,0.8766,0.9106,1,1,1,1.0000,1.0000,1.0000,1.0000
i_pinard_1_5,illumination,566,479,4.74,0.0000,0.8463,0.8852,0.9258,1,1,1,1.0000,1.0000,1.0000,1.0000
i_pinard_1_6,illumination,559,508,4.70,0.4825,0.8980,0.9338,0.9589,1,1,1,0.5175,0.8392,0.9035,0.9517
i_pool_1_2,illumination,415,278,9.30,0.4314,0.6699,0.7325,0.7952,1,1,1,0.5686,0.8562,0.9137,0.9569
i_pool_1_3,illumination,325,140,5.04,2.2382,0.4400,0.4954,0.5446,1,1,1,0.0000,0.2539,0.5524,0.7762
i_pool_1_4,illumination,321,145,5.16,2.3000,0.4455,0.5358,0.5826,1,1,1,0.0000,0.2333,0.5400,0.7700
i_pool_1_5,illumination,381,221,4.77,0.5881,0.5748,0.6535,0.7060,1,1,1,0.4119,0.8040,0.8824,0.9412
i_pool_1_6,illumination,366,203,4.79,0.6991,0.5519,0.6284,0.6749,1,1,1,0.3009,0.7670,0.8602,0.9301
i_porta_1_2,illumination,827,519,5.94,0.7326,0.6276,0.7739,0.8549,1,1,1,0.2674,0.7558,0.8535,0.9267
i_porta_1_3,illumination,825,517,5.85,0.3486,0.6315,0.7964,0.8582,1,1,1,0.6514,0.8838,0.9303,0.9651
i_porta_1_4,illumination,811,508,6.38,0.6929,0.6128,0.7657,0.8545,1,1,1,0.3071,0.7690,0.8614,0.9307
i_porta_1_5,illumination,485,367,4.99,0.5310,0.7464,0.8660,0.9299,1,1,1,0.4690,0.8230,0.8938,0.9469
i_porta_1_6,illumination,517,315,5.57,0.7895,0.5977,0.7099,0.7640,1,1,1,0.2105,0.7368,0.8421,0.9210
i_resort_1_2,illumination,1192,1056,7.25,0.2542,0.8851,0.9371,0.9614,1,1,1,0.7458,0.9153,0.9492,0.9746
i_resort_1_3,illumination,1234,1169,7.02,0.0000,0.9481,0.9708,0.9878,1,1,1,1.0000,1.0000,1.0000,1.0000
i_resort_1_4,illumination,1245,1173,6.84,0.0000,0.9446,0.9719,0.9863,1,1,1,1.0000,1.0000,1.0000,1.0000
i_resort_1_5,illumination,1142,970,7.12,0.6500,0.8415,0.9098,0.9501,1,1,1,0.3500,0.7833,0.8700,0.9350
i_resort_1_6,illumination,1022,890,6.38,0.6736,0.8542,0.9178,0.9501,1,1,1,0.3264,0.7755,0.8653,0.9326
i_salon_1_2,illumination,1363,1300,7.12,0.3940,0.9450,0.9773,0.9912,1,1,1,0.6060,0.8687,0.9212,0.9606
i_salon_1_3,illumination,1183,1060,7.09,0.5033,0.8698,0.9324,0.9696,1,1,1,0.4967,0.8322,0.8993,0.9497
i_salon_1_4,illumination,1050,875,6.80,0.6836,0.8190,0.8962,0.9400,1,1,1,0.3164,0.7721,0.8633,0.9316
i_salon_1_5,illumination,1234,1098,6.88,0.0000,0.9003,0.9546,0.9814,1,1,1,1.0000,1.0000,1.0000,1.0000
i_salon_1_6,illumination,1154,1001,7.07,0.4617,0.8553,0.9298,0.9627,1,1,1,0.5383,0.8461,0.9077,0.9538
i_santuario_1_2,illumination,1311,1138,7.26,1.1344,0.8574,0.9359,0.9680,1,1,1,0.0000,0.6219,0.7731,0.8866
i_santuario_1_3,illumination,1311,1132,7.09,1.2458,0.8352,0.9329,0.9649,1,1,1,0.0000,0.5847,0.7508,0.8754
i_santuario_1_4,illumination,1228,1033,7.12,1.4522,0.7858,0.9055,0.9552,1,1,1,0.0000,0.5159,0.7096,0.8548
i_santuario_1_5,illumination,1290,1095,7.24,0.2928,0.8496,0.9202,0.9620,1,1,1,0.7072,0.9024,0.9414,0.9707
i_santuario_1_6,illumination,1178,989,6.93,0.7572,0.8260,0.9100,0.9474,1,1,1,0.2428,0.7476,0.8486,0.9243
i_school_1_2,illumination,1164,1085,7.04,0.2373,0.9304,0.9588,0.9845,1,1,1,0.7627,0.9209,0.9525,0.9763
i_school_1_3,illumination,1122,1042,6.80,0.3031,0.9234,0.9688,0.9884,1,1,1,0.6969,0.8990,0.9394,0.9697
i_school_1_4,illumination,1011,835,6.99,0.6592,0.8160,0.8991,0.9367,1,1,1,0.3408,0.7803,0.8682,0.9341
i_school_1_5,illumination,1081,936,7.09,0.9046,0.8622,0.9149,0.9510,1,1,1,0.0954,0.6985,0.8191,0.9095
i_school_1_6,illumination,901,670,7.06,1.0800,0.7292,0.8213,0.8679,1,1,1,0.0000,0.6400,0.7840,0.8920
i_ski_1_2,illumination,1678,1571,8.28,0.2940,0.9344,0.9768,0.9851,1,1,1,0.7060,0.9020,0.9412,0.9706
i_ski_1_3,illumination,1614,1462,8.00,0.2443,0.8978,0.9535,0.9746,1,1,1,0.7557,0.9186,0.9511,0.9756
i_ski_1_4,illumination,1554,1348,8.01,0.7356,0.8591,0.9350,0.9653,1,1,1,0.2644,0.7548,0.8529,0.9264
i_ski_1_5,illumination,1483,1255,7.85,0.3981,0.8328,0.9238,0.9622,1,1,1,0.6019,0.8673,0.9204,0.9602
i_ski_1_6,illumination,1456,1203,8.69,0.5949,0.8228,0.9128,0.9540,1,1,1,0.4051,0.8017,0.8810,0.9405
i_smurf_1_2,illumination,920,812,6.10,0.3321,0.8783,0.9196,0.9511,1,1,1,0.6679,0.8893,0.9336,0.9668
i_smurf_1_3,illumination,916,797,5.90,0.3068,0.8690,0.9192,0.9443,1,1,1,0.6932,0.8977,0.9386,0.9693
i_smurf_1_4,illumination,912,783,6.15,0.3894,0.8542,0.9068,0.9353,1,1,1,0.6106,0.8702,0.9221,0.9611
i_smurf_1_5,illumination,897,753,5.98,0.2359,0.8372,0.8885,0.9164,1,1,1,0.7641,0.9214,0.9528,0.9764
i_smurf_1_6,illumination,766,581,5.80,0.6750,0.7572,0.8355,0.8799,1,1,1,0.3250,0.7750,0.8650,0.9325
i_steps_1_2,illumination,843,799,5.44,0.4567,0.9466,0.9786,0.9893,1,1,1,0.5433,0.8478,0.9087,0.9543
i_steps_1_3,illumination,916,847,6.39,1.3392,0.9148,0.9651,0.9771,1,1,1,0.0000,0.5536,0.7322,0.8661
i_steps_1_4,illumination,962,886,6.51,0.5675,0.9116,0.9605,0.9719,1,1,1,0.4325,0.8108,0.8865,0.9432
i_steps_1_5,illumination,824,723,5.69,0.5716,0.8629,0.9369,0.9563,1,1,1,0.4284,0.8095,0.8857,0.9428
i_steps_1_6,illumination,922,843,6.04,0.7520,0.9046,0.9588,0.9794,1,1,1,0.2480,0.7493,0.8496,0.9248
i_table_1_2,illumination,1286,1099,8.03,0.6507,0.8546,0.9285,0.9611,1,1,1,0.3493,0.7831,0.8699,0.9349
i_table_1_3,illumination,1253,1020,7.39,0.8789,0.8085,0.8978,0.9505,1,1,1,0.1211,0.7070,0.8242,0.9121
i_table_1_4,illumination,1148,816,7.06,0.7602,0.7047,0.8423,0.9094,1,1,1,0.2398,0.7466,0.8480,0.9240
i_table_1_5,illumination,1168,812,7.45,0.9984,0.6935,0.8348,0.9101,1,1,1,0.0016,0.6672,0.8003,0.9002
i_table_1_6,illumination,1367,1247,7.10,0.2430,0.9181,0.9576,0.9832,1,1,1,0.7570,0.9190,0.9514,0.9757
i_tools_1_2,illumination,612,330,5.37,2.4683,0.4967,0.6471,0.7761,1,1,1,0.0000,0.1772,0.5063,0.7532
i_tools_1_3,illumination,659,536,5.23,1.3212,0.7936,0.9226,0.9712,1,1,1,0.0000,0.5596,0.7358,0.8679
i_tools_1_4,illumination,645,372,5.36,2.8951,0.5426,0.7023,0.8124,1,1,1,0.0000,0.0350,0.4210,0.7105
i_tools_1_5,illumination,641,481,5.16,1.9215,0.7473,0.8502,0.9064,1,1,1,0.0000,0.3595,0.6157,0.8079
i_tools_1_6,illumination,616,300,5.53,6.0945,0.3052,0.4383,0.6445,0,0,1,0.0000,0.0000,0.0000,0.3906
i_toy_1_2,illumination,1682,1456,9.29,0.2065,0.8639,0.9251,0.9584,1,1,1,0.7935,0.9312,0.9587,0.9794
i_toy_1_3,illumination,1624,1346,10.26,0.4374,0.8276,0.8984,0.9372,1,1,1,0.5626,0.8542,0.9125,0.9563
i_toy_1_4,illumination,1546,1155,10.15,0.7129,0.7451,0.8344,0.8823,1,1,1,0.2871,0.7624,0.8574,0.9287
i_toy_1_5,illumination,1434,942,10.19,1.1206,0.6423,0.7524,0.8298,1,1,1,0.0000,0.6265,0.7759,0.8879
i_toy_1_6,illumination,1246,650,9.06,1.1714,0.5096,0.6308,0.7022,1,1,1,0.0000,0.6095,0.7657,0.8829
i_troulos_1_2,illumination,636,548,4.82,0.7262,0.8412,0.9513,0.9811,1,1,1,0.2738,0.7579,0.8548,0.9274
i_troulos_1_3,illumination,580,471,4.71,2.8235,0.4603,0.8776,0.9466,1,1,1,0.0000,0.0588,0.4353,0.7177
i_troulos_1_4,illumination,769,693,4.87,0.4564,0.8856,0.9662,0.9805,1,1,1,0.5436,0.8479,0.9087,0.9544
i_troulos_1_5,illumination,710,584,5.08,1.1959,0.7986,0.9099,0.9620,1,1,1,0.0000,0.6014,0.7608,0.8804
i_troulos_1_6,illumination,652,556,4.83,1.1741,0.8298,0.9325,0.9571,1,1,1,0.0000,0.6086,0.7652,0.8826
i_veggies_1_2,illumination,971,924,5.88,0.3558,0.9516,0.9722,0.9856,1,1,1,0.6442,0.8814,0.9288,0.9644
i_veggies_1_3,illumination,859,723,5.84,0.5191,0.8452,0.9173,0.9488,1,1,1,0.4809,0.8270,0.8962,0.9481
i_veggies_1_4,illumination,966,867,6.13,0.2095,0.8986,0.9441,0.9679,1,1,1,0.7905,0.9302,0.9581,0.9791
i_veggies_1_5,illumination,820,609,6.44,0.8332,0.7317,0.8232,0.8756,1,1,1,0.1668,0.7223,0.8334,0.9167
i_veggies_1_6,illumination,782,546,6.24,0.9612,0.6880,0.7941,0.8555,1,1,1,0.0388,0.6796,0.8078,0.9039
i_village_1_2,illumination,1401,1145,14.68,0.5945,0.8173,0.8944,0.9450,1,1,1,0.4055,0.8018,0.8811,0.9406
i_village_1_3,illumination,1509,1228,8.87,0.6371,0.8085,0.8926,0.9423,1,1,1,0.3629,0.7876,0.8726,0.9363
i_village_1_4,illumination,1472,1229,9.08,0.7689,0.8349,0.9042,0.9423,1,1,1,0.2311,0.7437,0.8462,0.9231
i_village_1_5,illumination,1666,1541,8.85,0.2523,0.9244,0.9508,0.9748,1,1,1,0.7477,0.9159,0.9495,0.9748
i_village_1_6,illumination,1479,1169,8.56,0.8291,0.7647,0.8756,0.9297,1,1,1,0.1709,0.7236,0.8342,0.9171
i_yellowtent_1_2,illumination,1112,1080,6.27,0.1920,0.9658,0.9856,0.9892,1,1,1,0.8080,0.9360,0.9616,0.9808
i_yellowtent_1_3,illumination,1006,904,6.16,0.7343,0.8797,0.9443,0.9732,1,1,1,0.2657,0.7552,0.8531,0.9266
i_yellowtent_1_4,illumination,896,753,6.06,0.8233,0.8158,0.9007,0.9342,1,1,1,0.1767,0.7256,0.8353,0.9177
i_yellowtent_1_5,illumination,981,835,6.28,0.4660,0.8512,0.9042,0.9368,1,1,1,0.5340,0.8447,0.9068,0.9534
i_yellowtent_1_6,illumination,906,748,6.55,0.5559,0.8168,0.8731,0.9095,1,1,1,0.4441,0.8147,0.8888,0.9444
i_zion_1_2,illumination,1464,1342,8.16,0.1667,0.9194,0.9597,0.9781,1,1,1,0.8333,0.9444,0.9667,0.9833
i_zion_1_3,illumination,1280,1073,8.13,0.5202,0.8305,0.9117,0.9398,1,1,1,0.4798,0.8266,0.8960,0.9480
i_zion_1_4,illumination,1185,920,7.64,0.7552,0.7713,0.8633,0.8928,1,1,1,0.2448,0.7483,0.8490,0.9245
i_zion_1_5,illumination,901,559,7.64,1.5277,0.6104,0.6981,0.7547,1,1,1,0.0000,0.4908,0.6945,0.8472
i_zion_1_6,illumination,690,416,6.50,0.7574,0.5971,0.6971,0.7696,1,1,1,0.2426,0.7475,0.8485,0.9243
v_abstract_1_2,viewpoint,1205,1112,7.74,0.3630,0.9237,0.9560,0.9660,1,1,1,0.6370,0.8790,0.9274,0.9637
v_abstract_1_3,viewpoint,1140,1063,7.51,0.4272,0.9298,0.9614,0.9737,1,1,1,0.5728,0.8576,0.9146,0.9573
v_abstract_1_4,viewpoint,925,794,7.76,1.5666,0.8551,0.8973,0.9254,1,1,1,0.0000,0.4778,0.6867,0.8433
v_abstract_1_5,viewpoint,1006,894,7.33,0.8793,0.8907,0.9235,0.9443,1,1,1,0.1207,0.7069,0.8241,0.9121
v_abstract_1_6,viewpoint,844,673,7.10,1.5741,0.7820,0.8483,0.8709,1,1,1,0.0000,0.4753,0.6852,0.8426
v_adam_1_2,viewpoint,861,802,5.86,0.3812,0.9245,0.9675,0.9814,1,1,1,0.6188,0.8729,0.9238,0.9619
v_adam_1_3,viewpoint,798,745,5.71,0.5521,0.9323,0.9687,0.9799,1,1,1,0.4479,0.8160,0.8896,0.9448
v_adam_1_4,viewpoint,597,512,5.44,0.6754,0.8576,0.9313,0.9648,1,1,1,0.3246,0.7749,0.8649,0.9325
v_adam_1_5,viewpoint,715,655,5.68,0.4811,0.9133,0.9552,0.9678,1,1,1,0.5189,0.8396,0.9038,0.9519
v_adam_1_6,viewpoint,691,605,5.71,0.6589,0.8813,0.9436,0.9667,1,1,1,0.3411,0.7804,0.8682,0.9341
v_apprentices_1_2,viewpoint,1737,1675,14.92,0.1287,0.9643,0.9845,0.9891,1,1,1,0.8713,0.9571,0.9743,0.9871
v_apprentices_1_3,viewpoint,1559,1484,8.68,0.4992,0.9513,0.9795,0.9865,1,1,1,0.5008,0.8336,0.9002,0.9501
v_apprentices_1_4,viewpoint,1356,1264,7.98,0.8170,0.9314,0.9653,0.9771,1,1,1,0.1830,0.7277,0.8366,0.9183
v_apprentices_1_5,viewpoint,1194,1103,7.73,0.9848,0.9221,0.9598,0.9782,1,1,1,0.0152,0.6717,0.8030,0.9015
v_apprentices_1_6,viewpoint,1065,954,7.18,0.7086,0.8930,0.9437,0.9568,1,1,1,0.2914,0.7638,0.8583,0.9291
v_azzola_1_2,viewpoint,1498,1377,16.63,0.8773,0.9099,0.9559,0.9673,1,1,1,0.1227,0.7076,0.8245,0.9123
v_azzola_1_3,viewpoint,1335,1113,8.86,1.4018,0.8105,0.9363,0.9596,1,1,1,0.0000,0.5327,0.7196,0.8598
v_azzola_1_4,viewpoint,1503,1440,8.78,0.5958,0.9548,0.9780,0.9834,1,1,1,0.4042,0.8014,0.8808,0.9404
v_azzola_1_5,viewpoint,1081,868,9.58,0.9501,0.7826,0.9149,0.9408,1,1,1,0.0499,0.6833,0.8100,0.9050
v_azzola_1_6,viewpoint,624,424,7.91,3.7810,0.6795,0.7821,0.8061,0,1,1,0.0000,0.0000,0.2438,0.6219
v_bark_1_2,viewpoint,741,381,12.32,1.1983,0.5088,0.6194,0.7126,1,1,1,0.0000,0.6006,0.7603,0.8802
v_bark_1_3,viewpoint,281,11,7.83,475.6248,0.0000,0.0000,0.0000,0,0,0,0.0000,0.0000,0.0000,0.0000
v_bark_1_4,viewpoint,278,7,8.02,276.2766,0.0000,0.0000,0.0000,0,0,0,0.0000,0.0000,0.0000,0.0000
v_bark_1_5,viewpoint,396,28,7.90,2.1775,0.0732,0.0909,0.1111,1,1,1,0.0000,0.2742,0.5645,0.7823
v_bark_1_6,viewpoint,293,10,7.75,519.3140,0.0000,0.0000,0.0000,0,0,0,0.0000,0.0000,0.0000,0.0000
v_bees_1_2,viewpoint,1580,1531,8.09,0.3252,0.9696,0.9854,0.9918,1,1,1,0.6748,0.8916,0.9350,0.9675
v_bees_1_3,viewpoint,1542,1491,7.83,0.2059,0.9695,0.9851,0.9903,1,1,1,0.7941,0.9314,0.9588,0.9794
v_bees_1_4,viewpoint,1428,1389,7.84,0.4117,0.9720,0.9846,0.9937,1,1,1,0.5883,0.8628,0.9177,0.9588
v_bees_1_5,viewpoint,1124,1054,7.42,0.9283,0.9306,0.9635,0.9742,1,1,1,0.0717,0.6906,0.8143,0.9072
v_bees_1_6,viewpoint,1278,1164,7.76,0.7208,0.8975,0.9577,0.9781,1,1,1,0.2792,0.7597,0.8558,0.9279
v_beyus_1_2,viewpoint,497,415,12.25,0.9654,0.8290,0.9074,0.9336,1,1,1,0.0346,0.6782,0.8069,0.9035
v_beyus_1_3,viewpoint,551,395,5.81,2.8119,0.7114,0.8203,0.8639,1,1,1,0.0000,0.0627,0.4376,0.7188
v_beyus_1_4,viewpoint,636,566,6.59,0.6304,0.8931,0.9387,0.9607,1,1,1,0.3696,0.7899,0.8739,0.9370
v_beyus_1_5,viewpoint,440,322,5.69,2.7096,0.7227,0.8227,0.8795,1,1,1,0.0000,0.0968,0.4581,0.7290
v_beyus_1_6,viewpoint,574,462,5.68,1.1693,0.8031,0.8937,0.9286,1,1,1,0.0000,0.6102,0.7661,0.8831
v_bip_1_2,viewpoint,1142,1080,8.02,0.1503,0.9475,0.9667,0.9737,1,1,1,0.8497,0.9499,0.9699,0.9850
v_bip_1_3,viewpoint,1041,944,7.79,0.1650,0.9059,0.9424,0.9510,1,1,1,0.8350,0.9450,0.9670,0.9835
v_bip_1_4,viewpoint,1080,996,9.19,0.3321,0.9222,0.9602,0.9713,1,1,1,0.6679,0.8893,0.9336,0.9668
v_bip_1_5,viewpoint,604,353,7.21,1.0755,0.5828,0.6921,0.7384,1,1,1,0.0000,0.6415,0.7849,0.8925
v_bip_1_6,viewpoint,375,59,7.22,1.6934,0.1520,0.1920,0.2133,1,1,1,0.0000,0.4355,0.6613,0.8307
v_bird_1_2,viewpoint,1067,1000,8.65,76.5844,0.0000,0.0000,0.0000,0,0,0,0.0000,0.0000,0.0000,0.0000
v_bird_1_3,viewpoint,1005,897,9.42,84.0104,0.0000,0.0010,0.0010,0,0,0,0.0000,0.0000,0.0000,0.0000
v_bird_1_4,viewpoint,997,896,8.67,99.5771,0.0000,0.0000,0.0000,0,0,0,0.0000,0.0000,0.0000,0.0000
v_bird_1_5,viewpoint,984,749,8.08,85.3858,0.0000,0.0010,0.0020,0,0,0,0.0000,0.0000,0.0000,0.0000
v_bird_1_6,viewpoint,693,417,7.97,188.2473,0.0000,0.0000,0.0000,0,0,0,0.0000,0.0000,0.0000,0.0000
v_birdwoman_1_2,viewpoint,549,386,7.03,44.3293,0.0000,0.0000,0.0000,0,0,0,0.0000,0.0000,0.0000,0.0000
v_birdwoman_1_3,viewpoint,814,635,7.37,54.4329,0.0000,0.0000,0.0000,0,0,0,0.0000,0.0000,0.0000,0.0000
v_birdwoman_1_4,viewpoint,964,842,7.47,50.1044,0.0000,0.0000,0.0000,0,0,0,0.0000,0.0000,0.0000,0.0000
v_birdwoman_1_5,viewpoint,1177,1086,7.52,52.6275,0.0000,0.0000,0.0000,0,0,0,0.0000,0.0000,0.0000,0.0000
v_birdwoman_1_6,viewpoint,936,799,7.32,51.3469,0.0000,0.0000,0.0000,0,0,0,0.0000,0.0000,0.0000,0.0000
v_blueprint_1_2,viewpoint,1491,1392,8.79,0.3119,0.9329,0.9752,0.9859,1,1,1,0.6881,0.8960,0.9376,0.9688
v_blueprint_1_3,viewpoint,1281,1160,8.33,0.6107,0.9040,0.9594,0.9758,1,1,1,0.3893,0.7964,0.8779,0.9389
v_blueprint_1_4,viewpoint,1430,1323,9.19,0.4898,0.9245,0.9678,0.9846,1,1,1,0.5102,0.8367,0.9020,0.9510
v_blueprint_1_5,viewpoint,1144,1006,8.12,0.5854,0.8802,0.9283,0.9519,1,1,1,0.4146,0.8049,0.8829,0.9415
v_blueprint_1_6,viewpoint,867,694,7.49,1.0808,0.7982,0.8766,0.8950,1,1,1,0.0000,0.6397,0.7838,0.8919
v_boat_1_2,viewpoint,1524,1379,14.81,0.2633,0.9055,0.9560,0.9724,1,1,1,0.7367,0.9122,0.9473,0.9737
v_boat_1_3,viewpoint,649,259,8.13,1.1316,0.4114,0.5193,0.6009,1,1,1,0.0000,0.6228,0.7737,0.8868
v_boat_1_4,viewpoint,247,7,7.63,70882.9070,0.0162,0.0405,0.0567,0,0,0,0.0000,0.0000,0.0000,0.0000
v_boat_1_5,viewpoint,304,15,7.82,338.8499,0.0000,0.0000,0.0000,0,0,0,0.0000,0.0000,0.0000,0.0000
v_boat_1_6,viewpoint,682,426,6.71,0.9992,0.6232,0.6891,0.7229,1,1,1,0.0008,0.6669,0.8002,0.9001
v_bricks_1_2,viewpoint,1659,1599,8.99,33.4862,0.0042,0.0253,0.0567,0,0,0,0.0000,0.0000,0.0000,0.0000
v_bricks_1_3,viewpoint,1598,1494,9.59,32.1351,0.0006,0.0138,0.0432,0,0,0,0.0000,0.0000,0.0000,0.0000
v_bricks_1_4,viewpoint,1425,1291,9.39,31.2788,0.0000,0.0028,0.0218,0,0,0,0.0000,0.0000,0.0000,0.0000
v_bricks_1_5,viewpoint,1284,1127,8.87,28.0198,0.0023,0.0070,0.0335,0,0,0,0.0000,0.0000,0.0000,0.0000
v_bricks_1_6,viewpoint,1005,786,8.85,27.5881,0.0000,0.0000,0.0030,0,0,0,0.0000,0.0000,0.0000,0.0000
v_busstop_1_2,viewpoint,1434,1352,8.67,0.3556,0.9421,0.9603,0.9707,1,1,1,0.6444,0.8815,0.9289,0.9644
v_busstop_1_3,viewpoint,1267,1146,9.03,0.5986,0.9037,0.9471,0.9558,1,1,1,0.4014,0.8005,0.8803,0.9401
v_busstop_1_4,viewpoint,1301,1214,8.25,0.8530,0.9324,0.9662,0.9762,1,1,1,0.1470,0.7157,0.8294,0.9147
v_busstop_1_5,viewpoint,1315,1227,8.26,0.7188,0.9346,0.9567,0.9688,1,1,1,0.2812,0.7604,0.8562,0.9281
v_busstop_1_6,viewpoint,1506,1408,8.47,0.4882,0.9316,0.9655,0.9814,1,1,1,0.5118,0.8373,0.9024,0.9512
v_calder_1_2,viewpoint,912,849,7.06,0.4167,0.9298,0.9572,0.9660,1,1,1,0.5833,0.8611,0.9167,0.9583
v_calder_1_3,viewpoint,1051,1003,7.57,0.2054,0.9534,0.9762,0.9867,1,1,1,0.7946,0.9315,0.9589,0.9795
v_calder_1_4,viewpoint,725,629,6.61,0.3566,0.8662,0.9090,0.9269,1,1,1,0.6434,0.8811,0.9287,0.9643
v_calder_1_5,viewpoint,699,550,6.81,0.2604,0.7811,0.8355,0.8584,1,1,1,0.7396,0.9132,0.9479,0.9740
v_calder_1_6,viewpoint,563,348,6.69,0.5583,0.6181,0.6821,0.7247,1,1,1,0.4417,0.8139,0.8883,0.9442
v_cartooncity_1_2,viewpoint,1607,1520,8.36,62.0589,0.0000,0.0000,0.0006,0,0,0,0.0000,0.0000,0.0000,0.0000
v_cartooncity_1_3,viewpoint,1113,876,7.82,67.7387,0.0009,0.0027,0.0036,0,0,0,0.0000,0.0000,0.0000,0.0000
v_cartooncity_1_4,viewpoint,1490,1360,8.07,74.3459,0.0000,0.0007,0.0020,0,0,0,0.0000,0.0000,0.0000,0.0000
v_cartooncity_1_5,viewpoint,1109,977,7.85,75.9754,0.0000,0.0000,0.0009,0,0,0,0.0000,0.0000,0.0000,0.0000
v_cartooncity_1_6,viewpoint,1098,840,8.33,72.1359,0.0000,0.0000,0.0009,0,0,0,0.0000,0.0000,0.0000,0.0000
v_charing_1_2,viewpoint,707,491,6.97,3.6298,0.6874,0.7709,0.8006,0,1,1,0.0000,0.0000,0.2740,0.6370
v_charing_1_3,viewpoint,553,326,7.19,41.9146,0.5750,0.7034,0.7812,0,0,0,0.0000,0.0000,0.0000,0.0000
v_charing_1_4,viewpoint,585,423,5.83,11.5862,0.7077,0.8068,0.8462,0,0,0,0.0000,0.0000,0.0000,0.0000
v_charing_1_5,viewpoint,550,413,5.91,36.7686,0.7473,0.8636,0.9055,0,0,0,0.0000,0.0000,0.0000,0.0000
v_charing_1_6,viewpoint,555,405,5.98,79.7682,0.7063,0.8270,0.8739,0,0,0,0.0000,0.0000,0.0000,0.0000
v_churchill_1_2,viewpoint,998,918,6.69,1.2954,0.9188,0.9589,0.9749,1,1,1,0.0000,0.5682,0.7409,0.8705
v_churchill_1_3,viewpoint,930,801,6.54,2.9607,0.8602,0.9269,0.9462,1,1,1,0.0000,0.0131,0.4079,0.7039
v_churchill_1_4,viewpoint,928,825,6.85,0.9194,0.8869,0.9397,0.9580,1,1,1,0.0806,0.6935,0.8161,0.9081
v_churchill_1_5,viewpoint,1095,1056,6.46,0.2567,0.9644,0.9826,0.9900,1,1,1,0.7433,0.9144,0.9487,0.9743
v_churchill_1_6,viewpoint,794,665,6.41,1.3689,0.8375,0.8942,0.9219,1,1,1,0.0000,0.5437,0.7262,0.8631
v_circus_1_2,viewpoint,1206,1070,9.00,0.4180,0.8881,0.9569,0.9726,1,1,1,0.5820,0.8607,0.9164,0.9582
v_circus_1_3,viewpoint,1172,975,8.12,1.0679,0.8302,0.9386,0.9599,1,1,1,0.0000,0.6440,0.7864,0.8932
v_circus_1_4,viewpoint,942,672,8.17,1.3258,0.7123,0.8577,0.9098,1,1,1,0.0000,0.5581,0.7348,0.8674
v_circus_1_5,viewpoint,1199,1063,7.53,0.5593,0.8816,0.9491,0.9675,1,1,1,0.4407,0.8136,0.8881,0.9441
v_circus_1_6,viewpoint,1077,876,7.54,1.1422,0.8013,0.9146,0.9452,1,1,1,0.0000,0.6193,0.7716,0.8858
v_coffeehouse_1_2,viewpoint,917,840,6.64,0.6300,0.9117,0.9400,0.9498,1,1,1,0.3700,0.7900,0.8740,0.9370
v_coffeehouse_1_3,viewpoint,907,836,6.43,0.7307,0.9173,0.9438,0.9482,1,1,1,0.2693,0.7564,0.8539,0.9269
v_coffeehouse_1_4,viewpoint,868,789,6.35,1.1906,0.9078,0.9424,0.9562,1,1,1,0.0000,0.6031,0.7619,0.8809
v_coffeehouse_1_5,viewpoint,835,750,6.52,0.4616,0.8994,0.9257,0.9365,1,1,1,0.5384,0.8461,0.9077,0.9538
v_coffeehouse_1_6,viewpoint,727,618,9.44,0.5887,0.8514,0.8927,0.9078,1,1,1,0.4113,0.8038,0.8823,0.9411
v_colors_1_2,viewpoint,351,234,5.06,1.5980,0.6524,0.8120,0.8433,1,1,1,0.0000,0.4673,0.6804,0.8402
v_colors_1_3,viewpoint,335,203,4.69,2.7193,0.6060,0.7642,0.8030,1,1,1,0.0000,0.0936,0.4561,0.7281
v_colors_1_4,viewpoint,237,54,4.87,23.2196,0.2236,0.3165,0.3629,0,0,0,0.0000,0.0000,0.0000,0.0000
v_colors_1_5,viewpoint,215,35,4.80,16.1627,0.1674,0.2000,0.2372,0,0,0,0.0000,0.0000,0.0000,0.0000
v_colors_1_6,viewpoint,207,33,4.88,30.4866,0.1401,0.1836,0.2126,0,0,0,0.0000,0.0000,0.0000,0.0000
v_courses_1_2,viewpoint,1135,1077,6.78,0.9485,0.9463,0.9762,0.9815,1,1,1,0.0515,0.6838,0.8103,0.9052
v_courses_1_3,viewpoint,995,924,6.68,1.5088,0.9246,0.9709,0.9839,1,1,1,0.0000,0.4971,0.6982,0.8491
v_courses_1_4,viewpoint,1008,940,6.45,0.8968,0.9335,0.9702,0.9762,1,1,1,0.1032,0.7011,0.8206,0.9103
v_courses_1_5,viewpoint,907,755,6.72,1.9320,0.8247,0.9361,0.9493,1,1,1,0.0000,0.3560,0.6136,0.8068
v_courses_1_6,viewpoint,822,650,6.51,2.5122,0.7713,0.8881,0.9148,1,1,1,0.0000,0.1626,0.4976,0.7488
v_dirtywall_1_2,viewpoint,1417,1334,15.01,0.2985,0.9414,0.9689,0.9831,1,1,1,0.7015,0.9005,0.9403,0.9701
v_dirtywall_1_3,viewpoint,1256,1144,9.71,0.4608,0.9124,0.9546,0.9697,1,1,1,0.5392,0.8464,0.9078,0.9539
v_dirtywall_1_4,viewpoint,1113,970,8.21,0.5759,0.8697,0.9227,0.9461,1,1,1,0.4241,0.8080,0.8848,0.9424
v_dirtywall_1_5,viewpoint,1212,1105,8.05,0.6365,0.9101,0.9447,0.9563,1,1,1,0.3635,0.7878,0.8727,0.9363
v_dirtywall_1_6,viewpoint,923,741,7.80,0.8730,0.8061,0.8613,0.8808,1,1,1,0.1270,0.7090,0.8254,0.9127
v_dogman_1_2,viewpoint,666,590,5.17,1.0419,0.8859,0.9279,0.9459,1,1,1,0.0000,0.6527,0.7916,0.8958
v_dogman_1_3,viewpoint,707,643,5.43,0.4200,0.9095,0.9364,0.9533,1,1,1,0.5800,0.8600,0.9160,0.9580
v_dogman_1_4,viewpoint,518,387,5.30,1.9182,0.7452,0.8514,0.8958,1,1,1,0.0000,0.3606,0.6164,0.8082
v_dogman_1_5,viewpoint,572,489,4.92,0.9416,0.8549,0.8916,0.9178,1,1,1,0.0584,0.6861,0.8117,0.9058
v_dogman_1_6,viewpoint,389,238,4.94,2.5772,0.5938,0.6941,0.7121,1,1,1,0.0000,0.1409,0.4846,0.7423
v_eastsouth_1_2,viewpoint,1557,1475,8.66,0.2942,0.9473,0.9737,0.9820,1,1,1,0.7058,0.9019,0.9412,0.9706
v_eastsouth_1_3,viewpoint,803,332,9.05,2.0419,0.4197,0.5268,0.5928,1,1,1,0.0000,0.3194,0.5916,0.7958
v_eastsouth_1_4,viewpoint,352,9,9.20,233.6738,0.0028,0.0028,0.0028,0,0,0,0.0000,0.0000,0.0000,0.0000
v_eastsouth_1_5,viewpoint,558,38,8.80,6.2150,0.0806,0.1219,0.1595,0,0,1,0.0000,0.0000,0.0000,0.3785
v_eastsouth_1_6,viewpoint,605,145,8.76,1.2556,0.2413,0.2992,0.3223,1,1,1,0.0000,0.5815,0.7489,0.8744
v_feast_1_2,viewpoint,1268,1181,8.09,0.5014,0.9306,0.9645,0.9771,1,1,1,0.4986,0.8329,0.8997,0.9499
v_feast_1_3,viewpoint,1390,1298,8.45,0.6032,0.9288,0.9676,0.9813,1,1,1,0.3968,0.7989,0.8794,0.9397
v_feast_1_4,viewpoint,1046,884,8.09,0.5638,0.8413,0.9006,0.9197,1,1,1,0.4362,0.8121,0.8872,0.9436
v_feast_1_5,viewpoint,1305,1204,8.21,0.6973,0.9195,0.9556,0.9739,1,1,1,0.3027,0.7676,0.8605,0.9303
v_feast_1_6,viewpoint,1116,987,8.26,1.4507,0.8763,0.9382,0.9543,1,1,1,0.0000,0.5164,0.7099,0.8549
v_fest_1_2,viewpoint,1440,1357,9.75,0.3816,0.9424,0.9632,0.9722,1,1,1,0.6184,0.8728,0.9237,0.9618
v_fest_1_3,viewpoint,1167,1031,9.34,0.8312,0.8809,0.9460,0.9597,1,1,1,0.1688,0.7229,0.8338,0.9169
v_fest_1_4,viewpoint,1149,1073,8.52,0.4863,0.9312,0.9713,0.9791,1,1,1,0.5137,0.8379,0.9027,0.9514
v_fest_1_5,viewpoint,1135,1035,8.16,1.0498,0.8978,0.9515,0.9683,1,1,1,0.0000,0.6501,0.7900,0.8950
v_fest_1_6,viewpoint,988,812,8.41,2.3382,0.8097,0.8785,0.9119,1,1,1,0.0000,0.2206,0.5324,0.7662
v_gardens_1_2,viewpoint,1215,1105,8.31,1.0044,0.9070,0.9457,0.9547,1,1,1,0.0000,0.6652,0.7991,0.8996
v_gardens_1_3,viewpoint,800,611,7.74,3.2514,0.7475,0.8375,0.8675,0,1,1,0.0000,0.0000,0.3497,0.6749
v_gardens_1_4,viewpoint,1413,1327,8.63,0.8294,0.9377,0.9582,0.9745,1,1,1,0.1706,0.7235,0.8341,0.9171
v_gardens_1_5,viewpoint,959,783,7.62,2.2397,0.8019,0.8644,0.8874,1,1,1,0.0000,0.2534,0.5521,0.7760
v_gardens_1_6,viewpoint,1187,987,7.71,0.6647,0.8214,0.9217,0.9587,1,1,1,0.3353,0.7784,0.8671,0.9335
v_grace_1_2,viewpoint,829,763,6.44,0.4989,0.9192,0.9457,0.9554,1,1,1,0.5011,0.8337,0.9002,0.9501
v_grace_1_3,viewpoint,745,662,5.95,0.6454,0.8819,0.9275,0.9477,1,1,1,0.3546,0.7849,0.8709,0.9355
v_grace_1_4,viewpoint,654,550,5.67,1.3429,0.8379,0.9006,0.9205,1,1,1,0.0000,0.5524,0.7314,0.8657
v_grace_1_5,viewpoint,550,378,5.66,1.3579,0.6891,0.7255,0.7564,1,1,1,0.0000,0.5474,0.7284,0.8642
v_grace_1_6,viewpoint,451,225,5.55,2.5367,0.4789,0.5322,0.5565,1,1,1,0.0000,0.1544,0.4927,0.7463
v_graffiti_1_2,viewpoint,1004,801,7.30,0.7190,0.7988,0.8775,0.9124,1,1,1,0.2810,0.7603,0.8562,0.9281
v_graffiti_1_3,viewpoint,936,723,7.22,1.6481,0.7596,0.8654,0.8953,1,1,1,0.0000,0.4506,0.6704,0.8352
v_graffiti_1_4,viewpoint,643,154,7.71,1.5156,0.2395,0.3375,0.4137,1,1,1,0.0000,0.4948,0.6969,0.8484
v_graffiti_1_5,viewpoint,705,474,7.53,0.9529,0.6667,0.7716,0.8043,1,1,1,0.0471,0.6824,0.8094,0.9047
v_graffiti_1_6,viewpoint,402,67,7.34,4.7079,0.1468,0.1990,0.2463,0,1,1,0.0000,0.0000,0.0584,0.5292
v_home_1_2,viewpoint,769,677,7.07,0.7739,0.8700,0.9194,0.9285,1,1,1,0.2261,0.7420,0.8452,0.9226
v_home_1_3,viewpoint,679,570,7.52,1.4347,0.8306,0.8792,0.8866,1,1,1,0.0000,0.5218,0.7131,0.8565
v_home_1_4,viewpoint,782,704,7.12,1.4193,0.8990,0.9386,0.9552,1,1,1,0.0000,0.5269,0.7161,0.8581
v_home_1_5,viewpoint,673,527,6.81,4.4194,0.7623,0.8618,0.8796,0,1,1,0.0000,0.0000,0.1161,0.5581
v_home_1_6,viewpoint,409,146,6.17,3.2740,0.3496,0.4670,0.5428,0,1,1,0.0000,0.0000,0.3452,0.6726
v_laptop_1_2,viewpoint,1000,967,6.24,0.2263,0.9670,0.9890,0.9940,1,1,1,0.7737,0.9246,0.9547,0.9774
v_laptop_1_3,viewpoint,642,474,6.16,0.7557,0.7414,0.8474,0.8972,1,1,1,0.2443,0.7481,0.8489,0.9244
v_laptop_1_4,viewpoint,367,40,6.15,7.2872,0.1090,0.1689,0.2234,0,0,0,0.0000,0.0000,0.0000,0.2713
v_laptop_1_5,viewpoint,281,10,6.02,669.9449,0.0000,0.0000,0.0000,0,0,0,0.0000,0.0000,0.0000,0.0000
v_laptop_1_6,viewpoint,281,7,6.21,446.2173,0.0036,0.0036,0.0036,0,0,0,0.0000,0.0000,0.0000,0.0000
v_london_1_2,viewpoint,1517,1416,9.25,0.2060,0.9347,0.9657,0.9763,1,1,1,0.7940,0.9313,0.9588,0.9794
v_london_1_3,viewpoint,1259,1171,8.20,0.3130,0.9301,0.9523,0.9658,1,1,1,0.6870,0.8957,0.9374,0.9687
v_london_1_4,viewpoint,1269,1158,8.61,1.2686,0.9086,0.9448,0.9630,1,1,1,0.0000,0.5771,0.7463,0.8731
v_london_1_5,viewpoint,1401,1330,8.08,0.3430,0.9500,0.9693,0.9814,1,1,1,0.6570,0.8857,0.9314,0.9657
v_london_1_6,viewpoint,1570,1490,8.28,0.2666,0.9490,0.9745,0.9841,1,1,1,0.7334,0.9111,0.9467,0.9733
v_machines_1_2,viewpoint,1180,1110,7.39,0.4474,0.9415,0.9729,0.9822,1,1,1,0.5526,0.8509,0.9105,0.9553
v_machines_1_3,viewpoint,877,750,6.61,2.5187,0.8153,0.9350,0.9624,1,1,1,0.0000,0.1604,0.4963,0.7481
v_machines_1_4,viewpoint,1026,974,6.62,0.5727,0.9493,0.9756,0.9834,1,1,1,0.4273,0.8091,0.8855,0.9427
v_machines_1_5,viewpoint,815,735,6.28,1.6408,0.8687,0.9509,0.9693,1,1,1,0.0000,0.4531,0.6718,0.8359
v_machines_1_6,viewpoint,1008,961,6.48,0.2426,0.9544,0.9762,0.9851,1,1,1,0.7574,0.9191,0.9515,0.9757
v_man_1_2,viewpoint,821,770,7.26,2.2173,0.9354,0.9598,0.9695,1,1,1,0.0000,0.2609,0.5565,0.7783
v_man_1_3,viewpoint,728,636,7.41,3.6659,0.8571,0.9299,0.9478,0,1,1,0.0000,0.0000,0.2668,0.6334
v_man_1_4,viewpoint,689,573,5.87,2.4083,0.7954,0.8970,0.9361,1,1,1,0.0000,0.1972,0.5183,0.7592
v_man_1_5,viewpoint,842,764,6.27,2.0584,0.9074,0.9489,0.9620,1,1,1,0.0000,0.3139,0.5883,0.7942
v_man_1_6,viewpoint,804,738,6.18,1.8149,0.9192,0.9502,0.9552,1,1,1,0.0000,0.3950,0.6370,0.8185
v_maskedman_1_2,viewpoint,706,564,5.78,0.7766,0.7989,0.8669,0.8966,1,1,1,0.2234,0.7411,0.8447,0.9223
v_maskedman_1_3,viewpoint,608,475,5.56,0.8276,0.7763,0.8421,0.8684,1,1,1,0.1724,0.7241,0.8345,0.9172
v_maskedman_1_4,viewpoint,700,626,5.41,1.3091,0.8957,0.9400,0.9571,1,1,1,0.0000,0.5636,0.7382,0.8691
v_maskedman_1_5,viewpoint,709,632,5.46,1.2538,0.8914,0.9323,0.9464,1,1,1,0.0000,0.5821,0.7492,0.8746
v_maskedman_1_6,viewpoint,393,163,5.46,4.2352,0.4122,0.4809,0.5064,0,1,1,0.0000,0.0000,0.1530,0.5765
v_pomegranate_1_2,viewpoint,1510,1375,9.18,0.4591,0.9119,0.9675,0.9841,1,1,1,0.5409,0.8470,0.9082,0.9541
v_pomegranate_1_3,viewpoint,1482,1264,9.81,1.0656,0.8374,0.9291,0.9615,1,1,1,0.0000,0.6448,0.7869,0.8934
v_pomegranate_1_4,viewpoint,1412,1248,9.13,0.3031,0.8817,0.9299,0.9625,1,1,1,0.6969,0.8990,0.9394,0.9697
v_pomegranate_1_5,viewpoint,1365,1257,8.30,0.7241,0.9179,0.9626,0.9766,1,1,1,0.2759,0.7586,0.8552,0.9276
v_pomegranate_1_6,viewpoint,1331,1231,13.09,0.3986,0.9264,0.9662,0.9895,1,1,1,0.6014,0.8671,0.9203,0.9601
v_posters_1_2,viewpoint,1013,901,15.38,115.1469,0.0000,0.0000,0.0000,0,0,0,0.0000,0.0000,0.0000,0.0000
v_posters_1_3,viewpoint,1212,1108,8.54,120.7318,0.0000,0.0000,0.0000,0,0,0,0.0000,0.0000,0.0000,0.0000
v_posters_1_4,viewpoint,1137,1056,8.50,112.3663,0.0000,0.0000,0.0000,0,0,0,0.0000,0.0000,0.0000,0.0000
v_posters_1_5,viewpoint,1000,807,8.49,124.4978,0.0000,0.0000,0.0000,0,0,0,0.0000,0.0000,0.0000,0.0000
v_posters_1_6,viewpoint,1028,819,8.75,147.6307,0.0000,0.0000,0.0000,0,0,0,0.0000,0.0000,0.0000,0.0000
v_samples_1_2,viewpoint,1306,1244,8.78,67.9341,0.0000,0.0000,0.0008,0,0,0,0.0000,0.0000,0.0000,0.0000
v_samples_1_3,viewpoint,1415,1332,9.59,72.5699,0.0000,0.0000,0.0000,0,0,0,0.0000,0.0000,0.0000,0.0000
v_samples_1_4,viewpoint,1210,1070,8.66,71.7311,0.0000,0.0000,0.0041,0,0,0,0.0000,0.0000,0.0000,0.0000
v_samples_1_5,viewpoint,1346,1255,8.65,80.6562,0.0000,0.0000,0.0000,0,0,0,0.0000,0.0000,0.0000,0.0000
v_samples_1_6,viewpoint,1166,1025,8.19,67.0317,0.0000,0.0009,0.0051,0,0,0,0.0000,0.0000,0.0000,0.0000
v_soldiers_1_2,viewpoint,1047,952,7.00,0.5300,0.9093,0.9417,0.9656,1,1,1,0.4700,0.8233,0.8940,0.9470
v_soldiers_1_3,viewpoint,769,672,6.16,0.7474,0.8739,0.9337,0.9571,1,1,1,0.2526,0.7509,0.8505,0.9253
v_soldiers_1_4,viewpoint,642,518,6.25,1.3058,0.8037,0.8583,0.8785,1,1,1,0.0000,0.5647,0.7388,0.8694
v_soldiers_1_5,viewpoint,599,373,6.87,1.6342,0.6277,0.6811,0.7028,1,1,1,0.0000,0.4553,0.6732,0.8366
v_soldiers_1_6,viewpoint,923,835,6.97,97.3789,0.0000,0.0000,0.0000,0,0,0,0.0000,0.0000,0.0000,0.0000
v_strand_1_2,viewpoint,1177,1125,7.40,0.1652,0.9550,0.9813,0.9873,1,1,1,0.8348,0.9449,0.9670,0.9835
v_strand_1_3,viewpoint,881,799,7.44,0.4714,0.8933,0.9569,0.9682,1,1,1,0.5286,0.8429,0.9057,0.9529
v_strand_1_4,viewpoint,855,789,6.22,2.2658,0.8959,0.9673,0.9778,1,1,1,0.0000,0.2447,0.5468,0.7734
v_strand_1_5,viewpoint,920,831,6.48,2.3119,0.8696,0.9489,0.9663,1,1,1,0.0000,0.2294,0.5376,0.7688
v_strand_1_6,viewpoint,771,677,6.19,3.8205,0.8042,0.9455,0.9767,0,1,1,0.0000,0.0000,0.2359,0.6179
v_sunseason_1_2,viewpoint,1720,1603,8.72,0.2864,0.9331,0.9669,0.9779,1,1,1,0.7136,0.9045,0.9427,0.9714
v_sunseason_1_3,viewpoint,1567,1449,8.58,0.1895,0.9241,0.9528,0.9598,1,1,1,0.8105,0.9368,0.9621,0.9810
v_sunseason_1_4,viewpoint,1106,877,8.22,0.9700,0.7929,0.8228,0.8327,1,1,1,0.0300,0.6767,0.8060,0.9030
v_sunseason_1_5,viewpoint,1002,750,8.51,1.3122,0.7415,0.7914,0.8164,1,1,1,0.0000,0.5626,0.7376,0.8688
v_sunseason_1_6,viewpoint,830,560,8.15,5.2267,0.6855,0.7253,0.7566,0,0,1,0.0000,0.0000,0.0000,0.4773
v_tabletop_1_2,viewpoint,1296,1189,8.85,0.5255,0.9182,0.9591,0.9676,1,1,1,0.4745,0.8248,0.8949,0.9475
v_tabletop_1_3,viewpoint,996,633,9.22,1.0761,0.6305,0.7199,0.7500,1,1,1,0.0000,0.6413,0.7848,0.8924
v_tabletop_1_4,viewpoint,1001,779,8.76,1.0207,0.7712,0.8432,0.8621,1,1,1,0.0000,0.6598,0.7959,0.8979
v_tabletop_1_5,viewpoint,1008,799,8.15,1.1635,0.7897,0.8631,0.8810,1,1,1,0.0000,0.6122,0.7673,0.8837
v_tabletop_1_6,viewpoint,1031,814,8.00,1.1556,0.7876,0.8613,0.8826,1,1,1,0.0000,0.6148,0.7689,0.8844
v_tempera_1_2,viewpoint,703,663,5.72,0.2749,0.9445,0.9673,0.9815,1,1,1,0.7251,0.9084,0.9450,0.9725
v_tempera_1_3,viewpoint,664,617,5.54,0.6278,0.9247,0.9578,0.9729,1,1,1,0.3722,0.7907,0.8744,0.9372
v_tempera_1_4,viewpoint,687,635,5.75,0.5580,0.9229,0.9563,0.9694,1,1,1,0.4420,0.8140,0.8884,0.9442
v_tempera_1_5,viewpoint,657,588,5.56,0.6193,0.8904,0.9437,0.9604,1,1,1,0.3807,0.7936,0.8761,0.9381
v_tempera_1_6,viewpoint,385,284,5.21,2.2730,0.7299,0.7896,0.8468,1,1,1,0.0000,0.2423,0.5454,0.7727
v_there_1_2,viewpoint,497,418,5.74,0.8322,0.8390,0.9175,0.9497,1,1,1,0.1678,0.7226,0.8336,0.9168
v_there_1_3,viewpoint,348,156,6.51,2.0918,0.4310,0.5057,0.5489,1,1,1,0.0000,0.3027,0.5816,0.7908
v_there_1_4,viewpoint,291,39,6.19,1.6603,0.1203,0.1649,0.1753,1,1,1,0.0000,0.4466,0.6679,0.8340
v_there_1_5,viewpoint,254,8,6.62,6837.5988,0.0157,0.0354,0.0394,0,0,0,0.0000,0.0000,0.0000,0.0000
v_there_1_6,viewpoint,252,7,5.66,535.5065,0.0000,0.0040,0.0079,0,0,0,0.0000,0.0000,0.0000,0.0000
v_underground_1_2,viewpoint,1396,1357,7.38,0.1572,0.9721,0.9850,0.9878,1,1,1,0.8428,0.9476,0.9686,0.9843
v_underground_1_3,viewpoint,1253,1189,7.50,0.5386,0.9497,0.9681,0.9705,1,1,1,0.4614,0.8205,0.8923,0.9461
v_underground_1_4,viewpoint,987,903,6.92,0.6079,0.9169,0.9483,0.9534,1,1,1,0.3921,0.7974,0.8784,0.9392
v_underground_1_5,viewpoint,861,714,6.72,1.6461,0.8293,0.8931,0.9094,1,1,1,0.0000,0.4513,0.6708,0.8354
v_underground_1_6,viewpoint,713,500,6.63,2.4469,0.7083,0.7910,0.8261,1,1,1,0.0000,0.1844,0.5106,0.7553
v_vitro_1_2,viewpoint,1539,1469,8.46,0.2168,0.9552,0.9708,0.9766,1,1,1,0.7832,0.9277,0.9566,0.9783
v_vitro_1_3,viewpoint,1404,1314,9.00,0.3100,0.9345,0.9530,0.9573,1,1,1,0.6900,0.8967,0.9380,0.9690
v_vitro_1_4,viewpoint,1258,1128,8.15,0.5668,0.8959,0.9396,0.9467,1,1,1,0.4332,0.8111,0.8866,0.9433
v_vitro_1_5,viewpoint,1458,1377,8.17,0.4859,0.9438,0.9671,0.9733,1,1,1,0.5141,0.8380,0.9028,0.9514
v_vitro_1_6,viewpoint,1323,1195,7.85,0.4357,0.8980,0.9486,0.9607,1,1,1,0.5643,0.8548,0.9129,0.9564
v_wall_1_2,viewpoint,946,895,6.06,0.5444,0.9493,0.9672,0.9778,1,1,1,0.4556,0.8185,0.8911,0.9456
v_wall_1_3,viewpoint,835,745,6.05,1.8858,0.9006,0.9257,0.9461,1,1,1,0.0000,0.3714,0.6228,0.8114
v_wall_1_4,viewpoint,1015,970,6.44,0.4000,0.9537,0.9714,0.9813,1,1,1,0.6000,0.8667,0.9200,0.9600
v_wall_1_5,viewpoint,898,797,6.44,1.0914,0.8797,0.9298,0.9577,1,1,1,0.0000,0.6362,0.7817,0.8909
v_wall_1_6,viewpoint,757,636,5.85,4.0992,0.8309,0.8983,0.9155,0,1,1,0.0000,0.0000,0.1802,0.5901
v_wapping_1_2,viewpoint,1386,1047,9.55,0.2291,0.7561,0.8550,0.9062,1,1,1,0.7709,0.9236,0.9542,0.9771
v_wapping_1_3,viewpoint,1083,754,9.26,1.2793,0.6990,0.8209,0.8578,1,1,1,0.0000,0.5736,0.7441,0.8721
v_wapping_1_4,viewpoint,1179,828,8.75,1.3711,0.7082,0.8109,0.8668,1,1,1,0.0000,0.5430,0.7258,0.8629
v_wapping_1_5,viewpoint,857,533,8.25,2.2519,0.6161,0.7106,0.7608,1,1,1,0.0000,0.2494,0.5496,0.7748
v_wapping_1_6,viewpoint,752,354,7.98,4.8971,0.4495,0.5319,0.5731,0,1,1,0.0000,0.0000,0.0206,0.5103
v_war_1_2,viewpoint,1042,910,7.53,1.4323,0.8752,0.9491,0.9712,1,1,1,0.0000,0.5226,0.7135,0.8568
v_war_1_3,viewpoint,901,721,7.42,1.8381,0.7947,0.9168,0.9445,1,1,1,0.0000,0.3873,0.6324,0.8162
v_war_1_4,viewpoint,1199,1155,7.28,0.4649,0.9600,0.9850,0.9917,1,1,1,0.5351,0.8450,0.9070,0.9535
v_war_1_5,viewpoint,1188,1114,7.39,0.3602,0.9369,0.9731,0.9823,1,1,1,0.6398,0.8799,0.9280,0.9640
v_war_1_6,viewpoint,881,715,7.02,1.7294,0.7684,0.9081,0.9467,1,1,1,0.0000,0.4235,0.6541,0.8271
v_weapons_1_2,viewpoint,1085,1039,7.61,0.6097,0.9567,0.9714,0.9733,1,1,1,0.3903,0.7968,0.8781,0.9390
v_weapons_1_3,viewpoint,985,920,7.24,0.7122,0.9330,0.9675,0.9777,1,1,1,0.2878,0.7626,0.8576,0.9288
v_weapons_1_4,viewpoint,1040,957,7.68,0.7068,0.9202,0.9596,0.9702,1,1,1,0.2932,0.7644,0.8586,0.9293
v_weapons_1_5,viewpoint,1110,1051,7.66,0.7261,0.9477,0.9730,0.9793,1,1,1,0.2739,0.7580,0.8548,0.9274
v_weapons_1_6,viewpoint,970,915,6.79,1.0578,0.9381,0.9691,0.9763,1,1,1,0.0000,0.6474,0.7884,0.8942
v_woman_1_2,viewpoint,605,479,6.75,46.6421,0.0000,0.0000,0.0000,0,0,0,0.0000,0.0000,0.0000,0.0000
v_woman_1_3,viewpoint,736,614,6.53,49.8014,0.0000,0.0000,0.0014,0,0,0,0.0000,0.0000,0.0000,0.0000
v_woman_1_4,viewpoint,626,506,6.46,50.2656,0.0000,0.0000,0.0016,0,0,0,0.0000,0.0000,0.0000,0.0000
v_woman_1_5,viewpoint,522,356,6.49,44.4833,0.0000,0.0000,0.0000,0,0,0,0.0000,0.0000,0.0000,0.0000
v_woman_1_6,viewpoint,596,447,6.44,48.9213,0.0000,0.0000,0.0000,0,0,0,0.0000,0.0000,0.0000,0.0000
v_wormhole_1_2,viewpoint,959,898,7.39,0.2745,0.9364,0.9604,0.9687,1,1,1,0.7255,0.9085,0.9451,0.9725
v_wormhole_1_3,viewpoint,1011,928,8.92,0.6039,0.9189,0.9466,0.9654,1,1,1,0.3961,0.7987,0.8792,0.9396
v_wormhole_1_4,viewpoint,1180,1121,7.74,0.5856,0.9466,0.9653,0.9771,1,1,1,0.4144,0.8048,0.8829,0.9414
v_wormhole_1_5,viewpoint,937,804,7.04,4.0100,0.8549,0.9007,0.9178,0,1,1,0.0000,0.0000,0.1980,0.5990
v_wormhole_1_6,viewpoint,626,390,10.52,4.7696,0.6038,0.7220,0.7780,0,1,1,0.0000,0.0000,0.0461,0.5230
v_wounded_1_2,viewpoint,988,915,6.56,0.5580,0.9281,0.9676,0.9787,1,1,1,0.4420,0.8140,0.8884,0.9442
v_wounded_1_3,viewpoint,721,557,5.83,4.7246,0.7642,0.8322,0.8488,0,1,1,0.0000,0.0000,0.0551,0.5275
v_wounded_1_4,viewpoint,467,330,5.44,24.2967,0.7066,0.8009,0.8330,0,0,0,0.0000,0.0000,0.0000,0.0000
v_wounded_1_5,viewpoint,659,557,5.72,2.0470,0.8407,0.9074,0.9317,1,1,1,0.0000,0.3177,0.5906,0.7953
v_wounded_1_6,viewpoint,502,339,5.41,6.2868,0.6713,0.8167,0.8725,0,0,1,0.0000,0.0000,0.0000,0.3713
v_yard_1_2,viewpoint,1252,1181,8.23,0.4631,0.9385,0.9649,0.9760,1,1,1,0.5369,0.8456,0.9074,0.9537
v_yard_1_3,viewpoint,809,612,8.27,1.3997,0.7268,0.8443,0.8838,1,1,1,0.0000,0.5334,0.7201,0.8600
v_yard_1_4,viewpoint,1124,1024,7.86,0.4972,0.9101,0.9448,0.9609,1,1,1,0.5028,0.8343,0.9006,0.9503
v_yard_1_5,viewpoint,907,766,7.64,1.0184,0.8390,0.9019,0.9217,1,1,1,0.0000,0.6605,0.7963,0.8982
v_yard_1_6,viewpoint,831,536,8.00,1.9792,0.6354,0.7533,0.8026,1,1,1,0.0000,0.3403,0.6042,0.8021
v_yuri_1_2,viewpoint,834,768,5.78,0.6112,0.9197,0.9724,0.9868,1,1,1,0.3888,0.7963,0.8778,0.9389
v_yuri_1_3,viewpoint,704,612,5.90,2.4992,0.8523,0.9347,0.9588,1,1,1,0.0000,0.1669,0.5002,0.7501
v_yuri_1_4,viewpoint,626,474,5.95,42.3400,0.7125,0.8642,0.9185,0,0,0,0.0000,0.0000,0.0000,0.0000
v_yuri_1_5,viewpoint,711,647,5.70,1.8275,0.9030,0.9578,0.9648,1,1,1,0.0000,0.3908,0.6345,0.8173
v_yuri_1_6,viewpoint,640,524,5.87,4.6076,0.7719,0.9125,0.9375,0,1,1,0.0000,0.0000,0.0785,0.5392
