PairName,SeqType,NumMatches,Inliers,TimeMS,H_Error,MMA@3,MMA@5,MMA@7,MHA_Acc@3,MHA_Acc@5,MHA_Acc@7,AUC@1,AUC@3,AUC@5,AUC@10
i_ajuntament_1_2,illumination,870,800,228.02,0.3914,0.9103,0.9529,0.9747,1,1,1,0.6086,0.8695,0.9217,0.9609
i_ajuntament_1_3,illumination,652,480,4.08,1.3874,0.7163,0.8328,0.8696,1,1,1,0.0000,0.5375,0.7225,0.8613
i_ajuntament_1_4,illumination,496,273,3.51,0.8498,0.5323,0.6391,0.6915,1,1,1,0.1502,0.7167,0.8300,0.9150
i_ajuntament_1_5,illumination,487,274,3.39,1.6529,0.5483,0.6530,0.7248,1,1,1,0.0000,0.4490,0.6694,0.8347
i_ajuntament_1_6,illumination,492,270,3.49,1.0560,0.5427,0.6484,0.7358,1,1,1,0.0000,0.6480,0.7888,0.8944
i_autannes_1_2,illumination,920,812,8.58,0.0000,0.8891,0.9315,0.9446,1,1,1,1.0000,1.0000,1.0000,1.0000
i_autannes_1_3,illumination,830,700,3.63,0.3499,0.8386,0.9084,0.9325,1,1,1,0.6501,0.8834,0.9300,0.9650
i_autannes_1_4,illumination,901,578,4.33,1.3498,0.6293,0.7614,0.8324,1,1,1,0.0000,0.5501,0.7300,0.8650
i_autannes_1_5,illumination,896,610,3.89,1.3260,0.6663,0.7779,0.8449,1,1,1,0.0000,0.5580,0.7348,0.8674
i_autannes_1_6,illumination,995,821,3.97,0.8884,0.8141,0.8884,0.9216,1,1,1,0.1116,0.7039,0.8223,0.9112
i_bologna_1_2,illumination,620,572,7.28,0.3481,0.9226,0.9548,0.9742,1,1,1,0.6519,0.8840,0.9304,0.9652
i_bologna_1_3,illumination,573,512,3.02,0.6458,0.8953,0.9389,0.9546,1,1,1,0.3542,0.7847,0.8708,0.9354
i_bologna_1_4,illumination,570,497,3.25,1.0996,0.8737,0.9193,0.9526,1,1,1,0.0000,0.6335,0.7801,0.8900
i_bologna_1_5,illumination,569,505,2.94,0.6262,0.8858,0.9385,0.9543,1,1,1,0.3738,0.7913,0.8748,0.9374
i_bologna_1_6,illumination,582,507,3.02,1.0019,0.8729,0.9296,0.9450,1,1,1,0.0000,0.6660,0.7996,0.8998
i_books_1_2,illumination,652,605,3.46,0.1296,0.9279,0.9525,0.9601,1,1,1,0.8704,0.9568,0.9741,0.9870
i_books_1_3,illumination,776,711,3.26,0.2776,0.9124,0.9510,0.9665,1,1,1,0.7224,0.9075,0.9445,0.9722
i_books_1_4,illumination,791,734,3.34,0.0000,0.9292,0.9633,0.9747,1,1,1,1.0000,1.0000,1.0000,1.0000
i_books_1_5,illumination,803,753,3.23,0.0000,0.9440,0.9564,0.9664,1,1,1,1.0000,1.0000,1.0000,1.0000
i_books_1_6,illumination,714,653,3.21,0.0000,0.9174,0.9370,0.9538,1,1,1,1.0000,1.0000,1.0000,1.0000
i_boutique_1_2,illumination,1262,1163,4.08,0.3318,0.9073,0.9525,0.9651,1,1,1,0.6682,0.8894,0.9336,0.9668
i_boutique_1_3,illumination,1251,1087,4.76,0.2895,0.8609,0.9185,0.9448,1,1,1,0.7105,0.9035,0.9421,0.9711
i_boutique_1_4,illumination,1279,1110,4.20,0.3816,0.8538,0.9320,0.9570,1,1,1,0.6184,0.8728,0.9237,0.9618
i_boutique_1_5,illumination,992,663,4.38,0.7118,0.6623,0.7389,0.7964,1,1,1,0.2882,0.7627,0.8576,0.9288
i_boutique_1_6,illumination,978,619,4.57,0.7260,0.6237,0.7178,0.7791,1,1,1,0.2740,0.7580,0.8548,0.9274
i_bridger_1_2,illumination,1366,1203,8.94,0.4552,0.8616,0.9495,0.9810,1,1,1,0.5448,0.8483,0.9090,0.9545
i_bridger_1_3,illumination,1238,999,4.09,0.6024,0.7892,0.8990,0.9426,1,1,1,0.3976,0.7992,0.8795,0.9398
i_bridger_1_4,illumination,1070,893,3.63,0.4279,0.8393,0.9252,0.9561,1,1,1,0.5721,0.8574,0.9144,0.9572
i_bridger_1_5,illumination,883,735,3.59,0.7060,0.8222,0.9264,0.9706,1,1,1,0.2940,0.7647,0.8588,0.9294
i_bridger_1_6,illumination,328,202,3.13,1.4746,0.5823,0.6860,0.7530,1,1,1,0.0000,0.5085,0.7051,0.8525
i_brooklyn_1_2,illumination,1242,1045,3.81,0.3718,0.8390,0.9138,0.9469,1,1,1,0.6282,0.8761,0.9256,0.9628
i_brooklyn_1_3,illumination,1243,1132,3.79,1.3255,0.8954,0.9549,0.9783,1,1,1,0.0000,0.5582,0.7349,0.8675
i_brooklyn_1_4,illumination,1014,752,4.12,1.0205,0.7170,0.8412,0.8905,1,1,1,0.0000,0.6598,0.7959,0.8980
i_brooklyn_1_5,illumination,1251,1125,4.06,1.4632,0.8721,0.9512,0.9696,1,1,1,0.0000,0.5123,0.7074,0.8537
i_brooklyn_1_6,illumination,1181,980,3.96,1.4866,0.7968,0.9086,0.9467,1,1,1,0.0000,0.5045,0.7027,0.8513
i_castle_1_2,illumination,1247,841,4.36,1.0252,0.6640,0.7594,0.8043,1,1,1,0.0000,0.6583,0.7950,0.8975
i_castle_1_3,illumination,1332,1133,5.15,0.2544,0.8506,0.9144,0.9422,1,1,1,0.7456,0.9152,0.9491,0.9746
i_castle_1_4,illumination,1116,934,3.80,0.5380,0.8109,0.8970,0.9185,1,1,1,0.4620,0.8207,0.8924,0.9462
i_castle_1_5,illumination,921,627,4.47,0.5538,0.6688,0.7742,0.8219,1,1,1,0.4462,0.8154,0.8892,0.9446
i_castle_1_6,illumination,996,653,4.38,0.4769,0.6506,0.7460,0.7972,1,1,1,0.5231,0.8410,0.9046,0.9523
i_chestnuts_1_2,illumination,1160,1054,3.82,0.4810,0.9060,0.9517,0.9698,1,1,1,0.5190,0.8397,0.9038,0.9519
i_chestnuts_1_3,illumination,1162,1051,3.83,0.3965,0.9036,0.9432,0.9647,1,1,1,0.6035,0.8678,0.9207,0.9604
i_chestnuts_1_4,illumination,1141,1007,4.05,0.5671,0.8817,0.9246,0.9588,1,1,1,0.4329,0.8110,0.8866,0.9433
i_chestnuts_1_5,illumination,1081,938,4.07,0.4455,0.8566,0.9186,0.9491,1,1,1,0.5545,0.8515,0.9109,0.9555
i_chestnuts_1_6,illumination,1006,838,3.74,0.4115,0.8320,0.9036,0.9254,1,1,1,0.5885,0.8628,0.9177,0.9589
i_crownday_1_2,illumination,1014,724,4.03,1.2538,0.7120,0.8412,0.9162,1,1,1,0.0000,0.5821,0.7492,0.8746
i_crownday_1_3,illumination,1112,869,4.02,0.0000,0.7860,0.8957,0.9442,1,1,1,1.0000,1.0000,1.0000,1.0000
i_crownday_1_4,illumination,1141,952,3.90,0.0000,0.8396,0.9211,0.9632,1,1,1,1.0000,1.0000,1.0000,1.0000
i_crownday_1_5,illumination,1221,1083,4.15,0.5602,0.8821,0.9410,0.9705,1,1,1,0.4398,0.8133,0.8880,0.9440
i_crownday_1_6,illumination,991,682,3.99,0.8412,0.6731,0.8123,0.8991,1,1,1,0.1588,0.7196,0.8318,0.9159
i_dome_1_2,illumination,1309,1227,4.09,0.1045,0.9366,0.9641,0.9756,1,1,1,0.8955,0.9652,0.9791,0.9896
i_dome_1_3,illumination,755,533,4.14,1.6959,0.6954,0.7854,0.8358,1,1,1,0.0000,0.4347,0.6608,0.8304
i_dome_1_4,illumination,751,536,4.31,1.8734,0.7124,0.8016,0.8455,1,1,1,0.0000,0.3755,0.6253,0.8127
i_dome_1_5,illumination,774,559,3.58,1.9971,0.7274,0.8101,0.8501,1,1,1,0.0000,0.3343,0.6006,0.8003
i_dome_1_6,illumination,1066,880,4.05,0.6227,0.8265,0.8921,0.9221,1,1,1,0.3773,0.7924,0.8755,0.9377
i_duda_1_2,illumination,666,657,3.26,0.2534,0.9760,0.9955,1.0000,1,1,1,0.7466,0.9155,0.9493,0.9747
i_duda_1_3,illumination,630,615,3.07,0.4013,0.9746,0.9905,0.9952,1,1,1,0.5987,0.8662,0.9197,0.9599
i_duda_1_4,illumination,593,573,2.99,0.5289,0.9562,0.9815,0.9882,1,1,1,0.4711,0.8237,0.8942,0.9471
i_duda_1_5,illumination,546,517,3.18,0.6785,0.9432,0.9670,0.9835,1,1,1,0.3215,0.7738,0.8643,0.9322
i_duda_1_6,illumination,424,387,3.10,1.2091,0.9057,0.9528,0.9741,1,1,1,0.0000,0.5970,0.7582,0.8791
i_fenis_1_2,illumination,1423,1326,4.00,0.2079,0.9283,0.9670,0.9824,1,1,1,0.7921,0.9307,0.9584,0.9792
i_fenis_1_3,illumination,1235,1015,3.93,0.3483,0.8194,0.8996,0.9247,1,1,1,0.6517,0.8839,0.9303,0.9652
i_fenis_1_4,illumination,891,472,3.60,1.0359,0.5297,0.6296,0.6667,1,1,1,0.0000,0.6547,0.7928,0.8964
i_fenis_1_5,illumination,730,371,3.98,1.1205,0.4863,0.6027,0.6493,1,1,1,0.0000,0.6265,0.7759,0.8879
i_fenis_1_6,illumination,803,450,3.68,1.2323,0.5305,0.6276,0.6824,1,1,1,0.0000,0.5892,0.7535,0.8768
i_fog_1_2,illumination,1531,1435,3.94,0.1681,0.9399,0.9739,0.9863,1,1,1,0.8319,0.9440,0.9664,0.9832
i_fog_1_3,illumination,1197,1064,3.55,0.2641,0.8906,0.9256,0.9465,1,1,1,0.7359,0.9120,0.9472,0.9736
i_fog_1_4,illumination,1154,1006,3.55,0.3440,0.8735,0.9237,0.9445,1,1,1,0.6560,0.8853,0.9312,0.9656
i_fog_1_5,illumination,776,685,3.32,0.3205,0.8853,0.9201,0.9317,1,1,1,0.6795,0.8932,0.9359,0.9679
i_fog_1_6,illumination,708,614,3.21,0.5672,0.8729,0.9096,0.9181,1,1,1,0.4328,0.8109,0.8866,0.9433
i_fruits_1_2,illumination,1167,1081,8.08,0.1105,0.9246,0.9614,0.9777,1,1,1,0.8895,0.9632,0.9779,0.9890
i_fruits_1_3,illumination,1108,985,5.29,0.1855,0.8917,0.9486,0.9657,1,1,1,0.8145,0.9382,0.9629,0.9814
i_fruits_1_4,illumination,1131,1004,4.46,0.2690,0.8842,0.9346,0.9611,1,1,1,0.7310,0.9103,0.9462,0.9731
i_fruits_1_5,illumination,1115,973,4.06,0.2526,0.8753,0.9417,0.9570,1,1,1,0.7474,0.9158,0.9495,0.9747
i_fruits_1_6,illumination,1119,1007,4.98,0.3557,0.8990,0.9535,0.9669,1,1,1,0.6443,0.8814,0.9289,0.9644
i_gonnenberg_1_2,illumination,1404,1295,4.21,0.4749,0.9217,0.9430,0.9530,1,1,1,0.5251,0.8417,0.9050,0.9525
i_gonnenberg_1_3,illumination,1398,1267,4.76,0.0000,0.9106,0.9406,0.9542,1,1,1,1.0000,1.0000,1.0000,1.0000
i_gonnenberg_1_4,illumination,1353,1203,4.02,0.6307,0.8840,0.9246,0.9379,1,1,1,0.3693,0.7898,0.8739,0.9369
i_gonnenberg_1_5,illumination,1338,1209,3.89,0.5694,0.9058,0.9357,0.9522,1,1,1,0.4306,0.8102,0.8861,0.9431
i_gonnenberg_1_6,illumination,1355,1213,3.81,0.5407,0.8952,0.9299,0.9506,1,1,1,0.4593,0.8198,0.8919,0.9459
i_greenhouse_1_2,illumination,1460,1282,4.40,0.3792,0.8795,0.9329,0.9500,1,1,1,0.6208,0.8736,0.9242,0.9621
i_greenhouse_1_3,illumination,1479,1299,4.41,0.4896,0.8776,0.9243,0.9419,1,1,1,0.5104,0.8368,0.9021,0.9510
i_greenhouse_1_4,illumination,1388,1165,4.52,0.4011,0.8386,0.8927,0.9179,1,1,1,0.5989,0.8663,0.9198,0.9599
i_greenhouse_1_5,illumination,1365,1119,4.05,0.5739,0.8154,0.8835,0.9062,1,1,1,0.4261,0.8087,0.8852,0.9426
i_greenhouse_1_6,illumination,1241,925,4.35,0.5874,0.7325,0.8163,0.8429,1,1,1,0.4126,0.8042,0.8825,0.9413
i_greentea_1_2,illumination,1138,1017,3.76,0.3663,0.8875,0.9262,0.9490,1,1,1,0.6337,0.8779,0.9267,0.9634
i_greentea_1_3,illumination,1404,1335,3.94,0.0987,0.9537,0.9779,0.9829,1,1,1,0.9013,0.9671,0.9803,0.9901
i_greentea_1_4,illumination,1426,1362,3.88,0.0000,0.9565,0.9748,0.9832,1,1,1,1.0000,1.0000,1.0000,1.0000
i_greentea_1_5,illumination,1357,1297,3.89,0.2540,0.9558,0.9713,0.9816,1,1,1,0.7460,0.9153,0.9492,0.9746
i_greentea_1_6,illumination,1186,1097,3.67,0.0000,0.9275,0.9604,0.9730,1,1,1,1.0000,1.0000,1.0000,1.0000
i_indiana_1_2,illumination,1237,1028,3.85,0.6766,0.8205,0.9175,0.9555,1,1,1,0.3234,0.7745,0.8647,0.9323
i_indiana_1_3,illumination,1252,989,4.09,0.4216,0.7843,0.8850,0.9249,1,1,1,0.5784,0.8595,0.9157,0.9578
i_indiana_1_4,illumination,1154,870,5.10,0.6954,0.7392,0.8544,0.9073,1,1,1,0.3046,0.7682,0.8609,0.9305
i_indiana_1_5,illumination,1126,816,4.77,0.6104,0.7158,0.8153,0.8730,1,1,1,0.3896,0.7965,0.8779,0.9390
i_indiana_1_6,illumination,1099,764,3.88,0.6436,0.6870,0.7898,0.8581,1,1,1,0.3564,0.7855,0.8713,0.9356
i_kions_1_2,illumination,754,626,7.59,1.1095,0.7971,0.8992,0.9297,1,1,1,0.0000,0.6302,0.7781,0.8890
i_kions_1_3,illumination,701,500,3.32,0.6628,0.6976,0.8217,0.8645,1,1,1,0.3372,0.7791,0.8674,0.9337
i_kions_1_4,illumination,623,462,3.30,0.9511,0.7207,0.8475,0.8844,1,1,1,0.0489,0.6830,0.8098,0.9049
i_kions_1_5,illumination,620,462,3.26,0.9512,0.7290,0.8500,0.8919,1,1,1,0.0488,0.6829,0.8098,0.9049
i_kions_1_6,illumination,699,485,3.24,0.8004,0.6896,0.8054,0.8484,1,1,1,0.1996,0.7332,0.8399,0.9200
i_ktirio_1_2,illumination,1132,1094,3.64,0.2522,0.9647,0.9823,0.9841,1,1,1,0.7478,0.9159,0.9496,0.9748
i_ktirio_1_3,illumination,862,722,3.36,0.6780,0.8179,0.8968,0.9153,1,1,1,0.3220,0.7740,0.8644,0.9322
i_ktirio_1_4,illumination,710,509,3.44,0.6261,0.7056,0.8141,0.8634,1,1,1,0.3739,0.7913,0.8748,0.9374
i_ktirio_1_5,illumination,813,643,3.58,0.8500,0.7835,0.8647,0.8905,1,1,1,0.1500,0.7167,0.8300,0.9150
i_ktirio_1_6,illumination,670,435,3.57,1.0573,0.6433,0.7701,0.8194,1,1,1,0.0000,0.6476,0.7885,0.8943
i_kurhaus_1_2,illumination,1457,1357,4.14,0.2719,0.9341,0.9705,0.9822,1,1,1,0.7281,0.9094,0.9456,0.9728
i_kurhaus_1_3,illumination,1336,1193,3.98,0.3620,0.8937,0.9424,0.9641,1,1,1,0.6380,0.8793,0.9276,0.9638
i_kurhaus_1_4,illumination,1276,1092,3.78,0.2240,0.8582,0.9138,0.9350,1,1,1,0.7760,0.9253,0.9552,0.9776
i_kurhaus_1_5,illumination,1203,989,3.81,0.4255,0.8229,0.8903,0.9219,1,1,1,0.5745,0.8582,0.9149,0.9574
i_kurhaus_1_6,illumination,1164,902,4.13,0.7231,0.7784,0.8548,0.8892,1,1,1,0.2769,0.7590,0.8554,0.9277
i_leuven_1_2,illumination,921,869,3.36,1.1553,0.9425,0.9750,0.9870,1,1,1,0.0000,0.6149,0.7689,0.8845
i_leuven_1_3,illumination,883,827,3.98,0.9311,0.9366,0.9762,0.9853,1,1,1,0.0689,0.6896,0.8138,0.9069
i_leuven_1_4,illumination,850,789,3.62,1.9343,0.9188,0.9600,0.9729,1,1,1,0.0000,0.3552,0.6131,0.8066
i_leuven_1_5,illumination,807,717,4.19,1.4839,0.8897,0.9343,0.9529,1,1,1,0.0000,0.5054,0.7032,0.8516
i_leuven_1_6,illumination,746,633,3.42,6.7047,0.7185,0.8499,0.9169,0,0,1,0.0000,0.0000,0.0000,0.3295
i_lionday_1_2,illumination,877,631,4.28,1.1549,0.7104,0.8016,0.8518,1,1,1,0.0000,0.6150,0.7690,0.8845
i_lionday_1_3,illumination,924,699,3.73,0.8840,0.7597,0.8258,0.8690,1,1,1,0.1160,0.7053,0.8232,0.9116
i_lionday_1_4,illumination,765,370,4.77,3.1202,0.3817,0.5660,0.6706,0,1,1,0.0000,0.0000,0.3760,0.6880
i_lionday_1_5,illumination,869,519,3.80,2.3185,0.4971,0.6835,0.7733,1,1,1,0.0000,0.2272,0.5363,0.7682
i_lionday_1_6,illumination,962,689,3.80,1.4470,0.6965,0.7963,0.8545,1,1,1,0.0000,0.5177,0.7106,0.8553
i_lionnight_1_2,illumination,1080,996,3.85,0.9226,0.9139,0.9500,0.9556,1,1,1,0.0774,0.6925,0.8155,0.9077
i_lionnight_1_3,illumination,914,793,3.75,1.6666,0.8293,0.8939,0.9114,1,1,1,0.0000,0.4445,0.6667,0.8333
i_lionnight_1_4,illumination,1124,1057,3.66,0.8843,0.9315,0.9591,0.9653,1,1,1,0.1157,0.7052,0.8231,0.9116
i_lionnight_1_5,illumination,1066,999,3.65,1.2429,0.9259,0.9559,0.9597,1,1,1,0.0000,0.5857,0.7514,0.8757
i_lionnight_1_6,illumination,1084,998,3.91,0.8715,0.9087,0.9382,0.9437,1,1,1,0.1285,0.7095,0.8257,0.9128
i_londonbridge_1_2,illumination,1049,987,3.69,1.0331,0.9295,0.9800,0.9876,1,1,1,0.0000,0.6556,0.7934,0.8967
i_londonbridge_1_3,illumination,1027,952,8.08,1.0680,0.9133,0.9718,0.9864,1,1,1,0.0000,0.6440,0.7864,0.8932
i_londonbridge_1_4,illumination,1007,833,3.91,2.0184,0.7885,0.9295,0.9623,1,1,1,0.0000,0.3272,0.5963,0.7982
i_londonbridge_1_5,illumination,756,426,4.36,2.8153,0.5093,0.6852,0.8056,1,1,1,0.0000,0.0616,0.4369,0.7185
i_londonbridge_1_6,illumination,946,832,3.80,0.5932,0.8710,0.9545,0.9725,1,1,1,0.4068,0.8023,0.8814,0.9407
i_melon_1_2,illumination,754,699,3.75,0.0000,0.9284,0.9721,0.9854,1,1,1,1.0000,1.0000,1.0000,1.0000
i_melon_1_3,illumination,685,591,3.50,0.7657,0.8584,0.9285,0.9547,1,1,1,0.2343,0.7448,0.8469,0.9234
i_melon_1_4,illumination,525,317,3.90,2.2100,0.5924,0.6857,0.7695,1,1,1,0.0000,0.2633,0.5580,0.7790
i_melon_1_5,illumination,691,553,3.37,1.3610,0.8061,0.8784,0.9262,1,1,1,0.0000,0.5463,0.7278,0.8639
i_melon_1_6,illumination,647,507,5.14,1.0075,0.7743,0.8470,0.9196,1,1,1,0.0000,0.6642,0.7985,0.8993
i_miniature_1_2,illumination,1435,1375,4.02,0.3142,0.9540,0.9777,0.9868,1,1,1,0.6858,0.8953,0.9372,0.9686
i_miniature_1_3,illumination,1239,1108,4.34,0.6300,0.8805,0.9411,0.9661,1,1,1,0.3700,0.7900,0.8740,0.9370
i_miniature_1_4,illumination,948,714,4.22,0.6038,0.7416,0.8281,0.8671,1,1,1,0.3962,0.7987,0.8792,0.9396
i_miniature_1_5,illumination,645,363,3.59,1.3435,0.5504,0.6496,0.7008,1,1,1,0.0000,0.5522,0.7313,0.8656
i_miniature_1_6,illumination,1238,1101,4.03,0.5763,0.8748,0.9330,0.9596,1,1,1,0.4237,0.8079,0.8847,0.9424
i_nescafe_1_2,illumination,847,700,3.47,0.0000,0.8323,0.8996,0.9233,1,1,1,1.0000,1.0000,1.0000,1.0000
i_nescafe_1_3,illumination,940,815,3.77,0.8331,0.8638,0.9117,0.9362,1,1,1,0.1669,0.7223,0.8334,0.9167
i_nescafe_1_4,illumination,964,834,3.81,0.5042,0.8641,0.9015,0.9212,1,1,1,0.4958,0.8319,0.8992,0.9496
i_nescafe_1_5,illumination,850,712,3.66,0.0000,0.8435,0.8871,0.9082,1,1,1,1.0000,1.0000,1.0000,1.0000
i_nescafe_1_6,illumination,915,735,3.48,0.0000,0.8066,0.8601,0.8984,1,1,1,1.0000,1.0000,1.0000,1.0000
i_nijmegen_1_2,illumination,1523,1240,5.25,0.9589,0.7682,0.8792,0.9291,1,1,1,0.0411,0.6804,0.8082,0.9041
i_nijmegen_1_3,illumination,1616,1346,5.09,0.7842,0.8069,0.9103,0.9437,1,1,1,0.2158,0.7386,0.8432,0.9216
i_nijmegen_1_4,illumination,925,587,3.96,0.9953,0.6205,0.7546,0.8184,1,1,1,0.0047,0.6682,0.8009,0.9005
i_nijmegen_1_5,illumination,1618,1309,4.80,0.9589,0.7998,0.8956,0.9388,1,1,1,0.0411,0.6804,0.8082,0.9041
i_nijmegen_1_6,illumination,1549,1296,4.48,0.7734,0.8044,0.9141,0.9503,1,1,1,0.2266,0.7422,0.8453,0.9227
i_nuts_1_2,illumination,1148,890,4.21,0.4195,0.7787,0.8685,0.9042,1,1,1,0.5805,0.8602,0.9161,0.9580
i_nuts_1_3,illumination,928,612,4.37,0.8169,0.6606,0.7554,0.8114,1,1,1,0.1831,0.7277,0.8366,0.9183
i_nuts_1_4,illumination,768,427,4.59,0.7214,0.5443,0.6393,0.6927,1,1,1,0.2786,0.7595,0.8557,0.9279
i_nuts_1_5,illumination,713,281,4.36,0.9081,0.3885,0.4825,0.5330,1,1,1,0.0919,0.6973,0.8184,0.9092
i_nuts_1_6,illumination,656,188,4.81,1.3569,0.2744,0.3674,0.4360,1,1,1,0.0000,0.5477,0.7286,0.8643
i_objects_1_2,illumination,1509,1278,4.78,0.6416,0.8436,0.9344,0.9735,1,1,1,0.3584,0.7861,0.8717,0.9358
i_objects_1_3,illumination,1453,1141,4.72,1.2082,0.7777,0.8995,0.9573,1,1,1,0.0000,0.5973,0.7584,0.8792
i_objects_1_4,illumination,1273,886,4.43,1.2685,0.6944,0.8327,0.9034,1,1,1,0.0000,0.5772,0.7463,0.8731
i_objects_1_5,illumination,1274,865,4.49,1.0607,0.6790,0.8305,0.8995,1,1,1,0.0000,0.6464,0.7879,0.8939
i_objects_1_6,illumination,1620,1466,4.52,0.2882,0.9062,0.9543,0.9815,1,1,1,0.7118,0.9039,0.9424,0.9712
i_parking_1_2,illumination,941,825,3.49,0.2216,0.8884,0.9511,0.9777,1,1,1,0.7784,0.9261,0.9557,0.9778
i_parking_1_3,illumination,932,787,3.50,0.2549,0.8487,0.9195,0.9592,1,1,1,0.7451,0.9150,0.9490,0.9745
i_parking_1_4,illumination,837,641,3.45,1.1329,0.7491,0.8722,0.9295,1,1,1,0.0000,0.6224,0.7734,0.8867
i_parking_1_5,illumination,710,456,3.66,1.5237,0.6155,0.7437,0.8268,1,1,1,0.0000,0.4921,0.6953,0.8476
i_parking_1_6,illumination,761,567,3.36,0.8955,0.7267,0.8528,0.9067,1,1,1,0.1045,0.7015,0.8209,0.9104
i_partyfood_1_2,illumination,474,470,3.04,0.5488,0.9916,0.9979,1.0000,1,1,1,0.4512,0.8171,0.8902,0.9451
i_partyfood_1_3,illumination,455,438,3.05,0.7337,0.9670,0.9912,0.9956,1,1,1,0.2663,0.7554,0.8533,0.9266
i_partyfood_1_4,illumination,439,423,2.99,0.4267,0.9636,0.9886,0.9909,1,1,1,0.5733,0.8578,0.9147,0.9573
i_partyfood_1_5,illumination,432,408,3.07,0.5536,0.9444,0.9815,0.9884,1,1,1,0.4464,0.8155,0.8893,0.9446
i_partyfood_1_6,illumination,397,368,3.02,1.4898,0.9219,0.9647,0.9849,1,1,1,0.0000,0.5034,0.7020,0.8510
i_pinard_1_2,illumination,643,603,3.34,0.0000,0.9409,0.9767,0.9876,1,1,1,1.0000,1.0000,1.0000,1.0000
i_pinard_1_3,illumination,618,455,3.92,0.6733,0.7362,0.8172,0.8576,1,1,1,0.3267,0.7756,0.8653,0.9327
i_pinard_1_4,illumination,636,463,4.42,1.6651,0.7374,0.8082,0.8569,1,1,1,0.0000,0.4450,0.6670,0.8335
i_pinard_1_5,illumination,650,522,3.43,1.4493,0.8000,0.8646,0.9046,1,1,1,0.0000,0.5169,0.7101,0.8551
i_pinard_1_6,illumination,634,532,4.18,1.0473,0.8423,0.8880,0.9290,1,1,1,0.0000,0.6509,0.7905,0.8953
i_pool_1_2,illumination,438,240,3.08,1.6897,0.5434,0.6119,0.6689,1,1,1,0.0000,0.4368,0.6621,0.8310
i_pool_1_3,illumination,328,92,3.28,4.4128,0.2896,0.3079,0.3384,0,1,1,0.0000,0.0000,0.1174,0.5587
i_pool_1_4,illumination,312,92,3.12,3.0984,0.2885,0.3237,0.3654,0,1,1,0.0000,0.0000,0.3803,0.6902
i_pool_1_5,illumination,370,152,3.18,2.3366,0.4027,0.4649,0.5108,1,1,1,0.0000,0.2211,0.5327,0.7663
i_pool_1_6,illumination,359,150,3.22,1.4098,0.4067,0.4791,0.5265,1,1,1,0.0000,0.5301,0.7180,0.8590
i_porta_1_2,illumination,1191,731,4.59,0.6143,0.6138,0.7893,0.8791,1,1,1,0.3857,0.7952,0.8771,0.9386
i_porta_1_3,illumination,1172,730,4.19,0.5278,0.6220,0.7824,0.8746,1,1,1,0.4722,0.8241,0.8944,0.9472
i_porta_1_4,illumination,1082,630,4.01,1.3631,0.5813,0.7440,0.8346,1,1,1,0.0000,0.5456,0.7274,0.8637
i_porta_1_5,illumination,585,439,3.36,1.0614,0.7368,0.8496,0.9077,1,1,1,0.0000,0.6462,0.7877,0.8939
i_porta_1_6,illumination,582,362,3.53,0.6880,0.6168,0.7234,0.7784,1,1,1,0.3120,0.7707,0.8624,0.9312
i_resort_1_2,illumination,1569,1411,4.46,0.3781,0.9057,0.9516,0.9694,1,1,1,0.6219,0.8740,0.9244,0.9622
i_resort_1_3,illumination,1735,1660,4.38,0.1793,0.9597,0.9798,0.9902,1,1,1,0.8207,0.9402,0.9641,0.9821
i_resort_1_4,illumination,1698,1623,4.27,0.1913,0.9552,0.9741,0.9841,1,1,1,0.8087,0.9362,0.9617,0.9809
i_resort_1_5,illumination,1526,1315,4.31,0.4223,0.8598,0.9279,0.9600,1,1,1,0.5777,0.8592,0.9155,0.9578
i_resort_1_6,illumination,1464,1307,4.23,0.5268,0.8757,0.9488,0.9761,1,1,1,0.4732,0.8244,0.8946,0.9473
i_salon_1_2,illumination,1693,1612,4.35,0.2526,0.9433,0.9781,0.9888,1,1,1,0.7474,0.9158,0.9495,0.9747
i_salon_1_3,illumination,1439,1285,4.81,0.3642,0.8763,0.9437,0.9666,1,1,1,0.6358,0.8786,0.9272,0.9636
i_salon_1_4,illumination,1205,947,4.99,0.4835,0.7693,0.8647,0.9021,1,1,1,0.5165,0.8388,0.9033,0.9516
i_salon_1_5,illumination,1552,1381,4.13,0.0000,0.9027,0.9588,0.9749,1,1,1,1.0000,1.0000,1.0000,1.0000
i_salon_1_6,illumination,1417,1198,4.28,0.4089,0.8243,0.9181,0.9492,1,1,1,0.5911,0.8637,0.9182,0.9591
i_santuario_1_2,illumination,1412,1205,4.63,1.0975,0.8357,0.9214,0.9632,1,1,1,0.0000,0.6342,0.7805,0.8902
i_santuario_1_3,illumination,1402,1204,3.90,1.2493,0.8324,0.9294,0.9672,1,1,1,0.0000,0.5836,0.7501,0.8751
i_santuario_1_4,illumination,1338,1099,4.54,1.5263,0.7683,0.9066,0.9477,1,1,1,0.0000,0.4912,0.6947,0.8474
i_santuario_1_5,illumination,1436,1220,4.24,0.5331,0.8447,0.9297,0.9624,1,1,1,0.4669,0.8223,0.8934,0.9467
i_santuario_1_6,illumination,1277,1048,4.46,1.0050,0.8136,0.9068,0.9522,1,1,1,0.0000,0.6650,0.7990,0.8995
i_school_1_2,illumination,1183,1111,3.66,0.2188,0.9383,0.9763,0.9856,1,1,1,0.7812,0.9271,0.9562,0.9781
i_school_1_3,illumination,1171,1111,4.03,0.2729,0.9479,0.9821,0.9906,1,1,1,0.7271,0.9090,0.9454,0.9727
i_school_1_4,illumination,958,818,3.58,0.5217,0.8424,0.9144,0.9395,1,1,1,0.4783,0.8261,0.8957,0.9478
i_school_1_5,illumination,1088,950,3.66,0.7737,0.8667,0.9375,0.9568,1,1,1,0.2263,0.7421,0.8453,0.9226
i_school_1_6,illumination,832,632,3.62,1.2972,0.7452,0.8221,0.8678,1,1,1,0.0000,0.5676,0.7406,0.8703
i_ski_1_2,illumination,1603,1503,4.26,0.2397,0.9364,0.9744,0.9844,1,1,1,0.7603,0.9201,0.9521,0.9760
i_ski_1_3,illumination,1521,1366,4.26,0.3926,0.8902,0.9606,0.9790,1,1,1,0.6074,0.8691,0.9215,0.9607
i_ski_1_4,illumination,1439,1252,4.00,0.5534,0.8582,0.9451,0.9673,1,1,1,0.4466,0.8155,0.8893,0.9447
i_ski_1_5,illumination,1402,1191,4.07,0.5860,0.8417,0.9387,0.9586,1,1,1,0.4140,0.8047,0.8828,0.9414
i_ski_1_6,illumination,1361,1108,4.38,0.6655,0.8016,0.9030,0.9309,1,1,1,0.3345,0.7782,0.8669,0.9334
i_smurf_1_2,illumination,1256,1100,4.01,0.5996,0.8726,0.9212,0.9514,1,1,1,0.4004,0.8001,0.8801,0.9400
i_smurf_1_3,illumination,1263,1098,4.08,0.2553,0.8638,0.9200,0.9422,1,1,1,0.7447,0.9149,0.9489,0.9745
i_smurf_1_4,illumination,1232,1060,3.97,0.3151,0.8596,0.9091,0.9424,1,1,1,0.6849,0.8950,0.9370,0.9685
i_smurf_1_5,illumination,1200,983,4.53,0.3393,0.8158,0.8767,0.9125,1,1,1,0.6607,0.8869,0.9321,0.9661
i_smurf_1_6,illumination,1023,720,4.33,0.5329,0.7009,0.8025,0.8563,1,1,1,0.4671,0.8224,0.8934,0.9467
i_steps_1_2,illumination,882,839,3.51,0.5733,0.9444,0.9853,0.9943,1,1,1,0.4267,0.8089,0.8853,0.9427
i_steps_1_3,illumination,994,915,3.83,0.9882,0.9185,0.9628,0.9879,1,1,1,0.0118,0.6706,0.8024,0.9012
i_steps_1_4,illumination,1033,980,3.54,0.6344,0.9419,0.9739,0.9816,1,1,1,0.3656,0.7885,0.8731,0.9366
i_steps_1_5,illumination,834,738,3.45,0.6901,0.8681,0.9233,0.9472,1,1,1,0.3099,0.7700,0.8620,0.9310
i_steps_1_6,illumination,954,865,3.73,0.7844,0.8962,0.9486,0.9717,1,1,1,0.2156,0.7385,0.8431,0.9216
i_table_1_2,illumination,1509,1278,4.47,0.6416,0.8436,0.9344,0.9735,1,1,1,0.3584,0.7861,0.8717,0.9358
i_table_1_3,illumination,1453,1141,4.61,1.2082,0.7777,0.8995,0.9573,1,1,1,0.0000,0.5973,0.7584,0.8792
i_table_1_4,illumination,1273,886,4.31,1.2685,0.6944,0.8327,0.9034,1,1,1,0.0000,0.5772,0.7463,0.8731
i_table_1_5,illumination,1274,865,4.45,1.0607,0.6790,0.8305,0.8995,1,1,1,0.0000,0.6464,0.7879,0.8939
i_table_1_6,illumination,1620,1466,4.48,0.2882,0.9062,0.9543,0.9815,1,1,1,0.7118,0.9039,0.9424,0.9712
i_tools_1_2,illumination,626,336,3.39,2.5351,0.5016,0.6949,0.8323,1,1,1,0.0000,0.1550,0.4930,0.7465
i_tools_1_3,illumination,714,555,3.48,1.5113,0.7717,0.9132,0.9762,1,1,1,0.0000,0.4962,0.6977,0.8489
i_tools_1_4,illumination,624,336,3.58,3.0549,0.5096,0.6875,0.8253,0,1,1,0.0000,0.0000,0.3890,0.6945
i_tools_1_5,illumination,686,501,3.27,1.2829,0.7434,0.8630,0.9198,1,1,1,0.0000,0.5724,0.7434,0.8717
i_tools_1_6,illumination,608,261,3.94,4.2560,0.2780,0.4408,0.6299,0,1,1,0.0000,0.0000,0.1488,0.5744
i_toy_1_2,illumination,1667,1460,4.61,0.3165,0.8716,0.9316,0.9664,1,1,1,0.6835,0.8945,0.9367,0.9683
i_toy_1_3,illumination,1596,1307,5.27,0.2835,0.8158,0.8904,0.9348,1,1,1,0.7165,0.9055,0.9433,0.9717
i_toy_1_4,illumination,1488,1115,5.29,0.4806,0.7399,0.8266,0.8743,1,1,1,0.5194,0.8398,0.9039,0.9519
i_toy_1_5,illumination,1354,877,5.24,0.8621,0.6352,0.7467,0.8095,1,1,1,0.1379,0.7126,0.8276,0.9138
i_toy_1_6,illumination,1143,548,5.88,1.5374,0.4751,0.5932,0.6763,1,1,1,0.0000,0.4875,0.6925,0.8463
i_troulos_1_2,illumination,434,377,3.18,0.8913,0.8387,0.9470,0.9747,1,1,1,0.1087,0.7029,0.8217,0.9109
i_troulos_1_3,illumination,349,288,2.81,3.0054,0.4699,0.8768,0.9284,0,1,1,0.0000,0.0000,0.3989,0.6995
i_troulos_1_4,illumination,562,529,2.96,0.4657,0.9342,0.9715,0.9840,1,1,1,0.5343,0.8448,0.9069,0.9534
i_troulos_1_5,illumination,531,441,3.04,1.1728,0.8023,0.9077,0.9454,1,1,1,0.0000,0.6091,0.7654,0.8827
i_troulos_1_6,illumination,468,399,3.08,1.8817,0.8077,0.9167,0.9509,1,1,1,0.0000,0.3728,0.6237,0.8118
i_veggies_1_2,illumination,1220,1167,3.78,0.1387,0.9574,0.9820,0.9943,1,1,1,0.8613,0.9538,0.9723,0.9861
i_veggies_1_3,illumination,1039,878,6.66,0.5544,0.8383,0.9163,0.9413,1,1,1,0.4456,0.8152,0.8891,0.9446
i_veggies_1_4,illumination,1149,1004,4.78,0.3464,0.8747,0.9391,0.9617,1,1,1,0.6536,0.8845,0.9307,0.9654
i_veggies_1_5,illumination,898,608,4.07,0.6851,0.6726,0.7795,0.8419,1,1,1,0.3149,0.7716,0.8630,0.9315
i_veggies_1_6,illumination,853,540,5.37,1.3076,0.6202,0.7292,0.7960,1,1,1,0.0000,0.5641,0.7385,0.8692
i_village_1_2,illumination,1351,1046,8.78,0.5924,0.7602,0.8557,0.9008,1,1,1,0.4076,0.8025,0.8815,0.9408
i_village_1_3,illumination,1402,1101,4.53,0.5094,0.7775,0.8588,0.9030,1,1,1,0.4906,0.8302,0.8981,0.9491
i_village_1_4,illumination,1389,1079,4.36,0.4627,0.7747,0.8510,0.8956,1,1,1,0.5373,0.8458,0.9075,0.9537
i_village_1_5,illumination,1623,1481,4.34,0.5483,0.9125,0.9489,0.9636,1,1,1,0.4517,0.8172,0.8903,0.9452
i_village_1_6,illumination,1348,995,4.34,0.9074,0.7240,0.8131,0.8620,1,1,1,0.0926,0.6975,0.8185,0.9093
i_yellowtent_1_2,illumination,1352,1310,3.85,0.2134,0.9645,0.9822,0.9904,1,1,1,0.7866,0.9289,0.9573,0.9787
i_yellowtent_1_3,illumination,1210,1096,4.41,0.3535,0.8893,0.9529,0.9736,1,1,1,0.6465,0.8822,0.9293,0.9647
i_yellowtent_1_4,illumination,975,803,4.85,0.5183,0.8133,0.8995,0.9282,1,1,1,0.4817,0.8272,0.8963,0.9482
i_yellowtent_1_5,illumination,1122,959,3.75,0.4474,0.8520,0.9046,0.9242,1,1,1,0.5526,0.8509,0.9105,0.9553
i_yellowtent_1_6,illumination,1017,812,3.89,0.6501,0.7945,0.8604,0.8918,1,1,1,0.3499,0.7833,0.8700,0.9350
i_zion_1_2,illumination,1718,1601,5.22,0.2684,0.9290,0.9703,0.9843,1,1,1,0.7316,0.9105,0.9463,0.9732
i_zion_1_3,illumination,1452,1162,4.19,0.8702,0.7955,0.8822,0.9167,1,1,1,0.1298,0.7099,0.8260,0.9130
i_zion_1_4,illumination,1186,874,4.23,1.0290,0.7277,0.8246,0.8524,1,1,1,0.0000,0.6570,0.7942,0.8971
i_zion_1_5,illumination,777,432,3.69,1.1628,0.5470,0.6525,0.6937,1,1,1,0.0000,0.6124,0.7674,0.8837
i_zion_1_6,illumination,719,433,3.77,0.5484,0.5911,0.6676,0.7051,1,1,1,0.4516,0.8172,0.8903,0.9452
v_abstract_1_2,viewpoint,1394,1299,4.05,0.3536,0.9297,0.9627,0.9699,1,1,1,0.6464,0.8821,0.9293,0.9646
v_abstract_1_3,viewpoint,1374,1238,4.10,0.4868,0.9010,0.9585,0.9760,1,1,1,0.5132,0.8377,0.9026,0.9513
v_abstract_1_4,viewpoint,1053,852,4.02,0.7428,0.8025,0.8794,0.9060,1,1,1,0.2572,0.7524,0.8514,0.9257
v_abstract_1_5,viewpoint,1149,955,3.86,0.6791,0.8312,0.8773,0.8912,1,1,1,0.3209,0.7736,0.8642,0.9321
v_abstract_1_6,viewpoint,921,612,3.98,0.6205,0.6623,0.7253,0.7514,1,1,1,0.3795,0.7932,0.8759,0.9380
v_adam_1_2,viewpoint,735,681,3.58,0.6840,0.9170,0.9633,0.9782,1,1,1,0.3160,0.7720,0.8632,0.9316
v_adam_1_3,viewpoint,722,666,3.34,0.6613,0.9252,0.9695,0.9820,1,1,1,0.3387,0.7796,0.8677,0.9339
v_adam_1_4,viewpoint,469,335,3.27,1.2342,0.7079,0.8038,0.8507,1,1,1,0.0000,0.5886,0.7532,0.8766
v_adam_1_5,viewpoint,600,526,3.22,0.9124,0.8667,0.9417,0.9567,1,1,1,0.0876,0.6959,0.8175,0.9088
v_adam_1_6,viewpoint,624,552,3.16,0.7020,0.8782,0.9519,0.9728,1,1,1,0.2980,0.7660,0.8596,0.9298
v_apprentices_1_2,viewpoint,1675,1621,8.89,0.1076,0.9684,0.9875,0.9910,1,1,1,0.8924,0.9641,0.9785,0.9892
v_apprentices_1_3,viewpoint,1509,1418,4.66,0.5200,0.9410,0.9722,0.9775,1,1,1,0.4800,0.8267,0.8960,0.9480
v_apprentices_1_4,viewpoint,1352,1229,4.99,0.9113,0.9075,0.9527,0.9593,1,1,1,0.0887,0.6962,0.8177,0.9089
v_apprentices_1_5,viewpoint,1164,999,4.32,0.9179,0.8540,0.9055,0.9201,1,1,1,0.0821,0.6940,0.8164,0.9082
v_apprentices_1_6,viewpoint,1059,894,3.91,0.7793,0.8347,0.8924,0.9112,1,1,1,0.2207,0.7402,0.8441,0.9221
v_azzola_1_2,viewpoint,1454,1327,9.69,0.7368,0.9023,0.9574,0.9642,1,1,1,0.2632,0.7544,0.8526,0.9263
v_azzola_1_3,viewpoint,1297,1072,4.75,1.2264,0.7980,0.9183,0.9429,1,1,1,0.0000,0.5912,0.7547,0.8774
v_azzola_1_4,viewpoint,1472,1378,4.34,0.5602,0.9341,0.9613,0.9681,1,1,1,0.4398,0.8133,0.8880,0.9440
v_azzola_1_5,viewpoint,1132,796,4.20,1.0802,0.6846,0.7827,0.8065,1,1,1,0.0000,0.6399,0.7840,0.8920
v_azzola_1_6,viewpoint,819,420,5.01,1.5275,0.4872,0.5934,0.6142,1,1,1,0.0000,0.4908,0.6945,0.8472
v_bark_1_2,viewpoint,812,80,4.22,2.1611,0.1022,0.1305,0.1576,1,1,1,0.0000,0.2796,0.5678,0.7839
v_bark_1_3,viewpoint,720,9,4.24,536.1427,0.0000,0.0000,0.0000,0,0,0,0.0000,0.0000,0.0000,0.0000
v_bark_1_4,viewpoint,656,7,5.25,417.8904,0.0000,0.0000,0.0015,0,0,0,0.0000,0.0000,0.0000,0.0000
v_bark_1_5,viewpoint,727,8,4.24,123.6968,0.0138,0.0165,0.0248,0,0,0,0.0000,0.0000,0.0000,0.0000
v_bark_1_6,viewpoint,693,11,3.99,357.3483,0.0014,0.0014,0.0014,0,0,0,0.0000,0.0000,0.0000,0.0000
v_bees_1_2,viewpoint,1657,1579,4.31,0.3144,0.9511,0.9759,0.9843,1,1,1,0.6856,0.8952,0.9371,0.9686
v_bees_1_3,viewpoint,1681,1617,4.41,0.3911,0.9619,0.9804,0.9899,1,1,1,0.6089,0.8696,0.9218,0.9609
v_bees_1_4,viewpoint,1551,1487,4.39,0.5359,0.9581,0.9807,0.9858,1,1,1,0.4641,0.8214,0.8928,0.9464
v_bees_1_5,viewpoint,1220,1065,4.14,0.7507,0.8713,0.9172,0.9443,1,1,1,0.2493,0.7498,0.8499,0.9249
v_bees_1_6,viewpoint,1364,1199,4.25,0.4718,0.8739,0.9370,0.9575,1,1,1,0.5282,0.8427,0.9056,0.9528
v_beyus_1_2,viewpoint,467,354,7.65,2.0507,0.7645,0.8437,0.8887,1,1,1,0.0000,0.3164,0.5899,0.7949
v_beyus_1_3,viewpoint,526,332,4.77,4.3137,0.6312,0.7452,0.7947,0,1,1,0.0000,0.0000,0.1373,0.5686
v_beyus_1_4,viewpoint,600,514,3.50,0.4918,0.8500,0.9333,0.9567,1,1,1,0.5082,0.8361,0.9016,0.9508
v_beyus_1_5,viewpoint,420,253,3.24,3.5618,0.6143,0.7024,0.7667,0,1,1,0.0000,0.0000,0.2876,0.6438
v_beyus_1_6,viewpoint,556,417,3.58,2.5125,0.7392,0.8453,0.8849,1,1,1,0.0000,0.1625,0.4975,0.7487
v_bip_1_2,viewpoint,1161,982,3.98,0.2557,0.8415,0.8923,0.9087,1,1,1,0.7443,0.9148,0.9489,0.9744
v_bip_1_3,viewpoint,1010,799,4.39,0.4950,0.7842,0.8535,0.8733,1,1,1,0.5050,0.8350,0.9010,0.9505
v_bip_1_4,viewpoint,1100,889,4.27,0.5947,0.8045,0.8709,0.8900,1,1,1,0.4053,0.8018,0.8811,0.9405
v_bip_1_5,viewpoint,633,154,3.78,1.5751,0.2385,0.2859,0.3160,1,1,1,0.0000,0.4750,0.6850,0.8425
v_bip_1_6,viewpoint,567,15,3.72,43.8605,0.0741,0.0970,0.1041,0,0,0,0.0000,0.0000,0.0000,0.0000
v_bird_1_2,viewpoint,1122,1006,4.25,76.5690,0.0000,0.0000,0.0000,0,0,0,0.0000,0.0000,0.0000,0.0000
v_bird_1_3,viewpoint,1025,856,4.36,84.4428,0.0000,0.0000,0.0000,0,0,0,0.0000,0.0000,0.0000,0.0000
v_bird_1_4,viewpoint,1064,868,4.44,98.7934,0.0000,0.0000,0.0000,0,0,0,0.0000,0.0000,0.0000,0.0000
v_bird_1_5,viewpoint,1022,676,4.46,84.6072,0.0000,0.0000,0.0010,0,0,0,0.0000,0.0000,0.0000,0.0000
v_bird_1_6,viewpoint,736,279,4.10,193.3977,0.0000,0.0000,0.0000,0,0,0,0.0000,0.0000,0.0000,0.0000
v_birdwoman_1_2,viewpoint,599,127,3.99,44.5971,0.0017,0.0033,0.0050,0,0,0,0.0000,0.0000,0.0000,0.0000
v_birdwoman_1_3,viewpoint,713,412,4.11,55.3880,0.0000,0.0000,0.0000,0,0,0,0.0000,0.0000,0.0000,0.0000
v_birdwoman_1_4,viewpoint,931,676,4.18,50.3896,0.0000,0.0000,0.0000,0,0,0,0.0000,0.0000,0.0000,0.0000
v_birdwoman_1_5,viewpoint,1389,1232,5.23,52.6395,0.0000,0.0000,0.0007,0,0,0,0.0000,0.0000,0.0000,0.0000
v_birdwoman_1_6,viewpoint,998,738,3.91,51.1908,0.0000,0.0000,0.0000,0,0,0,0.0000,0.0000,0.0000,0.0000
v_blueprint_1_2,viewpoint,1461,1329,4.20,0.4681,0.9028,0.9521,0.9624,1,1,1,0.5319,0.8440,0.9064,0.9532
v_blueprint_1_3,viewpoint,1174,973,4.69,0.4353,0.8288,0.8816,0.9063,1,1,1,0.5647,0.8549,0.9129,0.9565
v_blueprint_1_4,viewpoint,1359,1216,4.36,0.4922,0.8926,0.9330,0.9463,1,1,1,0.5078,0.8359,0.9016,0.9508
v_blueprint_1_5,viewpoint,1036,762,3.91,0.5760,0.7317,0.7983,0.8263,1,1,1,0.4240,0.8080,0.8848,0.9424
v_blueprint_1_6,viewpoint,818,490,3.60,0.8053,0.5966,0.6614,0.7054,1,1,1,0.1947,0.7316,0.8389,0.9195
v_boat_1_2,viewpoint,1455,1262,8.74,0.3101,0.8687,0.9223,0.9416,1,1,1,0.6899,0.8966,0.9380,0.9690
v_boat_1_3,viewpoint,503,14,4.11,24.6825,0.0596,0.0974,0.1173,0,0,0,0.0000,0.0000,0.0000,0.0000
v_boat_1_4,viewpoint,447,7,3.95,232.5529,0.0045,0.0089,0.0157,0,0,0,0.0000,0.0000,0.0000,0.0000
v_boat_1_5,viewpoint,576,6,4.09,228.6850,0.0000,0.0017,0.0017,0,0,0,0.0000,0.0000,0.0000,0.0000
v_boat_1_6,viewpoint,707,208,4.14,1.3887,0.2928,0.3522,0.3861,1,1,1,0.0000,0.5371,0.7223,0.8611
v_bricks_1_2,viewpoint,1633,1546,4.35,33.3870,0.0024,0.0147,0.0404,0,0,0,0.0000,0.0000,0.0000,0.0000
v_bricks_1_3,viewpoint,1570,1453,4.40,32.0107,0.0000,0.0070,0.0318,0,0,0,0.0000,0.0000,0.0000,0.0000
v_bricks_1_4,viewpoint,1375,1227,4.85,31.2037,0.0000,0.0007,0.0167,0,0,0,0.0000,0.0000,0.0000,0.0000
v_bricks_1_5,viewpoint,1179,941,4.16,28.2284,0.0000,0.0008,0.0170,0,0,0,0.0000,0.0000,0.0000,0.0000
v_bricks_1_6,viewpoint,941,518,3.80,27.6196,0.0011,0.0011,0.0021,0,0,0,0.0000,0.0000,0.0000,0.0000
v_busstop_1_2,viewpoint,1432,1321,4.74,0.3227,0.9239,0.9553,0.9595,1,1,1,0.6773,0.8924,0.9355,0.9677
v_busstop_1_3,viewpoint,1273,1082,4.55,0.5998,0.8484,0.8892,0.9018,1,1,1,0.4002,0.8001,0.8800,0.9400
v_busstop_1_4,viewpoint,1284,1143,4.22,0.5844,0.8886,0.9159,0.9213,1,1,1,0.4156,0.8052,0.8831,0.9416
v_busstop_1_5,viewpoint,1285,1134,4.14,0.4409,0.8802,0.9082,0.9144,1,1,1,0.5591,0.8530,0.9118,0.9559
v_busstop_1_6,viewpoint,1462,1340,4.61,0.5691,0.9124,0.9405,0.9466,1,1,1,0.4309,0.8103,0.8862,0.9431
v_calder_1_2,viewpoint,1046,920,3.84,0.2958,0.8795,0.9264,0.9369,1,1,1,0.7042,0.9014,0.9408,0.9704
v_calder_1_3,viewpoint,1230,1156,3.91,0.2608,0.9398,0.9675,0.9756,1,1,1,0.7392,0.9131,0.9478,0.9739
v_calder_1_4,viewpoint,761,508,3.62,0.3710,0.6662,0.7319,0.7648,1,1,1,0.6290,0.8763,0.9258,0.9629
v_calder_1_5,viewpoint,783,488,3.89,0.5888,0.6245,0.6986,0.7267,1,1,1,0.4112,0.8037,0.8822,0.9411
v_calder_1_6,viewpoint,609,229,3.54,1.5476,0.3777,0.4450,0.4696,1,1,1,0.0000,0.4841,0.6905,0.8452
v_cartooncity_1_2,viewpoint,1596,1516,4.19,62.0972,0.0000,0.0000,0.0025,0,0,0,0.0000,0.0000,0.0000,0.0000
v_cartooncity_1_3,viewpoint,1097,734,4.52,66.8383,0.0009,0.0009,0.0009,0,0,0,0.0000,0.0000,0.0000,0.0000
v_cartooncity_1_4,viewpoint,1453,1311,4.40,74.3965,0.0007,0.0021,0.0028,0,0,0,0.0000,0.0000,0.0000,0.0000
v_cartooncity_1_5,viewpoint,1128,827,4.81,75.7869,0.0000,0.0000,0.0000,0,0,0,0.0000,0.0000,0.0000,0.0000
v_cartooncity_1_6,viewpoint,1060,674,4.53,70.9759,0.0000,0.0000,0.0009,0,0,0,0.0000,0.0000,0.0000,0.0000
v_charing_1_2,viewpoint,608,349,3.80,1.7356,0.5773,0.6875,0.7303,1,1,1,0.0000,0.4215,0.6529,0.8264
v_charing_1_3,viewpoint,501,220,3.54,78.6504,0.4311,0.5609,0.6188,0,0,0,0.0000,0.0000,0.0000,0.0000
v_charing_1_4,viewpoint,528,307,3.70,4.2502,0.5739,0.6799,0.7216,0,1,1,0.0000,0.0000,0.1500,0.5750
v_charing_1_5,viewpoint,504,326,3.35,31.1715,0.6071,0.7460,0.8075,0,0,0,0.0000,0.0000,0.0000,0.0000
v_charing_1_6,viewpoint,486,305,3.59,529.5915,0.6049,0.7634,0.8066,0,0,0,0.0000,0.0000,0.0000,0.0000
v_churchill_1_2,viewpoint,1055,932,3.84,0.9131,0.8815,0.9346,0.9545,1,1,1,0.0869,0.6956,0.8174,0.9087
v_churchill_1_3,viewpoint,993,768,3.98,2.0023,0.7714,0.8661,0.9043,1,1,1,0.0000,0.3326,0.5995,0.7998
v_churchill_1_4,viewpoint,969,794,3.72,1.2439,0.8173,0.8958,0.9288,1,1,1,0.0000,0.5854,0.7512,0.8756
v_churchill_1_5,viewpoint,1215,1170,3.73,0.1587,0.9613,0.9852,0.9901,1,1,1,0.8413,0.9471,0.9683,0.9841
v_churchill_1_6,viewpoint,779,566,3.73,1.1687,0.7253,0.8203,0.8601,1,1,1,0.0000,0.6104,0.7663,0.8831
v_circus_1_2,viewpoint,1249,1038,4.53,0.5529,0.8351,0.8991,0.9215,1,1,1,0.4471,0.8157,0.8894,0.9447
v_circus_1_3,viewpoint,1067,828,4.32,0.6867,0.7741,0.8679,0.8941,1,1,1,0.3133,0.7711,0.8627,0.9313
v_circus_1_4,viewpoint,806,550,4.35,1.1770,0.6811,0.7903,0.8300,1,1,1,0.0000,0.6077,0.7646,0.8823
v_circus_1_5,viewpoint,1253,1045,4.25,0.2961,0.8348,0.9106,0.9202,1,1,1,0.7039,0.9013,0.9408,0.9704
v_circus_1_6,viewpoint,986,736,4.13,0.8207,0.7373,0.8489,0.8742,1,1,1,0.1793,0.7264,0.8359,0.9179
v_coffeehouse_1_2,viewpoint,981,885,3.64,0.5488,0.8991,0.9256,0.9358,1,1,1,0.4512,0.8171,0.8902,0.9451
v_coffeehouse_1_3,viewpoint,1001,897,3.71,0.6220,0.8941,0.9231,0.9381,1,1,1,0.3780,0.7927,0.8756,0.9378
v_coffeehouse_1_4,viewpoint,920,781,3.88,1.0956,0.8467,0.8924,0.9098,1,1,1,0.0000,0.6348,0.7809,0.8904
v_coffeehouse_1_5,viewpoint,911,792,3.60,0.2569,0.8705,0.8979,0.9100,1,1,1,0.7431,0.9144,0.9486,0.9743
v_coffeehouse_1_6,viewpoint,803,586,4.11,0.7390,0.7323,0.7771,0.8082,1,1,1,0.2610,0.7537,0.8522,0.9261
v_colors_1_2,viewpoint,325,180,3.28,1.0254,0.5508,0.6462,0.6677,1,1,1,0.0000,0.6582,0.7949,0.8975
v_colors_1_3,viewpoint,304,139,3.31,2.0211,0.4572,0.5493,0.5822,1,1,1,0.0000,0.3263,0.5958,0.7979
v_colors_1_4,viewpoint,186,14,3.00,474.3203,0.1290,0.1559,0.1774,0,0,0,0.0000,0.0000,0.0000,0.0000
v_colors_1_5,viewpoint,155,12,3.11,420.8088,0.0903,0.1161,0.1419,0,0,0,0.0000,0.0000,0.0000,0.0000
v_colors_1_6,viewpoint,138,8,3.12,299.8423,0.0942,0.1087,0.1159,0,0,0,0.0000,0.0000,0.0000,0.0000
v_courses_1_2,viewpoint,1214,1144,4.68,1.1273,0.9382,0.9720,0.9819,1,1,1,0.0000,0.6242,0.7745,0.8873
v_courses_1_3,viewpoint,1077,952,4.04,1.5210,0.8747,0.9517,0.9759,1,1,1,0.0000,0.4930,0.6958,0.8479
v_courses_1_4,viewpoint,1045,970,4.19,0.9235,0.9244,0.9684,0.9780,1,1,1,0.0765,0.6922,0.8153,0.9076
v_courses_1_5,viewpoint,911,731,4.46,1.8823,0.7772,0.8869,0.9122,1,1,1,0.0000,0.3726,0.6235,0.8118
v_courses_1_6,viewpoint,826,612,3.53,2.2632,0.7264,0.8366,0.8632,1,1,1,0.0000,0.2456,0.5474,0.7737
v_dirtywall_1_2,viewpoint,1447,1340,8.30,0.2714,0.9288,0.9572,0.9613,1,1,1,0.7286,0.9095,0.9457,0.9729
v_dirtywall_1_3,viewpoint,1326,1166,4.18,0.4542,0.8786,0.9223,0.9374,1,1,1,0.5458,0.8486,0.9092,0.9546
v_dirtywall_1_4,viewpoint,1147,882,4.38,0.5489,0.7690,0.8256,0.8466,1,1,1,0.4511,0.8170,0.8902,0.9451
v_dirtywall_1_5,viewpoint,1233,1044,4.20,0.6583,0.8500,0.8824,0.8946,1,1,1,0.3417,0.7806,0.8683,0.9342
v_dirtywall_1_6,viewpoint,964,607,3.94,0.8336,0.6297,0.6857,0.7044,1,1,1,0.1664,0.7221,0.8333,0.9166
v_dogman_1_2,viewpoint,705,598,3.35,1.3094,0.8496,0.8936,0.9149,1,1,1,0.0000,0.5635,0.7381,0.8691
v_dogman_1_3,viewpoint,800,707,3.34,1.1512,0.8800,0.9137,0.9400,1,1,1,0.0000,0.6163,0.7698,0.8849
v_dogman_1_4,viewpoint,532,346,3.33,3.6859,0.6335,0.7425,0.7970,0,1,1,0.0000,0.0000,0.2628,0.6314
v_dogman_1_5,viewpoint,620,491,3.10,1.6151,0.7919,0.8613,0.8823,1,1,1,0.0000,0.4616,0.6770,0.8385
v_dogman_1_6,viewpoint,455,202,3.11,38.3125,0.4396,0.5099,0.5407,0,0,0,0.0000,0.0000,0.0000,0.0000
v_eastsouth_1_2,viewpoint,1515,1408,4.56,0.2094,0.9287,0.9459,0.9505,1,1,1,0.7906,0.9302,0.9581,0.9791
v_eastsouth_1_3,viewpoint,740,8,4.52,150.7287,0.0608,0.0824,0.0986,0,0,0,0.0000,0.0000,0.0000,0.0000
v_eastsouth_1_4,viewpoint,658,9,4.29,330.4822,0.0015,0.0015,0.0030,0,0,0,0.0000,0.0000,0.0000,0.0000
v_eastsouth_1_5,viewpoint,719,7,4.90,490.1943,0.0042,0.0195,0.0334,0,0,0,0.0000,0.0000,0.0000,0.0000
v_eastsouth_1_6,viewpoint,746,42,4.47,4.8933,0.0737,0.0965,0.1113,0,1,1,0.0000,0.0000,0.0213,0.5107
v_feast_1_2,viewpoint,1302,1178,4.13,0.2898,0.9025,0.9516,0.9662,1,1,1,0.7102,0.9034,0.9420,0.9710
v_feast_1_3,viewpoint,1414,1285,4.35,0.6030,0.9144,0.9562,0.9689,1,1,1,0.3970,0.7990,0.8794,0.9397
v_feast_1_4,viewpoint,1050,812,4.26,0.3808,0.7724,0.8362,0.8495,1,1,1,0.6192,0.8731,0.9238,0.9619
v_feast_1_5,viewpoint,1304,1155,4.10,0.4533,0.8873,0.9325,0.9486,1,1,1,0.5467,0.8489,0.9093,0.9547
v_feast_1_6,viewpoint,1124,925,4.18,0.7788,0.8203,0.8799,0.8915,1,1,1,0.2212,0.7404,0.8442,0.9221
v_fest_1_2,viewpoint,1429,1325,4.18,0.3672,0.9244,0.9608,0.9671,1,1,1,0.6328,0.8776,0.9266,0.9633
v_fest_1_3,viewpoint,1192,937,4.39,0.8437,0.7836,0.8490,0.8691,1,1,1,0.1563,0.7188,0.8313,0.9156
v_fest_1_4,viewpoint,1211,1046,3.98,0.5720,0.8646,0.8960,0.9050,1,1,1,0.4280,0.8093,0.8856,0.9428
v_fest_1_5,viewpoint,1194,967,4.35,0.7543,0.8057,0.8635,0.8811,1,1,1,0.2457,0.7486,0.8491,0.9246
v_fest_1_6,viewpoint,1068,710,4.19,1.9485,0.6573,0.7322,0.7594,1,1,1,0.0000,0.3505,0.6103,0.8052
v_gardens_1_2,viewpoint,1284,1071,4.31,1.0890,0.8302,0.8871,0.9104,1,1,1,0.0000,0.6370,0.7822,0.8911
v_gardens_1_3,viewpoint,800,442,3.99,5.7439,0.5375,0.6100,0.6350,0,0,1,0.0000,0.0000,0.0000,0.4256
v_gardens_1_4,viewpoint,1457,1340,4.68,0.7483,0.9163,0.9602,0.9732,1,1,1,0.2517,0.7506,0.8503,0.9252
v_gardens_1_5,viewpoint,970,637,4.63,1.8410,0.6454,0.7278,0.7629,1,1,1,0.0000,0.3863,0.6318,0.8159
v_gardens_1_6,viewpoint,976,560,4.26,1.3352,0.5738,0.6752,0.7305,1,1,1,0.0000,0.5549,0.7330,0.8665
v_grace_1_2,viewpoint,993,886,3.73,0.5781,0.8912,0.9527,0.9708,1,1,1,0.4219,0.8073,0.8844,0.9422
v_grace_1_3,viewpoint,900,770,4.03,0.8519,0.8511,0.9133,0.9433,1,1,1,0.1481,0.7160,0.8296,0.9148
v_grace_1_4,viewpoint,790,605,4.04,2.2789,0.7646,0.8481,0.8886,1,1,1,0.0000,0.2404,0.5442,0.7721
v_grace_1_5,viewpoint,654,416,3.88,1.5657,0.6437,0.7080,0.7462,1,1,1,0.0000,0.4781,0.6869,0.8434
v_grace_1_6,viewpoint,522,223,3.70,6.2239,0.4310,0.4943,0.5230,0,0,1,0.0000,0.0000,0.0000,0.3776
v_graffiti_1_2,viewpoint,1076,764,4.16,0.7815,0.7119,0.8113,0.8625,1,1,1,0.2185,0.7395,0.8437,0.9218
v_graffiti_1_3,viewpoint,994,671,7.49,1.1713,0.6730,0.7757,0.8119,1,1,1,0.0000,0.6096,0.7657,0.8829
v_graffiti_1_4,viewpoint,677,20,4.18,282.1615,0.0473,0.0709,0.1064,0,0,0,0.0000,0.0000,0.0000,0.0000
v_graffiti_1_5,viewpoint,802,424,4.18,1.1902,0.5224,0.6135,0.6509,1,1,1,0.0000,0.6033,0.7620,0.8810
v_graffiti_1_6,viewpoint,529,15,3.96,17.5744,0.0359,0.0454,0.0548,0,0,0,0.0000,0.0000,0.0000,0.0000
v_home_1_2,viewpoint,819,640,3.91,0.7273,0.7643,0.8352,0.8571,1,1,1,0.2727,0.7576,0.8545,0.9273
v_home_1_3,viewpoint,787,499,4.01,1.9940,0.6226,0.6874,0.7128,1,1,1,0.0000,0.3353,0.6012,0.8006
v_home_1_4,viewpoint,843,676,4.86,1.0162,0.7972,0.8446,0.8600,1,1,1,0.0000,0.6613,0.7968,0.8984
v_home_1_5,viewpoint,735,470,3.73,4.3046,0.6327,0.7143,0.7497,0,1,1,0.0000,0.0000,0.1391,0.5695
v_home_1_6,viewpoint,451,13,3.79,78.3415,0.0466,0.0976,0.1220,0,0,0,0.0000,0.0000,0.0000,0.0000
v_laptop_1_2,viewpoint,1009,967,4.02,0.2775,0.9564,0.9782,0.9841,1,1,1,0.7225,0.9075,0.9445,0.9723
v_laptop_1_3,viewpoint,532,213,3.31,2.5325,0.3929,0.5150,0.5789,1,1,1,0.0000,0.1558,0.4935,0.7467
v_laptop_1_4,viewpoint,392,13,3.52,20.6007,0.0281,0.0536,0.0816,0,0,0,0.0000,0.0000,0.0000,0.0000
v_laptop_1_5,viewpoint,389,9,3.32,829.9740,0.0000,0.0000,0.0129,0,0,0,0.0000,0.0000,0.0000,0.0000
v_laptop_1_6,viewpoint,404,7,3.54,283.3956,0.0000,0.0000,0.0025,0,0,0,0.0000,0.0000,0.0000,0.0000
v_london_1_2,viewpoint,1549,1440,4.19,0.2407,0.9296,0.9574,0.9651,1,1,1,0.7593,0.9198,0.9519,0.9759
v_london_1_3,viewpoint,1408,1292,4.26,0.4176,0.9197,0.9489,0.9574,1,1,1,0.5824,0.8608,0.9165,0.9582
v_london_1_4,viewpoint,1382,1177,4.39,0.7700,0.8509,0.8929,0.9110,1,1,1,0.2300,0.7433,0.8460,0.9230
v_london_1_5,viewpoint,1541,1439,4.19,0.2680,0.9325,0.9611,0.9630,1,1,1,0.7320,0.9107,0.9464,0.9732
v_london_1_6,viewpoint,1636,1560,4.26,0.2199,0.9535,0.9688,0.9768,1,1,1,0.7801,0.9267,0.9560,0.9780
v_machines_1_2,viewpoint,1184,1067,4.18,0.5942,0.8986,0.9569,0.9696,1,1,1,0.4058,0.8019,0.8812,0.9406
v_machines_1_3,viewpoint,849,629,4.30,2.6240,0.7032,0.8316,0.8728,1,1,1,0.0000,0.1253,0.4752,0.7376
v_machines_1_4,viewpoint,1014,943,4.49,0.5293,0.9280,0.9635,0.9753,1,1,1,0.4707,0.8236,0.8941,0.9471
v_machines_1_5,viewpoint,777,625,3.60,1.6950,0.7812,0.8752,0.9125,1,1,1,0.0000,0.4350,0.6610,0.8305
v_machines_1_6,viewpoint,989,927,4.72,0.2901,0.9383,0.9717,0.9778,1,1,1,0.7099,0.9033,0.9420,0.9710
v_man_1_2,viewpoint,1110,1015,4.32,2.2280,0.9090,0.9568,0.9694,1,1,1,0.0000,0.2573,0.5544,0.7772
v_man_1_3,viewpoint,895,720,3.70,3.4998,0.7676,0.8536,0.8704,0,1,1,0.0000,0.0000,0.3000,0.6500
v_man_1_4,viewpoint,772,589,3.60,2.6411,0.7655,0.8588,0.8912,1,1,1,0.0000,0.1196,0.4718,0.7359
v_man_1_5,viewpoint,964,862,3.76,2.1166,0.8786,0.9429,0.9544,1,1,1,0.0000,0.2945,0.5767,0.7883
v_man_1_6,viewpoint,1031,893,4.05,1.8045,0.8603,0.9185,0.9370,1,1,1,0.0000,0.3985,0.6391,0.8196
v_maskedman_1_2,viewpoint,717,581,3.61,1.7800,0.8061,0.8773,0.9163,1,1,1,0.0000,0.4067,0.6440,0.8220
v_maskedman_1_3,viewpoint,603,444,3.50,0.7590,0.7264,0.8192,0.8425,1,1,1,0.2410,0.7470,0.8482,0.9241
v_maskedman_1_4,viewpoint,773,656,3.34,2.4773,0.8551,0.9082,0.9288,1,1,1,0.0000,0.1742,0.5045,0.7523
v_maskedman_1_5,viewpoint,801,689,3.41,1.6378,0.8614,0.9251,0.9426,1,1,1,0.0000,0.4541,0.6724,0.8362
v_maskedman_1_6,viewpoint,473,145,3.44,6.2136,0.3129,0.3594,0.3805,0,0,1,0.0000,0.0000,0.0000,0.3786
v_pomegranate_1_2,viewpoint,1485,1315,4.77,0.5140,0.8848,0.9448,0.9663,1,1,1,0.4860,0.8287,0.8972,0.9486
v_pomegranate_1_3,viewpoint,1443,1198,4.54,0.8266,0.8267,0.9120,0.9369,1,1,1,0.1734,0.7245,0.8347,0.9173
v_pomegranate_1_4,viewpoint,1367,1183,4.46,0.2624,0.8647,0.9268,0.9546,1,1,1,0.7376,0.9125,0.9475,0.9738
v_pomegranate_1_5,viewpoint,1319,1186,4.41,0.8287,0.9022,0.9439,0.9735,1,1,1,0.1713,0.7238,0.8343,0.9171
v_pomegranate_1_6,viewpoint,1303,1181,4.94,0.4038,0.9071,0.9524,0.9724,1,1,1,0.5962,0.8654,0.9192,0.9596
v_posters_1_2,viewpoint,1018,726,8.71,114.6497,0.0000,0.0000,0.0000,0,0,0,0.0000,0.0000,0.0000,0.0000
v_posters_1_3,viewpoint,1202,1008,4.47,120.6433,0.0000,0.0000,0.0000,0,0,0,0.0000,0.0000,0.0000,0.0000
v_posters_1_4,viewpoint,1154,963,4.74,112.3203,0.0000,0.0000,0.0000,0,0,0,0.0000,0.0000,0.0000,0.0000
v_posters_1_5,viewpoint,976,639,4.32,124.5947,0.0000,0.0000,0.0000,0,0,0,0.0000,0.0000,0.0000,0.0000
v_posters_1_6,viewpoint,962,634,4.46,147.4163,0.0000,0.0000,0.0000,0,0,0,0.0000,0.0000,0.0000,0.0000
v_samples_1_2,viewpoint,1442,1327,4.51,67.8871,0.0000,0.0000,0.0007,0,0,0,0.0000,0.0000,0.0000,0.0000
v_samples_1_3,viewpoint,1492,1368,4.84,72.4904,0.0000,0.0000,0.0000,0,0,0,0.0000,0.0000,0.0000,0.0000
v_samples_1_4,viewpoint,1251,1002,4.58,71.6212,0.0008,0.0008,0.0040,0,0,0,0.0000,0.0000,0.0000,0.0000
v_samples_1_5,viewpoint,1352,1206,4.59,80.5221,0.0000,0.0000,0.0007,0,0,0,0.0000,0.0000,0.0000,0.0000
v_samples_1_6,viewpoint,1197,904,4.53,66.9209,0.0000,0.0008,0.0050,0,0,0,0.0000,0.0000,0.0000,0.0000
v_soldiers_1_2,viewpoint,1098,958,4.40,0.3069,0.8734,0.9326,0.9463,1,1,1,0.6931,0.8977,0.9386,0.9693
v_soldiers_1_3,viewpoint,880,727,3.91,1.0927,0.8193,0.8864,0.9114,1,1,1,0.0000,0.6358,0.7815,0.8907
v_soldiers_1_4,viewpoint,748,500,3.73,1.9399,0.6658,0.7166,0.7447,1,1,1,0.0000,0.3534,0.6120,0.8060
v_soldiers_1_5,viewpoint,703,340,5.23,1.3765,0.4836,0.5661,0.6017,1,1,1,0.0000,0.5412,0.7247,0.8624
v_soldiers_1_6,viewpoint,1084,951,4.44,97.2864,0.0000,0.0000,0.0000,0,0,0,0.0000,0.0000,0.0000,0.0000
v_strand_1_2,viewpoint,1473,1403,4.15,0.0955,0.9525,0.9857,0.9919,1,1,1,0.9045,0.9682,0.9809,0.9905
v_strand_1_3,viewpoint,1094,964,3.92,0.7258,0.8675,0.9452,0.9662,1,1,1,0.2742,0.7581,0.8548,0.9274
v_strand_1_4,viewpoint,1055,930,4.13,2.4355,0.8635,0.9431,0.9668,1,1,1,0.0000,0.1882,0.5129,0.7565
v_strand_1_5,viewpoint,1077,961,3.82,2.7958,0.8617,0.9415,0.9647,1,1,1,0.0000,0.0681,0.4408,0.7204
v_strand_1_6,viewpoint,933,768,3.94,3.7968,0.7567,0.9025,0.9475,0,1,1,0.0000,0.0000,0.2406,0.6203
v_sunseason_1_2,viewpoint,1674,1546,4.28,0.2136,0.9241,0.9486,0.9552,1,1,1,0.7864,0.9288,0.9573,0.9786
v_sunseason_1_3,viewpoint,1481,1323,4.31,0.2790,0.8933,0.9257,0.9291,1,1,1,0.7210,0.9070,0.9442,0.9721
v_sunseason_1_4,viewpoint,1044,716,3.86,0.5940,0.6849,0.7203,0.7318,1,1,1,0.4060,0.8020,0.8812,0.9406
v_sunseason_1_5,viewpoint,941,602,4.01,0.8009,0.6355,0.6695,0.6886,1,1,1,0.1991,0.7330,0.8398,0.9199
v_sunseason_1_6,viewpoint,860,437,4.36,1.1224,0.5047,0.5384,0.5500,1,1,1,0.0000,0.6259,0.7755,0.8878
v_tabletop_1_2,viewpoint,1332,1111,4.31,0.5890,0.8341,0.8709,0.8814,1,1,1,0.4110,0.8037,0.8822,0.9411
v_tabletop_1_3,viewpoint,960,322,5.53,1.4257,0.3333,0.3937,0.4323,1,1,1,0.0000,0.5248,0.7149,0.8574
v_tabletop_1_4,viewpoint,1049,621,5.68,0.9615,0.5882,0.6568,0.6740,1,1,1,0.0385,0.6795,0.8077,0.9039
v_tabletop_1_5,viewpoint,1082,690,4.78,0.4068,0.6386,0.6830,0.7015,1,1,1,0.5932,0.8644,0.9186,0.9593
v_tabletop_1_6,viewpoint,1097,692,4.32,1.0657,0.6281,0.6983,0.7211,1,1,1,0.0000,0.6448,0.7869,0.8934
v_tempera_1_2,viewpoint,711,665,3.45,0.4794,0.9311,0.9662,0.9761,1,1,1,0.5206,0.8402,0.9041,0.9521
v_tempera_1_3,viewpoint,692,622,3.34,0.5243,0.8945,0.9436,0.9552,1,1,1,0.4757,0.8252,0.8951,0.9476
v_tempera_1_4,viewpoint,684,613,3.36,0.7329,0.8947,0.9371,0.9547,1,1,1,0.2671,0.7557,0.8534,0.9267
v_tempera_1_5,viewpoint,649,541,3.34,1.1793,0.8259,0.8829,0.8998,1,1,1,0.0000,0.6069,0.7641,0.8821
v_tempera_1_6,viewpoint,406,241,3.22,1.9016,0.5837,0.6675,0.7044,1,1,1,0.0000,0.3661,0.6197,0.8098
v_there_1_2,viewpoint,485,411,3.18,1.0640,0.8371,0.9175,0.9588,1,1,1,0.0000,0.6453,0.7872,0.8936
v_there_1_3,viewpoint,352,113,3.25,4.1609,0.3040,0.3977,0.4432,0,1,1,0.0000,0.0000,0.1678,0.5839
v_there_1_4,viewpoint,338,6,3.37,284.2456,0.0769,0.1095,0.1213,0,0,0,0.0000,0.0000,0.0000,0.0000
v_there_1_5,viewpoint,297,6,3.15,212.0295,0.0168,0.0236,0.0404,0,0,0,0.0000,0.0000,0.0000,0.0000
v_there_1_6,viewpoint,299,6,3.23,941.6408,0.0033,0.0067,0.0067,0,0,0,0.0000,0.0000,0.0000,0.0000
v_underground_1_2,viewpoint,1493,1423,4.28,0.1270,0.9524,0.9725,0.9752,1,1,1,0.8730,0.9577,0.9746,0.9873
v_underground_1_3,viewpoint,1291,1171,4.55,0.2159,0.9040,0.9380,0.9466,1,1,1,0.7841,0.9280,0.9568,0.9784
v_underground_1_4,viewpoint,1025,821,4.18,0.5317,0.8000,0.8595,0.8771,1,1,1,0.4683,0.8228,0.8937,0.9468
v_underground_1_5,viewpoint,843,575,4.12,1.4677,0.6845,0.7521,0.7888,1,1,1,0.0000,0.5108,0.7065,0.8532
v_underground_1_6,viewpoint,634,332,4.75,1.9601,0.5284,0.5899,0.6230,1,1,1,0.0000,0.3466,0.6080,0.8040
v_vitro_1_2,viewpoint,1646,1542,4.61,0.1936,0.9362,0.9544,0.9557,1,1,1,0.8064,0.9355,0.9613,0.9806
v_vitro_1_3,viewpoint,1473,1308,4.33,0.3794,0.8893,0.9151,0.9172,1,1,1,0.6206,0.8735,0.9241,0.9621
v_vitro_1_4,viewpoint,1263,1058,4.23,0.4413,0.8361,0.8630,0.8702,1,1,1,0.5587,0.8529,0.9117,0.9559
v_vitro_1_5,viewpoint,1525,1419,4.24,0.5059,0.9298,0.9600,0.9633,1,1,1,0.4941,0.8314,0.8988,0.9494
v_vitro_1_6,viewpoint,1386,1215,4.27,0.4126,0.8766,0.9242,0.9394,1,1,1,0.5874,0.8625,0.9175,0.9587
v_wall_1_2,viewpoint,1120,1048,3.75,0.8937,0.9321,0.9563,0.9661,1,1,1,0.1063,0.7021,0.8213,0.9106
v_wall_1_3,viewpoint,994,869,3.70,1.2300,0.8712,0.9135,0.9326,1,1,1,0.0000,0.5900,0.7540,0.8770
v_wall_1_4,viewpoint,1147,1082,3.98,0.3329,0.9416,0.9608,0.9669,1,1,1,0.6671,0.8890,0.9334,0.9667
v_wall_1_5,viewpoint,1020,860,3.74,0.6216,0.8412,0.8971,0.9196,1,1,1,0.3784,0.7928,0.8757,0.9378
v_wall_1_6,viewpoint,909,705,3.53,3.3664,0.7723,0.8526,0.8735,0,1,1,0.0000,0.0000,0.3267,0.6634
v_wapping_1_2,viewpoint,1230,824,4.44,0.4419,0.6650,0.7748,0.8276,1,1,1,0.5581,0.8527,0.9116,0.9558
v_wapping_1_3,viewpoint,869,489,4.20,0.5193,0.5627,0.6743,0.7215,1,1,1,0.4807,0.8269,0.8961,0.9481
v_wapping_1_4,viewpoint,876,486,5.11,1.6639,0.5616,0.6644,0.7215,1,1,1,0.0000,0.4454,0.6672,0.8336
v_wapping_1_5,viewpoint,702,338,5.16,1.2704,0.4829,0.5769,0.6097,1,1,1,0.0000,0.5765,0.7459,0.8730
v_wapping_1_6,viewpoint,637,204,3.75,4.4543,0.3155,0.3830,0.4082,0,1,1,0.0000,0.0000,0.1091,0.5546
v_war_1_2,viewpoint,1140,922,4.57,1.1199,0.8088,0.8939,0.9088,1,1,1,0.0000,0.6267,0.7760,0.8880
v_war_1_3,viewpoint,913,662,3.91,1.1258,0.7306,0.8138,0.8499,1,1,1,0.0000,0.6247,0.7748,0.8874
v_war_1_4,viewpoint,1330,1254,4.45,0.4069,0.9391,0.9729,0.9759,1,1,1,0.5931,0.8644,0.9186,0.9593
v_war_1_5,viewpoint,1271,1155,3.97,0.4865,0.9040,0.9607,0.9717,1,1,1,0.5135,0.8378,0.9027,0.9514
v_war_1_6,viewpoint,871,634,3.70,1.9391,0.6946,0.8163,0.8542,1,1,1,0.0000,0.3536,0.6122,0.8061
v_weapons_1_2,viewpoint,1156,1088,3.91,0.7442,0.9412,0.9680,0.9732,1,1,1,0.2558,0.7519,0.8512,0.9256
v_weapons_1_3,viewpoint,1023,915,3.83,0.7835,0.8954,0.9462,0.9589,1,1,1,0.2165,0.7388,0.8433,0.9217
v_weapons_1_4,viewpoint,1073,921,3.88,0.6458,0.8574,0.9348,0.9515,1,1,1,0.3542,0.7847,0.8708,0.9354
v_weapons_1_5,viewpoint,1123,1053,3.78,1.0340,0.9332,0.9671,0.9813,1,1,1,0.0000,0.6553,0.7932,0.8966
v_weapons_1_6,viewpoint,1018,927,3.72,1.0619,0.9096,0.9587,0.9695,1,1,1,0.0000,0.6460,0.7876,0.8938
v_woman_1_2,viewpoint,651,457,3.66,46.5517,0.0000,0.0000,0.0000,0,0,0,0.0000,0.0000,0.0000,0.0000
v_woman_1_3,viewpoint,744,607,4.46,49.6189,0.0000,0.0000,0.0000,0,0,0,0.0000,0.0000,0.0000,0.0000
v_woman_1_4,viewpoint,694,495,3.70,50.3127,0.0000,0.0000,0.0000,0,0,0,0.0000,0.0000,0.0000,0.0000
v_woman_1_5,viewpoint,595,335,3.97,44.2288,0.0017,0.0034,0.0050,0,0,0,0.0000,0.0000,0.0000,0.0000
v_woman_1_6,viewpoint,645,428,3.89,48.8855,0.0000,0.0000,0.0016,0,0,0,0.0000,0.0000,0.0000,0.0000
v_wormhole_1_2,viewpoint,1099,928,3.79,0.3049,0.8444,0.8881,0.9072,1,1,1,0.6951,0.8984,0.9390,0.9695
v_wormhole_1_3,viewpoint,1144,1014,4.15,0.6342,0.8864,0.9397,0.9554,1,1,1,0.3658,0.7886,0.8732,0.9366
v_wormhole_1_4,viewpoint,1265,1163,3.97,0.4308,0.9209,0.9542,0.9660,1,1,1,0.5692,0.8564,0.9138,0.9569
v_wormhole_1_5,viewpoint,1010,763,3.77,5.6811,0.7525,0.8158,0.8436,0,0,1,0.0000,0.0000,0.0000,0.4319
v_wormhole_1_6,viewpoint,754,346,3.60,4.5908,0.4469,0.5345,0.5716,0,1,1,0.0000,0.0000,0.0818,0.5409
v_wounded_1_2,viewpoint,1018,920,3.74,0.4484,0.9047,0.9371,0.9519,1,1,1,0.5516,0.8505,0.9103,0.9552
v_wounded_1_3,viewpoint,739,549,3.75,4.3580,0.7429,0.8187,0.8417,0,1,1,0.0000,0.0000,0.1284,0.5642
v_wounded_1_4,viewpoint,439,224,3.65,28.4037,0.5148,0.6333,0.6674,0,0,0,0.0000,0.0000,0.0000,0.0000
v_wounded_1_5,viewpoint,647,450,3.66,3.1287,0.6986,0.8006,0.8362,0,1,1,0.0000,0.0000,0.3743,0.6871
v_wounded_1_6,viewpoint,421,217,3.39,7.6922,0.5178,0.6128,0.6722,0,0,0,0.0000,0.0000,0.0000,0.2308
v_yard_1_2,viewpoint,1415,1315,4.20,0.4364,0.9279,0.9668,0.9767,1,1,1,0.5636,0.8545,0.9127,0.9564
v_yard_1_3,viewpoint,984,629,4.24,1.4224,0.6108,0.7490,0.7927,1,1,1,0.0000,0.5259,0.7155,0.8578
v_yard_1_4,viewpoint,1284,1146,4.00,0.6122,0.8917,0.9291,0.9416,1,1,1,0.3878,0.7959,0.8776,0.9388
v_yard_1_5,viewpoint,1120,860,4.21,0.6754,0.7625,0.8402,0.8562,1,1,1,0.3246,0.7749,0.8649,0.9325
v_yard_1_6,viewpoint,922,494,3.95,2.0939,0.5325,0.6291,0.6638,1,1,1,0.0000,0.3020,0.5812,0.7906
v_yuri_1_2,viewpoint,743,670,3.56,0.5106,0.8977,0.9637,0.9812,1,1,1,0.4894,0.8298,0.8979,0.9489
v_yuri_1_3,viewpoint,584,449,3.76,2.4881,0.7551,0.8664,0.9024,1,1,1,0.0000,0.1706,0.5024,0.7512
v_yuri_1_4,viewpoint,508,294,3.51,21.3321,0.5335,0.6791,0.7480,0,0,0,0.0000,0.0000,0.0000,0.0000
v_yuri_1_5,viewpoint,615,505,4.75,1.1686,0.8179,0.8992,0.9382,1,1,1,0.0000,0.6105,0.7663,0.8831
v_yuri_1_6,viewpoint,533,360,8.41,5.3269,0.6323,0.7749,0.8405,0,0,1,0.0000,0.0000,0.0000,0.4673
