PairName,SeqType,NumMatches,Inliers,TimeMS,H_Error,MMA@3,MMA@5,MMA@7,MHA_Acc@3,MHA_Acc@5,MHA_Acc@7,AUC@1,AUC@3,AUC@5,AUC@10
i_ajuntament_1_2,illumination,2092,2010,290.20,0.3298,0.9565,0.9962,0.9990,1,1,1,0.6702,0.8901,0.9340,0.9670
i_ajuntament_1_3,illumination,1735,1564,15.73,1.0885,0.8744,0.9821,0.9960,1,1,1,0.0000,0.6372,0.7823,0.8911
i_ajuntament_1_4,illumination,1460,1051,25.31,2.2445,0.6719,0.8904,0.9719,1,1,1,0.0000,0.2518,0.5511,0.7756
i_ajuntament_1_5,illumination,1421,1077,18.06,1.9365,0.7016,0.8987,0.9775,1,1,1,0.0000,0.3545,0.6127,0.8063
i_ajuntament_1_6,illumination,1483,1157,19.50,1.8135,0.7276,0.9265,0.9697,1,1,1,0.0000,0.3955,0.6373,0.8187
i_autannes_1_2,illumination,1831,1798,23.74,0.1561,0.9814,0.9989,1.0000,1,1,1,0.8439,0.9480,0.9688,0.9844
i_autannes_1_3,illumination,1688,1630,14.19,0.1066,0.9633,0.9976,0.9994,1,1,1,0.8934,0.9645,0.9787,0.9893
i_autannes_1_4,illumination,1305,1085,15.39,1.2651,0.8084,0.9571,0.9916,1,1,1,0.0000,0.5783,0.7470,0.8735
i_autannes_1_5,illumination,1279,1085,14.95,0.5161,0.8397,0.9672,0.9875,1,1,1,0.4839,0.8280,0.8968,0.9484
i_autannes_1_6,illumination,1631,1478,13.63,0.3499,0.8976,0.9798,0.9933,1,1,1,0.6501,0.8834,0.9300,0.9650
i_bologna_1_2,illumination,1085,1079,23.42,0.1356,0.9908,1.0000,1.0000,1,1,1,0.8644,0.9548,0.9729,0.9864
i_bologna_1_3,illumination,1032,1026,9.61,0.2645,0.9942,1.0000,1.0000,1,1,1,0.7355,0.9118,0.9471,0.9736
i_bologna_1_4,illumination,978,954,9.44,0.2726,0.9755,1.0000,1.0000,1,1,1,0.7274,0.9091,0.9455,0.9727
i_bologna_1_5,illumination,962,931,9.17,0.3552,0.9657,0.9958,1.0000,1,1,1,0.6448,0.8816,0.9290,0.9645
i_bologna_1_6,illumination,961,924,10.32,0.3835,0.9480,0.9948,0.9990,1,1,1,0.6165,0.8722,0.9233,0.9616
i_books_1_2,illumination,1261,1216,10.85,0.2315,0.9588,0.9921,0.9960,1,1,1,0.7685,0.9228,0.9537,0.9768
i_books_1_3,illumination,1290,1241,10.51,0.1717,0.9581,0.9953,0.9969,1,1,1,0.8283,0.9428,0.9657,0.9828
i_books_1_4,illumination,1365,1327,10.58,0.1655,0.9700,0.9941,0.9971,1,1,1,0.8345,0.9448,0.9669,0.9834
i_books_1_5,illumination,1421,1376,10.85,0.0844,0.9704,0.9958,0.9993,1,1,1,0.9156,0.9719,0.9831,0.9916
i_books_1_6,illumination,1334,1221,11.69,0.3065,0.9153,0.9640,0.9805,1,1,1,0.6935,0.8978,0.9387,0.9693
i_boutique_1_2,illumination,2114,2081,15.58,0.1687,0.9792,0.9995,0.9995,1,1,1,0.8313,0.9438,0.9663,0.9831
i_boutique_1_3,illumination,2108,2045,15.87,0.4121,0.9620,0.9948,0.9995,1,1,1,0.5879,0.8626,0.9176,0.9588
i_boutique_1_4,illumination,2131,2059,15.18,0.4136,0.9587,0.9869,0.9911,1,1,1,0.5864,0.8621,0.9173,0.9586
i_boutique_1_5,illumination,1725,1496,15.05,1.0298,0.8435,0.9588,0.9896,1,1,1,0.0000,0.6567,0.7940,0.8970
i_boutique_1_6,illumination,1744,1540,15.27,0.8016,0.8612,0.9633,0.9880,1,1,1,0.1984,0.7328,0.8397,0.9198
i_bridger_1_2,illumination,2004,1955,21.70,0.1797,0.9676,0.9970,1.0000,1,1,1,0.8203,0.9401,0.9641,0.9820
i_bridger_1_3,illumination,1777,1713,13.63,0.1892,0.9645,0.9989,1.0000,1,1,1,0.8108,0.9369,0.9622,0.9811
i_bridger_1_4,illumination,1898,1840,13.80,0.2474,0.9594,0.9984,0.9995,1,1,1,0.7526,0.9175,0.9505,0.9753
i_bridger_1_5,illumination,1726,1617,14.03,0.3129,0.9270,0.9959,1.0000,1,1,1,0.6871,0.8957,0.9374,0.9687
i_bridger_1_6,illumination,1266,1040,13.45,1.0208,0.7741,0.9510,0.9937,1,1,1,0.0000,0.6597,0.7958,0.8979
i_brooklyn_1_2,illumination,1862,1732,15.28,0.4983,0.9200,0.9796,0.9898,1,1,1,0.5017,0.8339,0.9003,0.9502
i_brooklyn_1_3,illumination,1813,1753,13.60,1.1229,0.9255,0.9983,1.0000,1,1,1,0.0000,0.6257,0.7754,0.8877
i_brooklyn_1_4,illumination,1654,1504,13.68,0.7696,0.8875,0.9788,0.9982,1,1,1,0.2304,0.7435,0.8461,0.9230
i_brooklyn_1_5,illumination,1840,1746,13.37,1.3037,0.9022,0.9967,1.0000,1,1,1,0.0000,0.5654,0.7393,0.8696
i_brooklyn_1_6,illumination,1781,1641,13.96,1.3051,0.8636,0.9882,0.9989,1,1,1,0.0000,0.5650,0.7390,0.8695
i_castle_1_2,illumination,1397,1256,13.25,0.5167,0.8690,0.9742,0.9957,1,1,1,0.4833,0.8278,0.8967,0.9483
i_castle_1_3,illumination,1609,1553,12.55,0.1670,0.9633,0.9956,0.9988,1,1,1,0.8330,0.9443,0.9666,0.9833
i_castle_1_4,illumination,1437,1365,12.24,0.8590,0.9214,0.9903,0.9951,1,1,1,0.1410,0.7137,0.8282,0.9141
i_castle_1_5,illumination,1205,1047,12.20,1.5852,0.8390,0.9635,0.9967,1,1,1,0.0000,0.4716,0.6830,0.8415
i_castle_1_6,illumination,1467,1277,14.83,0.5373,0.8575,0.9564,0.9932,1,1,1,0.4627,0.8209,0.8925,0.9463
i_chestnuts_1_2,illumination,1611,1580,11.81,0.0953,0.9814,0.9981,1.0000,1,1,1,0.9047,0.9682,0.9809,0.9905
i_chestnuts_1_3,illumination,1613,1583,12.89,0.2020,0.9833,0.9950,0.9969,1,1,1,0.7980,0.9327,0.9596,0.9798
i_chestnuts_1_4,illumination,1595,1547,12.27,0.2103,0.9680,0.9912,0.9956,1,1,1,0.7897,0.9299,0.9579,0.9790
i_chestnuts_1_5,illumination,1516,1459,11.34,0.2063,0.9631,0.9894,0.9967,1,1,1,0.7937,0.9312,0.9587,0.9794
i_chestnuts_1_6,illumination,1373,1277,12.19,0.4677,0.9279,0.9854,0.9942,1,1,1,0.5323,0.8441,0.9065,0.9532
i_crownday_1_2,illumination,1934,1735,20.20,0.4208,0.8878,0.9804,0.9938,1,1,1,0.5792,0.8597,0.9158,0.9579
i_crownday_1_3,illumination,2147,2035,18.22,0.3926,0.9432,0.9930,0.9981,1,1,1,0.6074,0.8691,0.9215,0.9607
i_crownday_1_4,illumination,2313,2203,21.37,0.6590,0.9511,0.9909,1.0000,1,1,1,0.3410,0.7803,0.8682,0.9341
i_crownday_1_5,illumination,2452,2369,18.14,0.2786,0.9637,0.9971,0.9996,1,1,1,0.7214,0.9071,0.9443,0.9721
i_crownday_1_6,illumination,1802,1579,17.92,0.3984,0.8685,0.9689,0.9895,1,1,1,0.6016,0.8672,0.9203,0.9602
i_dome_1_2,illumination,1751,1734,13.50,0.1176,0.9903,0.9983,0.9994,1,1,1,0.8824,0.9608,0.9765,0.9882
i_dome_1_3,illumination,998,903,12.77,0.4807,0.8938,0.9780,0.9960,1,1,1,0.5193,0.8398,0.9039,0.9519
i_dome_1_4,illumination,1007,893,11.28,0.3964,0.8848,0.9801,0.9950,1,1,1,0.6036,0.8679,0.9207,0.9604
i_dome_1_5,illumination,1080,970,11.98,0.6159,0.8954,0.9898,0.9972,1,1,1,0.3841,0.7947,0.8768,0.9384
i_dome_1_6,illumination,1628,1539,13.49,0.1689,0.9478,0.9945,0.9982,1,1,1,0.8311,0.9437,0.9662,0.9831
i_duda_1_2,illumination,993,992,8.23,0.3887,0.9980,0.9990,1.0000,1,1,1,0.6113,0.8704,0.9223,0.9611
i_duda_1_3,illumination,935,928,7.97,0.3899,0.9914,1.0000,1.0000,1,1,1,0.6101,0.8700,0.9220,0.9610
i_duda_1_4,illumination,906,897,8.09,0.2616,0.9868,1.0000,1.0000,1,1,1,0.7384,0.9128,0.9477,0.9738
i_duda_1_5,illumination,841,822,8.06,0.3686,0.9786,0.9988,0.9988,1,1,1,0.6314,0.8771,0.9263,0.9631
i_duda_1_6,illumination,769,744,7.92,0.6340,0.9571,0.9974,1.0000,1,1,1,0.3660,0.7887,0.8732,0.9366
i_fenis_1_2,illumination,1842,1798,14.25,0.3150,0.9674,0.9989,1.0000,1,1,1,0.6850,0.8950,0.9370,0.9685
i_fenis_1_3,illumination,1702,1597,14.02,0.4471,0.9166,0.9929,0.9994,1,1,1,0.5529,0.8510,0.9106,0.9553
i_fenis_1_4,illumination,1212,953,13.48,1.0162,0.7541,0.9323,0.9810,1,1,1,0.0000,0.6613,0.7968,0.8984
i_fenis_1_5,illumination,1223,867,13.10,1.7442,0.6533,0.8553,0.9436,1,1,1,0.0000,0.4186,0.6512,0.8256
i_fenis_1_6,illumination,1273,1026,12.83,0.8758,0.7628,0.9175,0.9725,1,1,1,0.1242,0.7081,0.8248,0.9124
i_fog_1_2,illumination,2334,2296,15.12,0.1913,0.9841,0.9983,1.0000,1,1,1,0.8087,0.9362,0.9617,0.9809
i_fog_1_3,illumination,2093,2033,15.00,0.3636,0.9685,0.9957,1.0000,1,1,1,0.6364,0.8788,0.9273,0.9636
i_fog_1_4,illumination,2096,2002,15.14,0.3095,0.9561,0.9948,1.0000,1,1,1,0.6905,0.8968,0.9381,0.9690
i_fog_1_5,illumination,1570,1471,14.18,0.5345,0.9312,0.9841,0.9936,1,1,1,0.4655,0.8218,0.8931,0.9466
i_fog_1_6,illumination,1603,1475,14.30,0.6420,0.9195,0.9800,0.9956,1,1,1,0.3580,0.7860,0.8716,0.9358
i_fruits_1_2,illumination,2333,2227,27.72,0.3551,0.9520,0.9966,0.9996,1,1,1,0.6449,0.8816,0.9290,0.9645
i_fruits_1_3,illumination,2221,2106,17.65,0.5234,0.9433,0.9955,1.0000,1,1,1,0.4766,0.8255,0.8953,0.9477
i_fruits_1_4,illumination,2208,2081,17.66,0.3392,0.9411,0.9937,0.9991,1,1,1,0.6608,0.8869,0.9322,0.9661
i_fruits_1_5,illumination,2179,2073,17.64,0.2471,0.9463,0.9968,0.9995,1,1,1,0.7529,0.9176,0.9506,0.9753
i_fruits_1_6,illumination,2246,2123,17.75,0.3585,0.9430,0.9920,0.9973,1,1,1,0.6415,0.8805,0.9283,0.9641
i_gonnenberg_1_2,illumination,1750,1739,11.90,0.1037,0.9937,0.9989,0.9989,1,1,1,0.8963,0.9654,0.9793,0.9896
i_gonnenberg_1_3,illumination,1741,1721,11.76,0.1407,0.9874,0.9983,0.9989,1,1,1,0.8593,0.9531,0.9719,0.9859
i_gonnenberg_1_4,illumination,1640,1620,11.83,0.2037,0.9848,0.9982,0.9994,1,1,1,0.7963,0.9321,0.9593,0.9796
i_gonnenberg_1_5,illumination,1623,1608,11.23,0.2035,0.9901,1.0000,1.0000,1,1,1,0.7965,0.9322,0.9593,0.9797
i_gonnenberg_1_6,illumination,1647,1628,11.32,0.2078,0.9872,0.9970,0.9970,1,1,1,0.7922,0.9307,0.9584,0.9792
i_greenhouse_1_2,illumination,2559,2498,17.44,0.0731,0.9738,0.9984,1.0000,1,1,1,0.9269,0.9756,0.9854,0.9927
i_greenhouse_1_3,illumination,2578,2477,18.97,0.2661,0.9585,0.9977,1.0000,1,1,1,0.7339,0.9113,0.9468,0.9734
i_greenhouse_1_4,illumination,2499,2406,17.97,0.3856,0.9588,0.9984,1.0000,1,1,1,0.6144,0.8715,0.9229,0.9614
i_greenhouse_1_5,illumination,2506,2390,17.84,0.5112,0.9513,0.9972,1.0000,1,1,1,0.4888,0.8296,0.8978,0.9489
i_greenhouse_1_6,illumination,2429,2303,17.53,0.6509,0.9387,0.9979,1.0000,1,1,1,0.3491,0.7830,0.8698,0.9349
i_greentea_1_2,illumination,1563,1521,11.59,0.1073,0.9648,0.9962,0.9987,1,1,1,0.8927,0.9642,0.9785,0.9893
i_greentea_1_3,illumination,1954,1933,12.72,0.1141,0.9887,0.9990,0.9995,1,1,1,0.8859,0.9620,0.9772,0.9886
i_greentea_1_4,illumination,1949,1938,12.40,0.1337,0.9949,0.9995,1.0000,1,1,1,0.8663,0.9554,0.9733,0.9866
i_greentea_1_5,illumination,1926,1903,12.61,0.1672,0.9870,0.9979,0.9995,1,1,1,0.8328,0.9443,0.9666,0.9833
i_greentea_1_6,illumination,1856,1815,12.64,0.1700,0.9774,0.9968,1.0000,1,1,1,0.8300,0.9433,0.9660,0.9830
i_indiana_1_2,illumination,1899,1844,14.10,0.2137,0.9700,0.9968,1.0000,1,1,1,0.7863,0.9288,0.9573,0.9786
i_indiana_1_3,illumination,1810,1712,15.01,0.4062,0.9459,0.9956,0.9989,1,1,1,0.5938,0.8646,0.9188,0.9594
i_indiana_1_4,illumination,1815,1738,14.75,0.4259,0.9521,0.9989,1.0000,1,1,1,0.5741,0.8580,0.9148,0.9574
i_indiana_1_5,illumination,1820,1694,15.29,0.5185,0.9247,0.9951,0.9995,1,1,1,0.4815,0.8272,0.8963,0.9481
i_indiana_1_6,illumination,1755,1611,15.47,0.4328,0.9134,0.9932,0.9994,1,1,1,0.5672,0.8557,0.9134,0.9567
i_kions_1_2,illumination,1376,1309,19.20,0.9280,0.8983,0.9949,1.0000,1,1,1,0.0720,0.6907,0.8144,0.9072
i_kions_1_3,illumination,1195,1114,10.70,0.4500,0.9113,0.9883,0.9958,1,1,1,0.5500,0.8500,0.9100,0.9550
i_kions_1_4,illumination,1293,1108,11.36,1.5680,0.8043,0.9675,0.9923,1,1,1,0.0000,0.4773,0.6864,0.8432
i_kions_1_5,illumination,1279,1089,11.18,1.6140,0.8014,0.9570,0.9906,1,1,1,0.0000,0.4620,0.6772,0.8386
i_kions_1_6,illumination,1072,980,10.97,0.7226,0.8918,0.9813,0.9944,1,1,1,0.2774,0.7591,0.8555,0.9277
i_ktirio_1_2,illumination,2142,2113,14.79,0.0928,0.9874,0.9995,1.0000,1,1,1,0.9072,0.9691,0.9814,0.9907
i_ktirio_1_3,illumination,1787,1721,14.23,0.4979,0.9496,0.9944,1.0000,1,1,1,0.5021,0.8340,0.9004,0.9502
i_ktirio_1_4,illumination,1381,1260,13.40,1.0087,0.8979,0.9768,0.9949,1,1,1,0.0000,0.6638,0.7983,0.8991
i_ktirio_1_5,illumination,1690,1613,12.82,0.4090,0.9462,0.9970,1.0000,1,1,1,0.5910,0.8637,0.9182,0.9591
i_ktirio_1_6,illumination,1432,1289,12.91,0.4461,0.9001,0.9784,0.9979,1,1,1,0.5539,0.8513,0.9108,0.9554
i_kurhaus_1_2,illumination,1879,1858,12.76,0.1891,0.9894,1.0000,1.0000,1,1,1,0.8109,0.9370,0.9622,0.9811
i_kurhaus_1_3,illumination,1734,1690,12.57,0.1125,0.9775,0.9965,0.9994,1,1,1,0.8875,0.9625,0.9775,0.9888
i_kurhaus_1_4,illumination,1614,1555,12.66,0.1296,0.9696,0.9981,1.0000,1,1,1,0.8704,0.9568,0.9741,0.9870
i_kurhaus_1_5,illumination,1520,1445,13.96,0.1751,0.9559,0.9954,1.0000,1,1,1,0.8249,0.9416,0.9650,0.9825
i_kurhaus_1_6,illumination,1446,1332,12.95,0.2069,0.9177,0.9896,0.9972,1,1,1,0.7931,0.9310,0.9586,0.9793
i_leuven_1_2,illumination,1718,1611,15.27,1.2231,0.9203,0.9907,0.9983,1,1,1,0.0000,0.5923,0.7554,0.8777
i_leuven_1_3,illumination,1919,1851,16.25,1.2811,0.9364,0.9953,0.9990,1,1,1,0.0000,0.5730,0.7438,0.8719
i_leuven_1_4,illumination,1786,1637,15.52,2.0285,0.8936,0.9877,0.9978,1,1,1,0.0000,0.3238,0.5943,0.7972
i_leuven_1_5,illumination,1664,1556,13.63,1.3441,0.9195,0.9952,0.9994,1,1,1,0.0000,0.5520,0.7312,0.8656
i_leuven_1_6,illumination,1550,1466,13.29,7.2611,0.6665,0.8368,0.9071,0,0,0,0.0000,0.0000,0.0000,0.2739
i_lionday_1_2,illumination,1007,883,10.62,1.2784,0.8540,0.9583,0.9950,1,1,1,0.0000,0.5739,0.7443,0.8722
i_lionday_1_3,illumination,1015,938,10.58,1.0465,0.8995,0.9833,0.9980,1,1,1,0.0000,0.6512,0.7907,0.8954
i_lionday_1_4,illumination,751,561,11.30,2.2582,0.6178,0.8695,0.9680,1,1,1,0.0000,0.2473,0.5484,0.7742
i_lionday_1_5,illumination,764,607,11.23,3.0639,0.6715,0.9071,0.9725,0,1,1,0.0000,0.0000,0.3872,0.6936
i_lionday_1_6,illumination,973,889,10.68,1.0047,0.8633,0.9764,0.9949,1,1,1,0.0000,0.6651,0.7991,0.8995
i_lionnight_1_2,illumination,1493,1399,12.91,0.7679,0.9149,0.9859,0.9967,1,1,1,0.2321,0.7440,0.8464,0.9232
i_lionnight_1_3,illumination,1029,967,12.43,1.2676,0.8931,0.9796,0.9971,1,1,1,0.0000,0.5775,0.7465,0.8732
i_lionnight_1_4,illumination,1540,1501,12.74,0.4626,0.9630,0.9974,0.9994,1,1,1,0.5374,0.8458,0.9075,0.9537
i_lionnight_1_5,illumination,1470,1416,12.13,1.3448,0.9306,0.9912,0.9966,1,1,1,0.0000,0.5517,0.7310,0.8655
i_lionnight_1_6,illumination,1391,1310,12.16,1.4205,0.9130,0.9878,0.9993,1,1,1,0.0000,0.5265,0.7159,0.8579
i_londonbridge_1_2,illumination,1392,1359,10.58,0.9838,0.9490,0.9964,0.9993,1,1,1,0.0162,0.6721,0.8032,0.9016
i_londonbridge_1_3,illumination,1352,1325,10.58,0.9511,0.9623,0.9978,1.0000,1,1,1,0.0489,0.6830,0.8098,0.9049
i_londonbridge_1_4,illumination,1241,1135,10.62,2.7806,0.8308,0.9863,1.0000,1,1,1,0.0000,0.0731,0.4439,0.7219
i_londonbridge_1_5,illumination,880,643,11.03,4.1328,0.5886,0.8511,0.9670,0,1,1,0.0000,0.0000,0.1734,0.5867
i_londonbridge_1_6,illumination,1316,1284,10.66,0.6856,0.9612,0.9992,1.0000,1,1,1,0.3144,0.7715,0.8629,0.9314
i_melon_1_2,illumination,1289,1261,11.74,0.2588,0.9767,0.9977,1.0000,1,1,1,0.7412,0.9137,0.9482,0.9741
i_melon_1_3,illumination,1129,1070,11.47,0.3601,0.9451,0.9876,0.9973,1,1,1,0.6399,0.8800,0.9280,0.9640
i_melon_1_4,illumination,713,582,10.36,1.1048,0.7980,0.9467,0.9776,1,1,1,0.0000,0.6317,0.7790,0.8895
i_melon_1_5,illumination,1146,1081,11.39,0.2700,0.9363,0.9799,0.9913,1,1,1,0.7300,0.9100,0.9460,0.9730
i_melon_1_6,illumination,1095,1032,11.30,0.3906,0.9361,0.9854,0.9945,1,1,1,0.6094,0.8698,0.9219,0.9609
i_miniature_1_2,illumination,1861,1851,12.25,0.1693,0.9941,0.9995,1.0000,1,1,1,0.8307,0.9436,0.9661,0.9831
i_miniature_1_3,illumination,1683,1649,11.69,0.3077,0.9792,0.9964,0.9994,1,1,1,0.6923,0.8974,0.9385,0.9692
i_miniature_1_4,illumination,1538,1422,12.77,0.7649,0.9096,0.9883,0.9980,1,1,1,0.2351,0.7450,0.8470,0.9235
i_miniature_1_5,illumination,1320,972,13.65,2.5821,0.7280,0.8917,0.9621,1,1,1,0.0000,0.1393,0.4836,0.7418
i_miniature_1_6,illumination,1626,1588,11.72,0.2970,0.9760,0.9975,0.9994,1,1,1,0.7030,0.9010,0.9406,0.9703
i_nescafe_1_2,illumination,1319,1255,11.04,0.4403,0.9515,0.9780,0.9848,1,1,1,0.5597,0.8532,0.9119,0.9560
i_nescafe_1_3,illumination,1581,1519,12.58,0.4497,0.9589,0.9836,0.9873,1,1,1,0.5503,0.8501,0.9101,0.9550
i_nescafe_1_4,illumination,1632,1582,12.28,0.2487,0.9681,0.9865,1.0000,1,1,1,0.7513,0.9171,0.9503,0.9751
i_nescafe_1_5,illumination,1499,1458,11.31,0.2897,0.9726,0.9887,0.9993,1,1,1,0.7103,0.9034,0.9421,0.9710
i_nescafe_1_6,illumination,1492,1393,11.57,0.1893,0.9336,0.9906,0.9973,1,1,1,0.8107,0.9369,0.9621,0.9811
i_nijmegen_1_2,illumination,2437,2299,17.78,0.8243,0.9048,0.9873,0.9979,1,1,1,0.1757,0.7252,0.8351,0.9176
i_nijmegen_1_3,illumination,2555,2447,18.21,0.6017,0.9186,0.9930,0.9996,1,1,1,0.3983,0.7994,0.8797,0.9398
i_nijmegen_1_4,illumination,2305,2001,18.59,0.5568,0.8534,0.9800,0.9983,1,1,1,0.4432,0.8144,0.8886,0.9443
i_nijmegen_1_5,illumination,2590,2443,18.68,0.5899,0.9093,0.9819,0.9961,1,1,1,0.4101,0.8034,0.8820,0.9410
i_nijmegen_1_6,illumination,2543,2398,18.30,0.5960,0.9151,0.9886,0.9984,1,1,1,0.4040,0.8013,0.8808,0.9404
i_nuts_1_2,illumination,2142,1768,20.51,0.8939,0.8184,0.9048,0.9309,1,1,1,0.1061,0.7020,0.8212,0.9106
i_nuts_1_3,illumination,1702,1374,21.92,0.8912,0.7955,0.9201,0.9553,1,1,1,0.1088,0.7029,0.8218,0.9109
i_nuts_1_4,illumination,1442,970,20.05,0.8110,0.6588,0.8259,0.9098,1,1,1,0.1890,0.7297,0.8378,0.9189
i_nuts_1_5,illumination,1169,670,20.13,0.6074,0.5714,0.7707,0.8768,1,1,1,0.3926,0.7975,0.8785,0.9393
i_nuts_1_6,illumination,880,450,20.13,2.4059,0.4636,0.6943,0.8193,1,1,1,0.0000,0.1980,0.5188,0.7594
i_objects_1_2,illumination,1608,1552,12.14,0.6365,0.9583,0.9975,1.0000,1,1,1,0.3635,0.7878,0.8727,0.9364
i_objects_1_3,illumination,1530,1425,12.21,0.9159,0.9163,0.9915,0.9980,1,1,1,0.0841,0.6947,0.8168,0.9084
i_objects_1_4,illumination,1400,1277,12.61,1.1211,0.8900,0.9786,0.9971,1,1,1,0.0000,0.6263,0.7758,0.8879
i_objects_1_5,illumination,1430,1229,12.97,1.0840,0.8448,0.9545,0.9860,1,1,1,0.0000,0.6387,0.7832,0.8916
i_objects_1_6,illumination,1765,1740,11.97,0.1444,0.9887,0.9983,0.9994,1,1,1,0.8556,0.9519,0.9711,0.9856
i_parking_1_2,illumination,1865,1786,14.09,0.2558,0.9592,0.9962,1.0000,1,1,1,0.7442,0.9147,0.9488,0.9744
i_parking_1_3,illumination,1776,1694,14.33,0.2753,0.9572,0.9977,0.9989,1,1,1,0.7247,0.9082,0.9449,0.9725
i_parking_1_4,illumination,1587,1469,14.90,1.0408,0.8771,0.9905,0.9987,1,1,1,0.0000,0.6531,0.7918,0.8959
i_parking_1_5,illumination,1419,1194,14.14,0.9570,0.7935,0.9619,0.9965,1,1,1,0.0430,0.6810,0.8086,0.9043
i_parking_1_6,illumination,1649,1499,14.17,0.7675,0.8745,0.9794,0.9982,1,1,1,0.2325,0.7442,0.8465,0.9232
i_partyfood_1_2,illumination,712,712,8.08,0.1585,0.9972,1.0000,1.0000,1,1,1,0.8415,0.9472,0.9683,0.9841
i_partyfood_1_3,illumination,659,657,7.78,0.2313,0.9954,1.0000,1.0000,1,1,1,0.7687,0.9229,0.9537,0.9769
i_partyfood_1_4,illumination,623,615,7.90,0.2478,0.9888,1.0000,1.0000,1,1,1,0.7522,0.9174,0.9504,0.9752
i_partyfood_1_5,illumination,590,583,7.94,0.3723,0.9881,1.0000,1.0000,1,1,1,0.6277,0.8759,0.9255,0.9628
i_partyfood_1_6,illumination,524,513,7.78,0.4605,0.9828,0.9981,1.0000,1,1,1,0.5395,0.8465,0.9079,0.9539
i_pinard_1_2,illumination,1320,1262,10.77,0.9100,0.9530,0.9682,0.9705,1,1,1,0.0900,0.6967,0.8180,0.9090
i_pinard_1_3,illumination,1038,939,11.50,0.5733,0.8940,0.9547,0.9711,1,1,1,0.4267,0.8089,0.8853,0.9427
i_pinard_1_4,illumination,1050,951,10.83,0.7716,0.8971,0.9438,0.9686,1,1,1,0.2284,0.7428,0.8457,0.9228
i_pinard_1_5,illumination,1102,1001,10.16,1.1268,0.8975,0.9501,0.9719,1,1,1,0.0000,0.6244,0.7746,0.8873
i_pinard_1_6,illumination,1219,1144,10.70,0.4104,0.9212,0.9762,0.9959,1,1,1,0.5896,0.8632,0.9179,0.9590
i_pool_1_2,illumination,896,727,10.28,1.5261,0.7980,0.9241,0.9721,1,1,1,0.0000,0.4913,0.6948,0.8474
i_pool_1_3,illumination,321,175,9.13,3.6622,0.5265,0.7632,0.8692,0,1,1,0.0000,0.0000,0.2676,0.6338
i_pool_1_4,illumination,311,179,8.76,3.2675,0.5723,0.7781,0.8682,0,1,1,0.0000,0.0000,0.3465,0.6732
i_pool_1_5,illumination,638,477,9.93,0.9932,0.7147,0.8777,0.9483,1,1,1,0.0068,0.6689,0.8014,0.9007
i_pool_1_6,illumination,667,485,10.27,1.1324,0.7121,0.8771,0.9475,1,1,1,0.0000,0.6225,0.7735,0.8868
i_porta_1_2,illumination,1977,1679,19.64,0.6989,0.8376,0.9823,0.9980,1,1,1,0.3011,0.7670,0.8602,0.9301
i_porta_1_3,illumination,2058,1791,19.57,0.2712,0.8707,0.9908,0.9990,1,1,1,0.7288,0.9096,0.9458,0.9729
i_porta_1_4,illumination,1587,1343,16.76,0.5482,0.8513,0.9824,0.9968,1,1,1,0.4518,0.8173,0.8904,0.9452
i_porta_1_5,illumination,1072,881,11.36,0.9195,0.8106,0.9683,0.9953,1,1,1,0.0805,0.6935,0.8161,0.9080
i_porta_1_6,illumination,1128,820,15.33,1.5418,0.6782,0.8936,0.9645,1,1,1,0.0000,0.4861,0.6916,0.8458
i_resort_1_2,illumination,2425,2386,16.20,0.1978,0.9880,0.9996,1.0000,1,1,1,0.8022,0.9341,0.9604,0.9802
i_resort_1_3,illumination,2729,2722,16.28,0.0753,0.9974,1.0000,1.0000,1,1,1,0.9247,0.9749,0.9849,0.9925
i_resort_1_4,illumination,2721,2707,16.25,0.1267,0.9960,1.0000,1.0000,1,1,1,0.8733,0.9578,0.9747,0.9873
i_resort_1_5,illumination,2346,2285,16.20,0.2735,0.9774,0.9996,1.0000,1,1,1,0.7265,0.9088,0.9453,0.9726
i_resort_1_6,illumination,2296,2221,16.18,0.6061,0.9582,0.9991,1.0000,1,1,1,0.3939,0.7980,0.8788,0.9394
i_salon_1_2,illumination,2715,2696,17.46,0.0840,0.9926,1.0000,1.0000,1,1,1,0.9160,0.9720,0.9832,0.9916
i_salon_1_3,illumination,2377,2340,17.27,0.1359,0.9840,0.9996,1.0000,1,1,1,0.8641,0.9547,0.9728,0.9864
i_salon_1_4,illumination,2160,2074,16.15,0.3069,0.9569,0.9958,0.9995,1,1,1,0.6931,0.8977,0.9386,0.9693
i_salon_1_5,illumination,2430,2402,15.60,0.1573,0.9872,1.0000,1.0000,1,1,1,0.8427,0.9476,0.9685,0.9843
i_salon_1_6,illumination,2215,2159,15.57,0.1882,0.9747,0.9973,1.0000,1,1,1,0.8118,0.9373,0.9624,0.9812
i_santuario_1_2,illumination,1951,1870,14.68,1.0026,0.9108,0.9933,0.9985,1,1,1,0.0000,0.6658,0.7995,0.8997
i_santuario_1_3,illumination,1955,1851,14.38,1.2196,0.8767,0.9847,0.9969,1,1,1,0.0000,0.5935,0.7561,0.8780
i_santuario_1_4,illumination,1885,1777,14.17,1.4373,0.8239,0.9867,0.9963,1,1,1,0.0000,0.5209,0.7125,0.8563
i_santuario_1_5,illumination,2012,1931,14.28,0.3090,0.9597,0.9960,0.9995,1,1,1,0.6910,0.8970,0.9382,0.9691
i_santuario_1_6,illumination,1764,1653,13.71,0.8765,0.8985,0.9847,0.9960,1,1,1,0.1235,0.7078,0.8247,0.9123
i_school_1_2,illumination,2218,2156,16.50,0.1787,0.9680,0.9991,1.0000,1,1,1,0.8213,0.9404,0.9643,0.9821
i_school_1_3,illumination,2156,2054,16.10,0.1521,0.9518,0.9972,1.0000,1,1,1,0.8479,0.9493,0.9696,0.9848
i_school_1_4,illumination,1774,1607,15.01,0.3909,0.8946,0.9825,0.9961,1,1,1,0.6091,0.8697,0.9218,0.9609
i_school_1_5,illumination,2014,1857,16.06,0.6119,0.9057,0.9876,0.9995,1,1,1,0.3881,0.7960,0.8776,0.9388
i_school_1_6,illumination,1800,1472,17.40,0.9242,0.7872,0.9344,0.9833,1,1,1,0.0758,0.6919,0.8152,0.9076
i_ski_1_2,illumination,2269,2238,14.07,0.1979,0.9850,0.9996,0.9996,1,1,1,0.8021,0.9340,0.9604,0.9802
i_ski_1_3,illumination,2149,2110,14.40,0.2921,0.9809,1.0000,1.0000,1,1,1,0.7079,0.9026,0.9416,0.9708
i_ski_1_4,illumination,2038,1990,14.03,0.4908,0.9686,0.9990,1.0000,1,1,1,0.5092,0.8364,0.9018,0.9509
i_ski_1_5,illumination,1985,1921,13.98,0.4601,0.9612,0.9965,0.9995,1,1,1,0.5399,0.8466,0.9080,0.9540
i_ski_1_6,illumination,1935,1851,14.78,0.6060,0.9483,0.9959,1.0000,1,1,1,0.3940,0.7980,0.8788,0.9394
i_smurf_1_2,illumination,2086,2015,14.21,0.2929,0.9583,0.9866,0.9947,1,1,1,0.7071,0.9024,0.9414,0.9707
i_smurf_1_3,illumination,2091,2021,15.19,0.1833,0.9656,0.9909,0.9962,1,1,1,0.8167,0.9389,0.9633,0.9817
i_smurf_1_4,illumination,1975,1895,13.73,0.2364,0.9585,0.9919,0.9975,1,1,1,0.7636,0.9212,0.9527,0.9764
i_smurf_1_5,illumination,1898,1814,13.74,0.3218,0.9510,0.9837,0.9974,1,1,1,0.6782,0.8927,0.9356,0.9678
i_smurf_1_6,illumination,1750,1616,13.92,0.2553,0.9211,0.9914,0.9977,1,1,1,0.7447,0.9149,0.9489,0.9745
i_steps_1_2,illumination,1925,1904,12.62,0.2612,0.9849,0.9995,0.9995,1,1,1,0.7388,0.9129,0.9478,0.9739
i_steps_1_3,illumination,1961,1918,12.88,0.4411,0.9750,0.9985,1.0000,1,1,1,0.5589,0.8530,0.9118,0.9559
i_steps_1_4,illumination,1983,1950,13.09,0.4647,0.9708,0.9980,0.9995,1,1,1,0.5353,0.8451,0.9071,0.9535
i_steps_1_5,illumination,1588,1526,12.47,0.5469,0.9521,0.9912,0.9969,1,1,1,0.4531,0.8177,0.8906,0.9453
i_steps_1_6,illumination,1737,1693,12.80,0.5030,0.9614,0.9971,1.0000,1,1,1,0.4970,0.8323,0.8994,0.9497
i_table_1_2,illumination,1608,1552,13.47,0.6365,0.9583,0.9975,1.0000,1,1,1,0.3635,0.7878,0.8727,0.9364
i_table_1_3,illumination,1530,1425,12.79,0.9159,0.9163,0.9915,0.9980,1,1,1,0.0841,0.6947,0.8168,0.9084
i_table_1_4,illumination,1400,1277,13.33,1.1211,0.8900,0.9786,0.9971,1,1,1,0.0000,0.6263,0.7758,0.8879
i_table_1_5,illumination,1430,1229,12.79,1.0840,0.8448,0.9545,0.9860,1,1,1,0.0000,0.6387,0.7832,0.8916
i_table_1_6,illumination,1765,1740,11.88,0.1444,0.9887,0.9983,0.9994,1,1,1,0.8556,0.9519,0.9711,0.9856
i_tools_1_2,illumination,613,405,9.14,5.2712,0.4192,0.6281,0.7928,0,0,1,0.0000,0.0000,0.0000,0.4729
i_tools_1_3,illumination,861,742,9.85,1.4444,0.8339,0.9779,0.9965,1,1,1,0.0000,0.5185,0.7111,0.8556
i_tools_1_4,illumination,678,416,9.41,3.8667,0.4440,0.6740,0.8378,0,1,1,0.0000,0.0000,0.2267,0.6133
i_tools_1_5,illumination,780,662,10.38,1.9301,0.7949,0.9500,0.9872,1,1,1,0.0000,0.3566,0.6140,0.8070
i_tools_1_6,illumination,582,295,9.61,8.0730,0.1856,0.3041,0.5344,0,0,0,0.0000,0.0000,0.0000,0.1927
i_toy_1_2,illumination,2989,2830,21.48,0.1761,0.9451,0.9923,0.9963,1,1,1,0.8239,0.9413,0.9648,0.9824
i_toy_1_3,illumination,2827,2661,21.07,0.2019,0.9385,0.9912,0.9968,1,1,1,0.7981,0.9327,0.9596,0.9798
i_toy_1_4,illumination,2527,2240,20.33,0.3687,0.8726,0.9755,0.9921,1,1,1,0.6313,0.8771,0.9263,0.9631
i_toy_1_5,illumination,2129,1684,20.90,0.5514,0.7694,0.9164,0.9751,1,1,1,0.4486,0.8162,0.8897,0.9449
i_toy_1_6,illumination,1520,872,21.28,1.5427,0.5467,0.7520,0.8586,1,1,1,0.0000,0.4858,0.6915,0.8457
i_troulos_1_2,illumination,768,734,8.56,1.1018,0.9219,0.9974,0.9974,1,1,1,0.0000,0.6327,0.7796,0.8898
i_troulos_1_3,illumination,522,464,7.97,3.8006,0.4349,0.8851,0.9828,0,1,1,0.0000,0.0000,0.2399,0.6199
i_troulos_1_4,illumination,857,842,8.19,0.2765,0.9802,0.9988,1.0000,1,1,1,0.7235,0.9078,0.9447,0.9724
i_troulos_1_5,illumination,770,722,8.41,1.1612,0.9091,0.9870,0.9974,1,1,1,0.0000,0.6129,0.7678,0.8839
i_troulos_1_6,illumination,633,589,8.04,1.0364,0.8847,0.9937,0.9984,1,1,1,0.0000,0.6545,0.7927,0.8964
i_veggies_1_2,illumination,1918,1902,12.81,0.1778,0.9911,0.9995,1.0000,1,1,1,0.8222,0.9407,0.9644,0.9822
i_veggies_1_3,illumination,1621,1565,12.76,0.1869,0.9630,0.9963,1.0000,1,1,1,0.8131,0.9377,0.9626,0.9813
i_veggies_1_4,illumination,1765,1741,12.71,0.1666,0.9853,1.0000,1.0000,1,1,1,0.8334,0.9445,0.9667,0.9833
i_veggies_1_5,illumination,1400,1315,12.04,0.3171,0.9357,0.9857,0.9993,1,1,1,0.6829,0.8943,0.9366,0.9683
i_veggies_1_6,illumination,1316,1142,11.99,0.6518,0.8518,0.9536,0.9871,1,1,1,0.3482,0.7827,0.8696,0.9348
i_village_1_2,illumination,2575,2423,28.39,0.4484,0.9359,0.9903,0.9981,1,1,1,0.5516,0.8505,0.9103,0.9552
i_village_1_3,illumination,2615,2472,20.34,0.3446,0.9438,0.9939,0.9992,1,1,1,0.6554,0.8851,0.9311,0.9655
i_village_1_4,illumination,2569,2449,19.22,0.2718,0.9486,0.9981,1.0000,1,1,1,0.7282,0.9094,0.9456,0.9728
i_village_1_5,illumination,2968,2934,18.68,0.3255,0.9869,0.9993,1.0000,1,1,1,0.6745,0.8915,0.9349,0.9674
i_village_1_6,illumination,2378,2227,18.41,0.5077,0.9146,0.9853,0.9987,1,1,1,0.4923,0.8308,0.8985,0.9492
i_yellowtent_1_2,illumination,2052,2043,14.31,0.0597,0.9956,1.0000,1.0000,1,1,1,0.9403,0.9801,0.9881,0.9940
i_yellowtent_1_3,illumination,1840,1821,13.22,0.2185,0.9886,1.0000,1.0000,1,1,1,0.7815,0.9272,0.9563,0.9782
i_yellowtent_1_4,illumination,1668,1605,12.61,0.4184,0.9574,0.9934,0.9988,1,1,1,0.5816,0.8605,0.9163,0.9582
i_yellowtent_1_5,illumination,1702,1606,12.18,0.5971,0.9412,0.9835,0.9882,1,1,1,0.4029,0.8010,0.8806,0.9403
i_yellowtent_1_6,illumination,1525,1407,12.12,0.4267,0.9161,0.9823,0.9974,1,1,1,0.5733,0.8578,0.9147,0.9573
i_zion_1_2,illumination,2390,2359,16.53,0.1703,0.9854,0.9996,1.0000,1,1,1,0.8297,0.9432,0.9659,0.9830
i_zion_1_3,illumination,2088,1979,17.01,0.3822,0.9363,0.9952,0.9995,1,1,1,0.6178,0.8726,0.9236,0.9618
i_zion_1_4,illumination,1753,1591,15.79,0.5188,0.8950,0.9852,0.9960,1,1,1,0.4812,0.8271,0.8962,0.9481
i_zion_1_5,illumination,1491,1193,14.95,0.6729,0.7928,0.9383,0.9832,1,1,1,0.3271,0.7757,0.8654,0.9327
i_zion_1_6,illumination,1345,1093,14.42,1.5988,0.7978,0.9219,0.9755,1,1,1,0.0000,0.4671,0.6802,0.8401
v_abstract_1_2,viewpoint,2159,2084,17.54,0.3108,0.9648,1.0000,1.0000,1,1,1,0.6892,0.8964,0.9378,0.9689
v_abstract_1_3,viewpoint,2104,1999,17.19,0.6510,0.9449,0.9952,0.9981,1,1,1,0.3490,0.7830,0.8698,0.9349
v_abstract_1_4,viewpoint,1555,1401,14.60,1.1907,0.9023,0.9865,0.9968,1,1,1,0.0000,0.6031,0.7619,0.8809
v_abstract_1_5,viewpoint,1763,1672,15.01,0.4763,0.9484,0.9972,1.0000,1,1,1,0.5237,0.8412,0.9047,0.9524
v_abstract_1_6,viewpoint,1388,1283,13.91,0.9829,0.9222,0.9885,0.9971,1,1,1,0.0171,0.6724,0.8034,0.9017
v_adam_1_2,viewpoint,1698,1661,13.43,0.5838,0.9776,0.9994,1.0000,1,1,1,0.4162,0.8054,0.8832,0.9416
v_adam_1_3,viewpoint,1472,1423,12.64,0.7138,0.9586,0.9980,1.0000,1,1,1,0.2862,0.7621,0.8572,0.9286
v_adam_1_4,viewpoint,942,917,11.13,1.0880,0.9575,1.0000,1.0000,1,1,1,0.0000,0.6373,0.7824,0.8912
v_adam_1_5,viewpoint,1321,1297,12.38,0.5581,0.9796,1.0000,1.0000,1,1,1,0.4419,0.8140,0.8884,0.9442
v_adam_1_6,viewpoint,1286,1216,12.40,0.9648,0.9277,0.9953,1.0000,1,1,1,0.0352,0.6784,0.8070,0.9035
v_apprentices_1_2,viewpoint,1672,1632,22.19,0.2016,0.9755,0.9982,1.0000,1,1,1,0.7984,0.9328,0.9597,0.9798
v_apprentices_1_3,viewpoint,1623,1577,13.27,0.5340,0.9686,1.0000,1.0000,1,1,1,0.4660,0.8220,0.8932,0.9466
v_apprentices_1_4,viewpoint,1369,1307,11.83,0.7215,0.9525,0.9942,0.9985,1,1,1,0.2785,0.7595,0.8557,0.9279
v_apprentices_1_5,viewpoint,1162,1100,11.44,0.8709,0.9458,0.9931,0.9991,1,1,1,0.1291,0.7097,0.8258,0.9129
v_apprentices_1_6,viewpoint,1020,990,11.56,0.7379,0.9549,0.9961,0.9990,1,1,1,0.2621,0.7540,0.8524,0.9262
v_azzola_1_2,viewpoint,2004,1861,23.77,0.7832,0.9157,0.9955,1.0000,1,1,1,0.2168,0.7389,0.8434,0.9217
v_azzola_1_3,viewpoint,1620,1388,14.09,1.4912,0.8389,0.9852,0.9981,1,1,1,0.0000,0.5029,0.7018,0.8509
v_azzola_1_4,viewpoint,1926,1835,15.05,0.4458,0.9465,0.9974,0.9995,1,1,1,0.5542,0.8514,0.9108,0.9554
v_azzola_1_5,viewpoint,1371,1186,13.66,0.8000,0.8293,0.9752,0.9971,1,1,1,0.2000,0.7333,0.8400,0.9200
v_azzola_1_6,viewpoint,850,624,11.34,1.8016,0.7000,0.9106,0.9647,1,1,1,0.0000,0.3995,0.6397,0.8198
v_bark_1_2,viewpoint,1632,1553,15.37,0.4639,0.9424,0.9951,1.0000,1,1,1,0.5361,0.8454,0.9072,0.9536
v_bark_1_3,viewpoint,9,8,18.33,928.3799,0.0000,0.0000,0.0000,0,0,0,0.0000,0.0000,0.0000,0.0000
v_bark_1_4,viewpoint,7,4,17.27,281.9290,0.0000,0.0000,0.0000,0,0,0,0.0000,0.0000,0.0000,0.0000
v_bark_1_5,viewpoint,111,32,17.56,137.6219,0.2162,0.2883,0.3604,0,0,0,0.0000,0.0000,0.0000,0.0000
v_bark_1_6,viewpoint,25,12,18.37,270.6235,0.0000,0.0000,0.0000,0,0,0,0.0000,0.0000,0.0000,0.0000
v_bees_1_2,viewpoint,2366,2293,17.02,0.3103,0.9679,0.9996,1.0000,1,1,1,0.6897,0.8966,0.9379,0.9690
v_bees_1_3,viewpoint,2447,2363,17.20,0.5226,0.9649,0.9984,1.0000,1,1,1,0.4774,0.8258,0.8955,0.9477
v_bees_1_4,viewpoint,2144,2073,16.18,0.8523,0.9594,0.9939,0.9986,1,1,1,0.1477,0.7159,0.8295,0.9148
v_bees_1_5,viewpoint,1663,1542,14.34,0.8303,0.9224,0.9778,0.9928,1,1,1,0.1697,0.7232,0.8339,0.9170
v_bees_1_6,viewpoint,1774,1631,14.41,0.9569,0.9064,0.9690,0.9893,1,1,1,0.0431,0.6810,0.8086,0.9043
v_beyus_1_2,viewpoint,665,619,19.71,0.9744,0.9233,0.9789,0.9910,1,1,1,0.0256,0.6752,0.8051,0.9026
v_beyus_1_3,viewpoint,733,601,10.95,3.6264,0.7735,0.9345,0.9782,0,1,1,0.0000,0.0000,0.2747,0.6374
v_beyus_1_4,viewpoint,846,797,10.23,0.7730,0.9409,0.9882,0.9965,1,1,1,0.2270,0.7423,0.8454,0.9227
v_beyus_1_5,viewpoint,562,520,10.27,0.8809,0.8950,0.9769,0.9964,1,1,1,0.1191,0.7064,0.8238,0.9119
v_beyus_1_6,viewpoint,808,740,10.25,1.0383,0.9109,0.9839,0.9988,1,1,1,0.0000,0.6539,0.7923,0.8962
v_bip_1_2,viewpoint,1293,1273,11.97,0.4332,0.9830,0.9969,0.9985,1,1,1,0.5668,0.8556,0.9134,0.9567
v_bip_1_3,viewpoint,1224,1206,11.50,0.2894,0.9837,1.0000,1.0000,1,1,1,0.7106,0.9035,0.9421,0.9711
v_bip_1_4,viewpoint,1243,1226,11.38,0.2069,0.9895,0.9976,0.9992,1,1,1,0.7931,0.9310,0.9586,0.9793
v_bip_1_5,viewpoint,648,626,10.70,0.6334,0.9599,0.9907,0.9969,1,1,1,0.3666,0.7889,0.8733,0.9367
v_bip_1_6,viewpoint,436,413,10.72,0.8354,0.9450,0.9885,0.9977,1,1,1,0.1646,0.7215,0.8329,0.9165
v_bird_1_2,viewpoint,1232,1187,13.60,76.8407,0.0000,0.0000,0.0000,0,0,0,0.0000,0.0000,0.0000,0.0000
v_bird_1_3,viewpoint,1165,1052,13.95,85.1335,0.0000,0.0000,0.0000,0,0,0,0.0000,0.0000,0.0000,0.0000
v_bird_1_4,viewpoint,1196,1092,12.37,99.1536,0.0000,0.0000,0.0000,0,0,0,0.0000,0.0000,0.0000,0.0000
v_bird_1_5,viewpoint,1101,911,12.53,85.8299,0.0000,0.0000,0.0009,0,0,0,0.0000,0.0000,0.0000,0.0000
v_bird_1_6,viewpoint,648,486,12.70,181.2687,0.0000,0.0000,0.0000,0,0,0,0.0000,0.0000,0.0000,0.0000
v_birdwoman_1_2,viewpoint,725,679,13.18,43.6999,0.0000,0.0000,0.0000,0,0,0,0.0000,0.0000,0.0000,0.0000
v_birdwoman_1_3,viewpoint,1104,1028,14.95,53.9924,0.0000,0.0000,0.0000,0,0,0,0.0000,0.0000,0.0000,0.0000
v_birdwoman_1_4,viewpoint,1474,1439,14.99,50.3947,0.0000,0.0000,0.0000,0,0,0,0.0000,0.0000,0.0000,0.0000
v_birdwoman_1_5,viewpoint,2071,1984,16.84,52.6249,0.0000,0.0000,0.0014,0,0,0,0.0000,0.0000,0.0000,0.0000
v_birdwoman_1_6,viewpoint,1542,1501,15.00,51.3522,0.0000,0.0000,0.0000,0,0,0,0.0000,0.0000,0.0000,0.0000
v_blueprint_1_2,viewpoint,1948,1907,16.61,0.4443,0.9728,0.9995,1.0000,1,1,1,0.5557,0.8519,0.9111,0.9556
v_blueprint_1_3,viewpoint,1607,1555,14.95,0.5543,0.9658,0.9981,1.0000,1,1,1,0.4457,0.8152,0.8891,0.9446
v_blueprint_1_4,viewpoint,1830,1791,17.53,0.5059,0.9765,0.9984,1.0000,1,1,1,0.4941,0.8314,0.8988,0.9494
v_blueprint_1_5,viewpoint,1425,1388,13.35,0.3377,0.9712,0.9979,1.0000,1,1,1,0.6623,0.8874,0.9325,0.9662
v_blueprint_1_6,viewpoint,1165,1105,12.69,1.4005,0.9485,0.9931,0.9991,1,1,1,0.0000,0.5332,0.7199,0.8600
v_boat_1_2,viewpoint,2288,2199,25.70,0.5514,0.9559,0.9978,1.0000,1,1,1,0.4486,0.8162,0.8897,0.9449
v_boat_1_3,viewpoint,1832,1704,16.51,0.9303,0.9203,0.9896,0.9978,1,1,1,0.0697,0.6899,0.8139,0.9070
v_boat_1_4,viewpoint,60,35,17.00,21.9055,0.4833,0.7833,0.8833,0,0,0,0.0000,0.0000,0.0000,0.0000
v_boat_1_5,viewpoint,0,0,16.46,inf,0.0000,0.0000,0.0000,0,0,0,0.0000,0.0000,0.0000,0.0000
v_boat_1_6,viewpoint,712,702,12.45,0.6386,0.9789,1.0000,1.0000,1,1,1,0.3614,0.7871,0.8723,0.9361
v_bricks_1_2,viewpoint,2386,2332,18.40,33.2686,0.0042,0.0168,0.0427,0,0,0,0.0000,0.0000,0.0000,0.0000
v_bricks_1_3,viewpoint,2302,2207,17.52,31.8307,0.0004,0.0091,0.0378,0,0,0,0.0000,0.0000,0.0000,0.0000
v_bricks_1_4,viewpoint,1916,1872,16.13,31.0557,0.0005,0.0026,0.0198,0,0,0,0.0000,0.0000,0.0000,0.0000
v_bricks_1_5,viewpoint,1699,1614,16.07,27.7792,0.0006,0.0047,0.0300,0,0,0,0.0000,0.0000,0.0000,0.0000
v_bricks_1_6,viewpoint,1226,1031,16.41,25.7586,0.0008,0.0041,0.0098,0,0,0,0.0000,0.0000,0.0000,0.0000
v_busstop_1_2,viewpoint,2159,2083,16.55,0.4550,0.9634,0.9986,1.0000,1,1,1,0.5450,0.8483,0.9090,0.9545
v_busstop_1_3,viewpoint,1796,1696,15.00,0.5949,0.9449,0.9961,0.9994,1,1,1,0.4051,0.8017,0.8810,0.9405
v_busstop_1_4,viewpoint,1904,1831,15.74,0.5422,0.9585,0.9979,1.0000,1,1,1,0.4578,0.8193,0.8916,0.9458
v_busstop_1_5,viewpoint,1838,1813,15.41,0.3277,0.9799,0.9989,1.0000,1,1,1,0.6723,0.8908,0.9345,0.9672
v_busstop_1_6,viewpoint,2225,2174,16.82,0.5036,0.9726,0.9996,0.9996,1,1,1,0.4964,0.8321,0.8993,0.9496
v_calder_1_2,viewpoint,1449,1392,14.78,0.6661,0.9538,0.9917,0.9986,1,1,1,0.3339,0.7780,0.8668,0.9334
v_calder_1_3,viewpoint,1834,1751,15.64,0.4105,0.9553,0.9978,1.0000,1,1,1,0.5895,0.8632,0.9179,0.9589
v_calder_1_4,viewpoint,996,958,12.68,0.9390,0.9538,0.9940,0.9980,1,1,1,0.0610,0.6870,0.8122,0.9061
v_calder_1_5,viewpoint,847,808,12.15,0.4341,0.9481,0.9953,0.9988,1,1,1,0.5659,0.8553,0.9132,0.9566
v_calder_1_6,viewpoint,592,512,11.58,0.8954,0.8463,0.9510,0.9882,1,1,1,0.1046,0.7015,0.8209,0.9105
v_cartooncity_1_2,viewpoint,1711,1677,13.09,62.1683,0.0000,0.0006,0.0035,0,0,0,0.0000,0.0000,0.0000,0.0000
v_cartooncity_1_3,viewpoint,1034,907,12.21,66.3553,0.0000,0.0000,0.0000,0,0,0,0.0000,0.0000,0.0000,0.0000
v_cartooncity_1_4,viewpoint,1570,1486,12.82,74.4998,0.0000,0.0006,0.0032,0,0,0,0.0000,0.0000,0.0000,0.0000
v_cartooncity_1_5,viewpoint,1162,1061,12.69,76.0569,0.0000,0.0000,0.0000,0,0,0,0.0000,0.0000,0.0000,0.0000
v_cartooncity_1_6,viewpoint,975,860,11.84,70.8046,0.0000,0.0000,0.0000,0,0,0,0.0000,0.0000,0.0000,0.0000
v_charing_1_2,viewpoint,513,426,10.06,4.3109,0.7992,0.9571,0.9883,0,1,1,0.0000,0.0000,0.1378,0.5689
v_charing_1_3,viewpoint,418,291,10.59,33.1559,0.6603,0.8828,0.9378,0,0,0,0.0000,0.0000,0.0000,0.0000
v_charing_1_4,viewpoint,477,415,9.42,4.5068,0.8092,0.9623,0.9958,0,1,1,0.0000,0.0000,0.0986,0.5493
v_charing_1_5,viewpoint,470,370,9.56,53.5737,0.7532,0.9426,0.9872,0,0,0,0.0000,0.0000,0.0000,0.0000
v_charing_1_6,viewpoint,469,349,9.84,233.9030,0.6695,0.9062,0.9616,0,0,0,0.0000,0.0000,0.0000,0.0000
v_churchill_1_2,viewpoint,1399,1282,12.78,1.6900,0.9128,0.9836,0.9950,1,1,1,0.0000,0.4367,0.6620,0.8310
v_churchill_1_3,viewpoint,1213,1056,12.45,4.1357,0.8541,0.9637,0.9860,0,1,1,0.0000,0.0000,0.1729,0.5864
v_churchill_1_4,viewpoint,1103,977,11.78,1.5523,0.8930,0.9810,0.9955,1,1,1,0.0000,0.4826,0.6895,0.8448
v_churchill_1_5,viewpoint,1547,1520,11.95,0.6709,0.9813,0.9981,1.0000,1,1,1,0.3291,0.7764,0.8658,0.9329
v_churchill_1_6,viewpoint,884,743,11.27,3.5067,0.8382,0.9468,0.9683,0,1,1,0.0000,0.0000,0.2987,0.6493
v_circus_1_2,viewpoint,1164,1071,12.85,0.6603,0.9089,0.9905,0.9983,1,1,1,0.3397,0.7799,0.8679,0.9340
v_circus_1_3,viewpoint,1078,829,12.06,1.1576,0.7616,0.9406,0.9824,1,1,1,0.0000,0.6141,0.7685,0.8842
v_circus_1_4,viewpoint,843,571,11.96,0.8458,0.6845,0.8980,0.9597,1,1,1,0.1542,0.7181,0.8308,0.9154
v_circus_1_5,viewpoint,1196,983,11.37,0.6052,0.8119,0.9707,0.9967,1,1,1,0.3948,0.7983,0.8790,0.9395
v_circus_1_6,viewpoint,1055,872,11.62,0.9162,0.8066,0.9630,0.9905,1,1,1,0.0838,0.6946,0.8168,0.9084
v_coffeehouse_1_2,viewpoint,1121,1056,11.49,0.6091,0.9402,0.9875,0.9982,1,1,1,0.3909,0.7970,0.8782,0.9391
v_coffeehouse_1_3,viewpoint,1191,1097,11.53,0.5247,0.9211,0.9807,0.9933,1,1,1,0.4753,0.8251,0.8951,0.9475
v_coffeehouse_1_4,viewpoint,1053,965,11.07,1.3065,0.8955,0.9867,0.9972,1,1,1,0.0000,0.5645,0.7387,0.8694
v_coffeehouse_1_5,viewpoint,1044,997,10.97,0.6509,0.9502,0.9952,1.0000,1,1,1,0.3491,0.7830,0.8698,0.9349
v_coffeehouse_1_6,viewpoint,827,706,11.02,1.0182,0.8428,0.9746,0.9927,1,1,1,0.0000,0.6606,0.7964,0.8982
v_colors_1_2,viewpoint,1366,930,14.43,1.0760,0.6742,0.9187,0.9788,1,1,1,0.0000,0.6413,0.7848,0.8924
v_colors_1_3,viewpoint,771,383,14.49,0.8974,0.4968,0.7458,0.8431,1,1,1,0.1026,0.7009,0.8205,0.9103
v_colors_1_4,viewpoint,11,5,13.89,1403.3478,0.0000,0.0000,0.0000,0,0,0,0.0000,0.0000,0.0000,0.0000
v_colors_1_5,viewpoint,6,4,14.33,454.0570,0.0000,0.0000,0.0000,0,0,0,0.0000,0.0000,0.0000,0.0000
v_colors_1_6,viewpoint,0,0,14.15,inf,0.0000,0.0000,0.0000,0,0,0,0.0000,0.0000,0.0000,0.0000
v_courses_1_2,viewpoint,1496,1360,12.19,0.3168,0.9084,0.9920,1.0000,1,1,1,0.6832,0.8944,0.9366,0.9683
v_courses_1_3,viewpoint,1305,1155,12.13,1.1811,0.8805,0.9854,0.9985,1,1,1,0.0000,0.6063,0.7638,0.8819
v_courses_1_4,viewpoint,1256,1179,11.54,0.8049,0.9268,0.9976,1.0000,1,1,1,0.1951,0.7317,0.8390,0.9195
v_courses_1_5,viewpoint,1048,912,11.37,3.3786,0.8063,0.9733,0.9933,0,1,1,0.0000,0.0000,0.3243,0.6621
v_courses_1_6,viewpoint,975,796,11.38,6.3530,0.7313,0.9364,0.9774,0,0,1,0.0000,0.0000,0.0000,0.3647
v_dirtywall_1_2,viewpoint,1676,1618,23.85,0.4150,0.9648,0.9982,0.9994,1,1,1,0.5850,0.8617,0.9170,0.9585
v_dirtywall_1_3,viewpoint,1589,1503,15.61,0.4377,0.9383,0.9931,0.9994,1,1,1,0.5623,0.8541,0.9125,0.9562
v_dirtywall_1_4,viewpoint,1297,1174,13.34,0.8195,0.9013,0.9861,0.9992,1,1,1,0.1805,0.7268,0.8361,0.9180
v_dirtywall_1_5,viewpoint,1458,1364,13.02,0.4926,0.9335,0.9870,0.9945,1,1,1,0.5074,0.8358,0.9015,0.9507
v_dirtywall_1_6,viewpoint,1038,958,12.17,0.8607,0.9123,0.9750,0.9961,1,1,1,0.1393,0.7131,0.8279,0.9139
v_dogman_1_2,viewpoint,1105,988,11.22,1.2186,0.8860,0.9801,0.9910,1,1,1,0.0000,0.5938,0.7563,0.8781
v_dogman_1_3,viewpoint,1121,1062,10.95,0.9294,0.9447,0.9777,0.9848,1,1,1,0.0706,0.6902,0.8141,0.9071
v_dogman_1_4,viewpoint,754,619,10.55,2.1584,0.7759,0.9403,0.9854,1,1,1,0.0000,0.2805,0.5683,0.7842
v_dogman_1_5,viewpoint,977,879,10.75,1.3784,0.8905,0.9734,0.9928,1,1,1,0.0000,0.5405,0.7243,0.8622
v_dogman_1_6,viewpoint,535,398,10.18,80.3904,0.7047,0.8598,0.9234,0,0,0,0.0000,0.0000,0.0000,0.0000
v_eastsouth_1_2,viewpoint,2211,2173,18.08,0.1392,0.9837,0.9995,1.0000,1,1,1,0.8608,0.9536,0.9722,0.9861
v_eastsouth_1_3,viewpoint,1671,1567,17.68,0.4755,0.9246,0.9916,0.9982,1,1,1,0.5245,0.8415,0.9049,0.9524
v_eastsouth_1_4,viewpoint,20,10,16.66,2872.7305,0.0000,0.0000,0.0000,0,0,0,0.0000,0.0000,0.0000,0.0000
v_eastsouth_1_5,viewpoint,689,602,14.20,0.9257,0.8650,0.9811,0.9985,1,1,1,0.0743,0.6914,0.8149,0.9074
v_eastsouth_1_6,viewpoint,630,612,12.51,0.8794,0.9603,0.9968,1.0000,1,1,1,0.1206,0.7069,0.8241,0.9121
v_feast_1_2,viewpoint,1467,1438,13.83,0.2976,0.9796,0.9993,1.0000,1,1,1,0.7024,0.9008,0.9405,0.9702
v_feast_1_3,viewpoint,1888,1797,15.84,0.3979,0.9370,0.9963,1.0000,1,1,1,0.6021,0.8674,0.9204,0.9602
v_feast_1_4,viewpoint,1286,1239,14.37,0.8799,0.9471,0.9961,1.0000,1,1,1,0.1201,0.7067,0.8240,0.9120
v_feast_1_5,viewpoint,1689,1608,15.31,0.7817,0.9414,0.9917,1.0000,1,1,1,0.2183,0.7394,0.8437,0.9218
v_feast_1_6,viewpoint,1455,1369,14.17,0.6701,0.9203,0.9931,1.0000,1,1,1,0.3299,0.7766,0.8660,0.9330
v_fest_1_2,viewpoint,2055,1959,17.03,0.4984,0.9489,0.9985,1.0000,1,1,1,0.5016,0.8339,0.9003,0.9502
v_fest_1_3,viewpoint,1594,1429,15.15,2.2075,0.8839,0.9780,0.9962,1,1,1,0.0000,0.2642,0.5585,0.7792
v_fest_1_4,viewpoint,1557,1479,13.15,0.6934,0.9422,0.9955,0.9994,1,1,1,0.3066,0.7689,0.8613,0.9307
v_fest_1_5,viewpoint,1561,1434,14.04,1.7364,0.9026,0.9846,0.9936,1,1,1,0.0000,0.4212,0.6527,0.8264
v_fest_1_6,viewpoint,1314,1149,14.11,2.8121,0.8584,0.9726,0.9901,1,1,1,0.0000,0.0626,0.4376,0.7188
v_gardens_1_2,viewpoint,1699,1550,15.54,1.3905,0.9064,0.9794,0.9912,1,1,1,0.0000,0.5365,0.7219,0.8610
v_gardens_1_3,viewpoint,973,781,13.25,4.3120,0.7770,0.9239,0.9671,0,1,1,0.0000,0.0000,0.1376,0.5688
v_gardens_1_4,viewpoint,1960,1835,15.68,1.0764,0.9265,0.9939,0.9980,1,1,1,0.0000,0.6412,0.7847,0.8924
v_gardens_1_5,viewpoint,1295,1100,13.92,1.7894,0.8409,0.9514,0.9799,1,1,1,0.0000,0.4035,0.6421,0.8211
v_gardens_1_6,viewpoint,1748,1608,14.76,0.6378,0.9125,0.9920,1.0000,1,1,1,0.3622,0.7874,0.8724,0.9362
v_grace_1_2,viewpoint,1960,1755,18.59,0.4755,0.8918,0.9923,0.9995,1,1,1,0.5245,0.8415,0.9049,0.9525
v_grace_1_3,viewpoint,1791,1588,17.11,0.8034,0.8850,0.9894,0.9989,1,1,1,0.1966,0.7322,0.8393,0.9197
v_grace_1_4,viewpoint,1635,1402,15.96,1.5156,0.8532,0.9761,0.9933,1,1,1,0.0000,0.4948,0.6969,0.8484
v_grace_1_5,viewpoint,1327,1044,14.92,2.7503,0.7717,0.9367,0.9797,1,1,1,0.0000,0.0832,0.4499,0.7250
v_grace_1_6,viewpoint,737,436,13.95,3.4625,0.6106,0.7748,0.8602,0,1,1,0.0000,0.0000,0.3075,0.6537
v_graffiti_1_2,viewpoint,1818,1672,15.60,0.6143,0.9158,0.9917,0.9989,1,1,1,0.3857,0.7952,0.8771,0.9386
v_graffiti_1_3,viewpoint,1575,1386,14.64,1.2362,0.8584,0.9917,0.9987,1,1,1,0.0000,0.5879,0.7528,0.8764
v_graffiti_1_4,viewpoint,1382,1104,15.86,1.7288,0.7446,0.9276,0.9776,1,1,1,0.0000,0.4237,0.6542,0.8271
v_graffiti_1_5,viewpoint,1063,862,13.49,0.7987,0.7893,0.9614,0.9953,1,1,1,0.2013,0.7338,0.8403,0.9201
v_graffiti_1_6,viewpoint,132,67,18.53,7.3395,0.4697,0.7500,0.8864,0,0,0,0.0000,0.0000,0.0000,0.2660
v_home_1_2,viewpoint,1225,1189,12.41,0.8925,0.9698,0.9984,1.0000,1,1,1,0.1075,0.7025,0.8215,0.9108
v_home_1_3,viewpoint,1131,1058,14.22,1.4898,0.9142,0.9894,0.9973,1,1,1,0.0000,0.5034,0.7020,0.8510
v_home_1_4,viewpoint,1217,1184,12.97,0.7390,0.9704,0.9984,0.9992,1,1,1,0.2610,0.7537,0.8522,0.9261
v_home_1_5,viewpoint,1168,1059,12.90,4.9475,0.8724,0.9675,0.9897,0,1,1,0.0000,0.0000,0.0105,0.5053
v_home_1_6,viewpoint,1177,1053,11.97,1.4516,0.8794,0.9856,0.9975,1,1,1,0.0000,0.5161,0.7097,0.8548
v_laptop_1_2,viewpoint,1060,1008,10.13,0.4332,0.9538,0.9981,1.0000,1,1,1,0.5668,0.8556,0.9134,0.9567
v_laptop_1_3,viewpoint,792,730,9.49,0.9097,0.9205,0.9924,1.0000,1,1,1,0.0903,0.6968,0.8181,0.9090
v_laptop_1_4,viewpoint,94,58,9.64,5.5404,0.5745,0.8191,0.8723,0,0,1,0.0000,0.0000,0.0000,0.4460
v_laptop_1_5,viewpoint,10,7,9.71,229.3095,0.0000,0.0000,0.0000,0,0,0,0.0000,0.0000,0.0000,0.0000
v_laptop_1_6,viewpoint,10,7,9.75,401.0100,0.0000,0.0000,0.0000,0,0,0,0.0000,0.0000,0.0000,0.0000
v_london_1_2,viewpoint,1852,1778,15.55,0.2395,0.9611,0.9995,1.0000,1,1,1,0.7605,0.9202,0.9521,0.9761
v_london_1_3,viewpoint,1690,1635,13.94,0.2510,0.9657,1.0000,1.0000,1,1,1,0.7490,0.9163,0.9498,0.9749
v_london_1_4,viewpoint,1607,1513,14.49,1.6736,0.9371,0.9900,0.9944,1,1,1,0.0000,0.4421,0.6653,0.8326
v_london_1_5,viewpoint,1817,1762,13.78,0.4621,0.9664,0.9972,0.9989,1,1,1,0.5379,0.8460,0.9076,0.9538
v_london_1_6,viewpoint,1960,1904,14.29,0.2859,0.9735,0.9980,1.0000,1,1,1,0.7141,0.9047,0.9428,0.9714
v_machines_1_2,viewpoint,1446,1351,11.82,0.7750,0.9315,0.9959,1.0000,1,1,1,0.2250,0.7417,0.8450,0.9225
v_machines_1_3,viewpoint,1051,890,10.95,2.1052,0.8088,0.9648,0.9924,1,1,1,0.0000,0.2983,0.5790,0.7895
v_machines_1_4,viewpoint,1217,1168,10.62,0.5080,0.9589,0.9992,1.0000,1,1,1,0.4920,0.8307,0.8984,0.9492
v_machines_1_5,viewpoint,940,852,10.23,1.9230,0.8766,0.9883,0.9989,1,1,1,0.0000,0.3590,0.6154,0.8077
v_machines_1_6,viewpoint,1084,1058,10.18,0.4369,0.9779,0.9991,1.0000,1,1,1,0.5631,0.8544,0.9126,0.9563
v_man_1_2,viewpoint,1605,1427,15.44,1.8582,0.8710,0.9832,0.9981,1,1,1,0.0000,0.3806,0.6284,0.8142
v_man_1_3,viewpoint,1218,1048,13.36,3.3603,0.8054,0.9631,0.9860,0,1,1,0.0000,0.0000,0.3279,0.6640
v_man_1_4,viewpoint,1282,1012,13.36,3.2744,0.7332,0.9438,0.9852,0,1,1,0.0000,0.0000,0.3451,0.6726
v_man_1_5,viewpoint,1415,1254,13.32,2.6689,0.8565,0.9908,0.9993,1,1,1,0.0000,0.1104,0.4662,0.7331
v_man_1_6,viewpoint,1405,1257,13.36,1.6172,0.8719,0.9858,0.9972,1,1,1,0.0000,0.4609,0.6766,0.8383
v_maskedman_1_2,viewpoint,1133,1015,12.47,1.3062,0.8791,0.9691,0.9938,1,1,1,0.0000,0.5646,0.7388,0.8694
v_maskedman_1_3,viewpoint,870,781,11.30,1.3176,0.8943,0.9747,0.9897,1,1,1,0.0000,0.5608,0.7365,0.8682
v_maskedman_1_4,viewpoint,1258,1153,12.74,2.5904,0.9070,0.9881,0.9960,1,1,1,0.0000,0.1365,0.4819,0.7410
v_maskedman_1_5,viewpoint,1323,1253,12.31,2.0575,0.9350,0.9902,0.9962,1,1,1,0.0000,0.3142,0.5885,0.7942
v_maskedman_1_6,viewpoint,469,376,10.87,3.1104,0.7676,0.9744,0.9893,0,1,1,0.0000,0.0000,0.3779,0.6890
v_pomegranate_1_2,viewpoint,2118,1948,18.68,0.3129,0.9127,0.9924,0.9991,1,1,1,0.6871,0.8957,0.9374,0.9687
v_pomegranate_1_3,viewpoint,1961,1702,18.40,1.1963,0.8608,0.9867,0.9985,1,1,1,0.0000,0.6012,0.7607,0.8804
v_pomegranate_1_4,viewpoint,1728,1619,15.61,0.6229,0.9329,0.9913,0.9983,1,1,1,0.3771,0.7924,0.8754,0.9377
v_pomegranate_1_5,viewpoint,1823,1664,16.31,0.9323,0.9035,0.9901,0.9995,1,1,1,0.0677,0.6892,0.8135,0.9068
v_pomegranate_1_6,viewpoint,1809,1677,15.56,0.7489,0.9182,0.9945,1.0000,1,1,1,0.2511,0.7504,0.8502,0.9251
v_posters_1_2,viewpoint,1460,1417,22.84,114.9403,0.0000,0.0000,0.0000,0,0,0,0.0000,0.0000,0.0000,0.0000
v_posters_1_3,viewpoint,1786,1729,16.04,120.6638,0.0000,0.0000,0.0000,0,0,0,0.0000,0.0000,0.0000,0.0000
v_posters_1_4,viewpoint,1633,1596,14.89,112.4903,0.0000,0.0000,0.0000,0,0,0,0.0000,0.0000,0.0000,0.0000
v_posters_1_5,viewpoint,1426,1290,14.89,124.8810,0.0000,0.0000,0.0000,0,0,0,0.0000,0.0000,0.0000,0.0000
v_posters_1_6,viewpoint,1410,1168,15.80,146.8373,0.0000,0.0000,0.0000,0,0,0,0.0000,0.0000,0.0000,0.0000
v_samples_1_2,viewpoint,1988,1899,17.50,68.1315,0.0000,0.0000,0.0000,0,0,0,0.0000,0.0000,0.0000,0.0000
v_samples_1_3,viewpoint,2081,2031,17.29,72.5480,0.0000,0.0000,0.0005,0,0,0,0.0000,0.0000,0.0000,0.0000
v_samples_1_4,viewpoint,1993,1854,16.64,72.0009,0.0000,0.0025,0.0070,0,0,0,0.0000,0.0000,0.0000,0.0000
v_samples_1_5,viewpoint,1913,1862,15.78,80.7001,0.0000,0.0000,0.0000,0,0,0,0.0000,0.0000,0.0000,0.0000
v_samples_1_6,viewpoint,1841,1729,16.25,67.3203,0.0000,0.0027,0.0136,0,0,0,0.0000,0.0000,0.0000,0.0000
v_soldiers_1_2,viewpoint,1615,1490,15.07,1.1555,0.9226,0.9926,0.9988,1,1,1,0.0000,0.6148,0.7689,0.8844
v_soldiers_1_3,viewpoint,1174,1013,13.36,1.1538,0.8603,0.9779,0.9932,1,1,1,0.0000,0.6154,0.7692,0.8846
v_soldiers_1_4,viewpoint,946,782,12.88,2.3077,0.8108,0.9482,0.9841,1,1,1,0.0000,0.2308,0.5385,0.7692
v_soldiers_1_5,viewpoint,767,581,12.65,5.3011,0.7288,0.9218,0.9739,0,0,1,0.0000,0.0000,0.0000,0.4699
v_soldiers_1_6,viewpoint,1419,1326,13.77,97.3499,0.0000,0.0000,0.0000,0,0,0,0.0000,0.0000,0.0000,0.0000
v_strand_1_2,viewpoint,1898,1845,15.23,0.3128,0.9689,0.9989,1.0000,1,1,1,0.6872,0.8957,0.9374,0.9687
v_strand_1_3,viewpoint,1426,1269,14.19,1.3340,0.8513,0.9874,1.0000,1,1,1,0.0000,0.5553,0.7332,0.8666
v_strand_1_4,viewpoint,1511,1353,13.19,2.5055,0.8564,0.9828,0.9967,1,1,1,0.0000,0.1648,0.4989,0.7494
v_strand_1_5,viewpoint,1537,1355,13.28,2.1241,0.8575,0.9805,0.9974,1,1,1,0.0000,0.2920,0.5752,0.7876
v_strand_1_6,viewpoint,1223,1060,12.29,4.4968,0.7637,0.9460,0.9836,0,1,1,0.0000,0.0000,0.1006,0.5503
v_sunseason_1_2,viewpoint,2302,2232,16.30,0.0985,0.9709,0.9983,1.0000,1,1,1,0.9015,0.9672,0.9803,0.9901
v_sunseason_1_3,viewpoint,2035,1961,15.65,0.2402,0.9656,0.9980,1.0000,1,1,1,0.7598,0.9199,0.9520,0.9760
v_sunseason_1_4,viewpoint,1370,1294,13.68,0.4987,0.9416,0.9854,0.9956,1,1,1,0.5013,0.8338,0.9003,0.9501
v_sunseason_1_5,viewpoint,1206,1066,13.60,0.6694,0.8773,0.9735,0.9900,1,1,1,0.3306,0.7769,0.8661,0.9331
v_sunseason_1_6,viewpoint,1017,806,13.34,1.5129,0.7876,0.8889,0.9135,1,1,1,0.0000,0.4957,0.6974,0.8487
v_tabletop_1_2,viewpoint,1524,1434,13.26,0.4662,0.9377,0.9980,0.9993,1,1,1,0.5338,0.8446,0.9068,0.9534
v_tabletop_1_3,viewpoint,1121,965,14.60,0.7453,0.8573,0.9607,0.9929,1,1,1,0.2547,0.7516,0.8509,0.9255
v_tabletop_1_4,viewpoint,1063,900,12.90,0.8245,0.8344,0.9671,0.9934,1,1,1,0.1755,0.7252,0.8351,0.9175
v_tabletop_1_5,viewpoint,1082,948,13.09,1.0060,0.8567,0.9760,0.9963,1,1,1,0.0000,0.6647,0.7988,0.8994
v_tabletop_1_6,viewpoint,1116,965,13.14,1.0456,0.8539,0.9731,0.9955,1,1,1,0.0000,0.6515,0.7909,0.8954
v_tempera_1_2,viewpoint,1134,1111,10.60,0.3836,0.9780,1.0000,1.0000,1,1,1,0.6164,0.8721,0.9233,0.9616
v_tempera_1_3,viewpoint,1173,1114,10.86,0.6458,0.9471,0.9957,0.9991,1,1,1,0.3542,0.7847,0.8708,0.9354
v_tempera_1_4,viewpoint,1038,1011,10.25,0.6093,0.9663,0.9981,1.0000,1,1,1,0.3907,0.7969,0.8781,0.9391
v_tempera_1_5,viewpoint,1026,993,10.79,1.2372,0.9503,0.9981,1.0000,1,1,1,0.0000,0.5876,0.7526,0.8763
v_tempera_1_6,viewpoint,651,570,9.86,1.5611,0.8618,0.9677,0.9877,1,1,1,0.0000,0.4796,0.6878,0.8439
v_there_1_2,viewpoint,1650,1447,18.47,0.8038,0.8667,0.9848,0.9994,1,1,1,0.1962,0.7321,0.8392,0.9196
v_there_1_3,viewpoint,535,451,14.15,2.2762,0.8243,0.9720,0.9944,1,1,1,0.0000,0.2413,0.5448,0.7724
v_there_1_4,viewpoint,105,82,13.99,11.7228,0.6762,0.9048,0.9333,0,0,0,0.0000,0.0000,0.0000,0.0000
v_there_1_5,viewpoint,0,0,16.49,inf,0.0000,0.0000,0.0000,0,0,0,0.0000,0.0000,0.0000,0.0000
v_there_1_6,viewpoint,2,0,15.58,inf,0.0000,0.0000,0.0000,0,0,0,0.0000,0.0000,0.0000,0.0000
v_underground_1_2,viewpoint,1624,1508,13.40,0.4876,0.9261,0.9908,0.9975,1,1,1,0.5124,0.8375,0.9025,0.9512
v_underground_1_3,viewpoint,1455,1305,13.34,0.6742,0.8928,0.9821,0.9952,1,1,1,0.3258,0.7753,0.8652,0.9326
v_underground_1_4,viewpoint,1196,982,12.67,1.0968,0.8110,0.9666,0.9866,1,1,1,0.0000,0.6344,0.7806,0.8903
v_underground_1_5,viewpoint,981,744,12.59,1.5356,0.7482,0.9297,0.9694,1,1,1,0.0000,0.4881,0.6929,0.8464
v_underground_1_6,viewpoint,749,464,12.75,9.0568,0.6115,0.8264,0.9346,0,0,0,0.0000,0.0000,0.0000,0.0943
v_vitro_1_2,viewpoint,1813,1756,14.91,0.2550,0.9680,0.9994,1.0000,1,1,1,0.7450,0.9150,0.9490,0.9745
v_vitro_1_3,viewpoint,1715,1601,13.94,0.3141,0.9329,0.9930,1.0000,1,1,1,0.6859,0.8953,0.9372,0.9686
v_vitro_1_4,viewpoint,1522,1401,12.94,0.5536,0.9166,0.9947,1.0000,1,1,1,0.4464,0.8155,0.8893,0.9446
v_vitro_1_5,viewpoint,1763,1638,13.84,0.3137,0.9217,0.9966,1.0000,1,1,1,0.6863,0.8954,0.9373,0.9686
v_vitro_1_6,viewpoint,1605,1440,13.53,0.6428,0.8891,0.9944,0.9994,1,1,1,0.3572,0.7857,0.8714,0.9357
v_wall_1_2,viewpoint,1767,1691,13.93,0.6409,0.9508,0.9898,0.9949,1,1,1,0.3591,0.7864,0.8718,0.9359
v_wall_1_3,viewpoint,1539,1415,13.39,0.8393,0.9116,0.9844,0.9955,1,1,1,0.1607,0.7202,0.8321,0.9161
v_wall_1_4,viewpoint,1729,1633,13.17,0.6592,0.9427,0.9780,0.9855,1,1,1,0.3408,0.7803,0.8682,0.9341
v_wall_1_5,viewpoint,1415,1277,13.12,1.2562,0.8820,0.9753,0.9894,1,1,1,0.0000,0.5813,0.7488,0.8744
v_wall_1_6,viewpoint,1262,1125,12.36,2.3460,0.8677,0.9794,0.9929,1,1,1,0.0000,0.2180,0.5308,0.7654
v_wapping_1_2,viewpoint,2139,1903,20.96,0.4546,0.8869,0.9911,0.9995,1,1,1,0.5454,0.8485,0.9091,0.9545
v_wapping_1_3,viewpoint,1381,1109,17.66,2.4433,0.7864,0.9377,0.9862,1,1,1,0.0000,0.1856,0.5113,0.7557
v_wapping_1_4,viewpoint,1614,1255,18.70,2.0664,0.7720,0.9504,0.9882,1,1,1,0.0000,0.3112,0.5867,0.7934
v_wapping_1_5,viewpoint,934,768,14.74,3.1737,0.7923,0.9572,0.9914,0,1,1,0.0000,0.0000,0.3653,0.6826
v_wapping_1_6,viewpoint,565,458,13.52,6.0015,0.7416,0.9327,0.9752,0,0,1,0.0000,0.0000,0.0000,0.3998
v_war_1_2,viewpoint,1222,1068,12.32,0.8325,0.8707,0.9877,0.9975,1,1,1,0.1675,0.7225,0.8335,0.9168
v_war_1_3,viewpoint,1056,877,11.47,1.1570,0.8125,0.9678,0.9962,1,1,1,0.0000,0.6143,0.7686,0.8843
v_war_1_4,viewpoint,1502,1439,12.30,0.5442,0.9554,0.9953,1.0000,1,1,1,0.4558,0.8186,0.8912,0.9456
v_war_1_5,viewpoint,1488,1386,12.50,0.9757,0.9247,0.9966,1.0000,1,1,1,0.0243,0.6748,0.8049,0.9024
v_war_1_6,viewpoint,1038,882,11.55,2.0797,0.8179,0.9518,0.9798,1,1,1,0.0000,0.3068,0.5841,0.7920
v_weapons_1_2,viewpoint,1251,1204,12.01,0.5973,0.9544,1.0000,1.0000,1,1,1,0.4027,0.8009,0.8805,0.9403
v_weapons_1_3,viewpoint,1136,1064,12.06,0.4007,0.9340,0.9965,0.9991,1,1,1,0.5993,0.8664,0.9199,0.9599
v_weapons_1_4,viewpoint,1280,1147,11.89,0.7878,0.8969,0.9945,0.9992,1,1,1,0.2122,0.7374,0.8424,0.9212
v_weapons_1_5,viewpoint,1257,1207,11.16,1.2216,0.9459,0.9928,0.9984,1,1,1,0.0000,0.5928,0.7557,0.8778
v_weapons_1_6,viewpoint,1191,1141,10.96,1.3526,0.9362,0.9916,0.9966,1,1,1,0.0000,0.5491,0.7295,0.8647
v_woman_1_2,viewpoint,832,815,10.79,46.2449,0.0000,0.0000,0.0000,0,0,0,0.0000,0.0000,0.0000,0.0000
v_woman_1_3,viewpoint,992,904,11.16,49.5644,0.0000,0.0000,0.0000,0,0,0,0.0000,0.0000,0.0000,0.0000
v_woman_1_4,viewpoint,969,859,11.83,50.6304,0.0000,0.0000,0.0000,0,0,0,0.0000,0.0000,0.0000,0.0000
v_woman_1_5,viewpoint,642,609,10.80,44.1578,0.0000,0.0000,0.0000,0,0,0,0.0000,0.0000,0.0000,0.0000
v_woman_1_6,viewpoint,841,721,11.28,49.3812,0.0000,0.0000,0.0000,0,0,0,0.0000,0.0000,0.0000,0.0000
v_wormhole_1_2,viewpoint,1299,1262,12.76,0.5313,0.9723,0.9962,0.9977,1,1,1,0.4687,0.8229,0.8937,0.9469
v_wormhole_1_3,viewpoint,1595,1484,13.65,0.9366,0.9241,0.9950,1.0000,1,1,1,0.0634,0.6878,0.8127,0.9063
v_wormhole_1_4,viewpoint,1638,1562,12.97,0.9247,0.9536,0.9963,0.9994,1,1,1,0.0753,0.6918,0.8151,0.9075
v_wormhole_1_5,viewpoint,1138,990,11.30,4.4886,0.8647,0.9675,0.9895,0,1,1,0.0000,0.0000,0.1023,0.5511
v_wormhole_1_6,viewpoint,788,595,11.00,7.1731,0.6878,0.9162,0.9734,0,0,0,0.0000,0.0000,0.0000,0.2827
v_wounded_1_2,viewpoint,920,851,10.30,0.3167,0.9228,0.9859,0.9957,1,1,1,0.6833,0.8944,0.9367,0.9683
v_wounded_1_3,viewpoint,610,483,9.73,9.8003,0.7656,0.9180,0.9705,0,0,0,0.0000,0.0000,0.0000,0.0200
v_wounded_1_4,viewpoint,377,228,9.72,26.6406,0.5915,0.7931,0.8515,0,0,0,0.0000,0.0000,0.0000,0.0000
v_wounded_1_5,viewpoint,572,436,9.56,4.8388,0.7570,0.9108,0.9510,0,1,1,0.0000,0.0000,0.0322,0.5161
v_wounded_1_6,viewpoint,363,245,9.73,10.2114,0.6722,0.8595,0.9421,0,0,0,0.0000,0.0000,0.0000,0.0000
v_yard_1_2,viewpoint,2025,1941,17.49,0.4010,0.9570,0.9990,1.0000,1,1,1,0.5990,0.8663,0.9198,0.9599
v_yard_1_3,viewpoint,1350,1152,14.20,1.5990,0.8222,0.9763,0.9963,1,1,1,0.0000,0.4670,0.6802,0.8401
v_yard_1_4,viewpoint,1864,1765,15.26,0.7467,0.9512,0.9957,1.0000,1,1,1,0.2533,0.7511,0.8507,0.9253
v_yard_1_5,viewpoint,1606,1428,14.99,1.6931,0.8842,0.9857,0.9938,1,1,1,0.0000,0.4356,0.6614,0.8307
v_yard_1_6,viewpoint,1283,959,15.11,6.5664,0.7210,0.9143,0.9626,0,0,1,0.0000,0.0000,0.0000,0.3434
v_yuri_1_2,viewpoint,988,934,11.10,0.7815,0.9312,0.9960,1.0000,1,1,1,0.2185,0.7395,0.8437,0.9219
v_yuri_1_3,viewpoint,870,719,11.23,0.8718,0.8207,0.9517,0.9839,1,1,1,0.1282,0.7094,0.8256,0.9128
v_yuri_1_4,viewpoint,763,565,11.56,45.9067,0.6828,0.9043,0.9777,0,0,0,0.0000,0.0000,0.0000,0.0000
v_yuri_1_5,viewpoint,917,759,10.86,2.6680,0.7983,0.9586,0.9902,1,1,1,0.0000,0.1107,0.4664,0.7332
v_yuri_1_6,viewpoint,753,565,10.82,16.8883,0.7158,0.8951,0.9695,0,0,0,0.0000,0.0000,0.0000,0.0000
