PairName,SeqType,NumMatches,Inliers,TimeMS,H_Error,MMA@3,MMA@5,MMA@7,MHA_Acc@3,MHA_Acc@5,MHA_Acc@7,AUC@1,AUC@3,AUC@5,AUC@10
i_ajuntament_1_2,illumination,2092,1988,345.29,0.2863,0.9498,0.9952,0.9990,1,1,1,0.7137,0.9046,0.9427,0.9714
i_ajuntament_1_3,illumination,1735,1535,38.58,1.1112,0.8755,0.9758,0.9965,1,1,1,0.0000,0.6296,0.7778,0.8889
i_ajuntament_1_4,illumination,1460,1026,50.82,2.4531,0.6753,0.8959,0.9719,1,1,1,0.0000,0.1823,0.5094,0.7547
i_ajuntament_1_5,illumination,1421,1027,40.96,1.9761,0.7136,0.8973,0.9740,1,1,1,0.0000,0.3413,0.6048,0.8024
i_ajuntament_1_6,illumination,1483,1117,39.19,1.8828,0.7424,0.9150,0.9717,1,1,1,0.0000,0.3724,0.6234,0.8117
i_autannes_1_2,illumination,1831,1786,45.27,0.1896,0.9727,0.9978,1.0000,1,1,1,0.8104,0.9368,0.9621,0.9810
i_autannes_1_3,illumination,1688,1617,35.72,0.1990,0.9597,0.9947,0.9988,1,1,1,0.8010,0.9337,0.9602,0.9801
i_autannes_1_4,illumination,1305,1080,37.53,1.2343,0.8222,0.9479,0.9900,1,1,1,0.0000,0.5886,0.7531,0.8766
i_autannes_1_5,illumination,1279,1073,38.44,0.6607,0.8366,0.9539,0.9867,1,1,1,0.3393,0.7798,0.8679,0.9339
i_autannes_1_6,illumination,1631,1459,35.38,0.3405,0.8927,0.9792,0.9945,1,1,1,0.6595,0.8865,0.9319,0.9659
i_bologna_1_2,illumination,1085,1072,36.80,0.2688,0.9880,1.0000,1.0000,1,1,1,0.7312,0.9104,0.9462,0.9731
i_bologna_1_3,illumination,1032,1012,23.15,0.1596,0.9806,0.9990,1.0000,1,1,1,0.8404,0.9468,0.9681,0.9840
i_bologna_1_4,illumination,978,949,24.05,0.3041,0.9693,0.9959,1.0000,1,1,1,0.6959,0.8986,0.9392,0.9696
i_bologna_1_5,illumination,962,917,23.73,0.4615,0.9522,0.9948,1.0000,1,1,1,0.5385,0.8462,0.9077,0.9538
i_bologna_1_6,illumination,961,910,23.49,0.5668,0.9490,0.9938,0.9979,1,1,1,0.4332,0.8111,0.8866,0.9433
i_books_1_2,illumination,1261,1211,27.95,0.2016,0.9596,0.9937,0.9976,1,1,1,0.7984,0.9328,0.9597,0.9798
i_books_1_3,illumination,1290,1240,27.93,0.1268,0.9612,0.9953,0.9969,1,1,1,0.8732,0.9577,0.9746,0.9873
i_books_1_4,illumination,1365,1328,27.92,0.1183,0.9707,0.9934,0.9971,1,1,1,0.8817,0.9606,0.9763,0.9882
i_books_1_5,illumination,1421,1383,27.07,0.1232,0.9733,0.9972,0.9993,1,1,1,0.8768,0.9589,0.9754,0.9877
i_books_1_6,illumination,1334,1230,29.21,0.3440,0.9213,0.9625,0.9805,1,1,1,0.6560,0.8853,0.9312,0.9656
i_boutique_1_2,illumination,2114,2072,40.66,0.1686,0.9782,0.9986,0.9995,1,1,1,0.8314,0.9438,0.9663,0.9831
i_boutique_1_3,illumination,2108,2019,40.08,0.3656,0.9545,0.9948,0.9995,1,1,1,0.6344,0.8781,0.9269,0.9634
i_boutique_1_4,illumination,2131,2048,40.55,0.3475,0.9596,0.9869,0.9920,1,1,1,0.6525,0.8842,0.9305,0.9653
i_boutique_1_5,illumination,1725,1479,40.90,1.0592,0.8377,0.9530,0.9872,1,1,1,0.0000,0.6469,0.7882,0.8941
i_boutique_1_6,illumination,1744,1510,38.10,0.8525,0.8538,0.9558,0.9868,1,1,1,0.1475,0.7158,0.8295,0.9147
i_bridger_1_2,illumination,2004,1917,46.23,0.1930,0.9561,0.9975,1.0000,1,1,1,0.8070,0.9357,0.9614,0.9807
i_bridger_1_3,illumination,1777,1687,36.64,0.2343,0.9488,0.9949,0.9994,1,1,1,0.7657,0.9219,0.9531,0.9766
i_bridger_1_4,illumination,1898,1813,36.15,0.1878,0.9547,0.9963,0.9995,1,1,1,0.8122,0.9374,0.9624,0.9812
i_bridger_1_5,illumination,1726,1610,34.84,0.2495,0.9299,0.9919,0.9994,1,1,1,0.7505,0.9168,0.9501,0.9751
i_bridger_1_6,illumination,1266,987,31.63,1.1844,0.7765,0.9518,0.9913,1,1,1,0.0000,0.6052,0.7631,0.8816
i_brooklyn_1_2,illumination,1862,1703,37.55,0.4737,0.9114,0.9742,0.9936,1,1,1,0.5263,0.8421,0.9053,0.9526
i_brooklyn_1_3,illumination,1813,1740,34.31,1.1381,0.9382,0.9945,0.9994,1,1,1,0.0000,0.6206,0.7724,0.8862
i_brooklyn_1_4,illumination,1654,1457,35.47,0.7769,0.8833,0.9764,0.9970,1,1,1,0.2231,0.7410,0.8446,0.9223
i_brooklyn_1_5,illumination,1840,1727,36.03,1.3002,0.9152,0.9935,0.9995,1,1,1,0.0000,0.5666,0.7400,0.8700
i_brooklyn_1_6,illumination,1781,1618,35.76,1.2935,0.8911,0.9843,0.9989,1,1,1,0.0000,0.5688,0.7413,0.8706
i_castle_1_2,illumination,1397,1197,34.32,0.6243,0.8533,0.9685,0.9943,1,1,1,0.3757,0.7919,0.8751,0.9376
i_castle_1_3,illumination,1609,1522,33.97,0.1952,0.9484,0.9938,0.9988,1,1,1,0.8048,0.9349,0.9610,0.9805
i_castle_1_4,illumination,1437,1346,31.41,1.0680,0.9262,0.9868,0.9958,1,1,1,0.0000,0.6440,0.7864,0.8932
i_castle_1_5,illumination,1205,1014,29.73,1.7513,0.8249,0.9527,0.9975,1,1,1,0.0000,0.4162,0.6497,0.8249
i_castle_1_6,illumination,1467,1217,36.24,0.5729,0.8282,0.9502,0.9884,1,1,1,0.4271,0.8090,0.8854,0.9427
i_chestnuts_1_2,illumination,1611,1570,32.19,0.2146,0.9739,0.9975,1.0000,1,1,1,0.7854,0.9285,0.9571,0.9785
i_chestnuts_1_3,illumination,1613,1574,30.58,0.2482,0.9758,0.9932,0.9975,1,1,1,0.7518,0.9173,0.9504,0.9752
i_chestnuts_1_4,illumination,1595,1533,30.75,0.2646,0.9599,0.9912,0.9969,1,1,1,0.7354,0.9118,0.9471,0.9735
i_chestnuts_1_5,illumination,1516,1448,30.30,0.2375,0.9558,0.9888,0.9960,1,1,1,0.7625,0.9208,0.9525,0.9763
i_chestnuts_1_6,illumination,1373,1280,29.46,0.4363,0.9301,0.9832,0.9949,1,1,1,0.5637,0.8546,0.9127,0.9564
i_crownday_1_2,illumination,1934,1707,45.31,0.5190,0.8806,0.9762,0.9953,1,1,1,0.4810,0.8270,0.8962,0.9481
i_crownday_1_3,illumination,2147,2017,45.74,0.4130,0.9381,0.9898,0.9986,1,1,1,0.5870,0.8623,0.9174,0.9587
i_crownday_1_4,illumination,2313,2189,46.55,0.6516,0.9425,0.9883,0.9996,1,1,1,0.3484,0.7828,0.8697,0.9348
i_crownday_1_5,illumination,2452,2337,49.56,0.3082,0.9527,0.9931,0.9996,1,1,1,0.6918,0.8973,0.9384,0.9692
i_crownday_1_6,illumination,1802,1547,42.16,0.5246,0.8590,0.9661,0.9878,1,1,1,0.4754,0.8251,0.8951,0.9475
i_dome_1_2,illumination,1751,1726,33.91,0.2150,0.9852,0.9983,0.9994,1,1,1,0.7850,0.9283,0.9570,0.9785
i_dome_1_3,illumination,998,900,30.14,0.4048,0.8998,0.9719,0.9930,1,1,1,0.5952,0.8651,0.9190,0.9595
i_dome_1_4,illumination,1007,897,28.03,0.3940,0.8858,0.9791,0.9980,1,1,1,0.6060,0.8687,0.9212,0.9606
i_dome_1_5,illumination,1080,968,29.28,0.6861,0.9019,0.9815,0.9954,1,1,1,0.3139,0.7713,0.8628,0.9314
i_dome_1_6,illumination,1628,1547,34.29,0.2087,0.9502,0.9932,0.9975,1,1,1,0.7913,0.9304,0.9583,0.9791
i_duda_1_2,illumination,993,986,20.51,0.3822,0.9919,1.0000,1.0000,1,1,1,0.6178,0.8726,0.9236,0.9618
i_duda_1_3,illumination,935,928,21.50,0.4766,0.9925,1.0000,1.0000,1,1,1,0.5234,0.8411,0.9047,0.9523
i_duda_1_4,illumination,906,893,19.83,0.3333,0.9845,1.0000,1.0000,1,1,1,0.6667,0.8889,0.9333,0.9667
i_duda_1_5,illumination,841,824,20.10,0.4011,0.9786,0.9964,0.9976,1,1,1,0.5989,0.8663,0.9198,0.9599
i_duda_1_6,illumination,769,746,18.99,0.5036,0.9649,0.9961,1.0000,1,1,1,0.4964,0.8321,0.8993,0.9496
i_fenis_1_2,illumination,1842,1807,34.58,0.3295,0.9805,0.9973,1.0000,1,1,1,0.6705,0.8902,0.9341,0.9670
i_fenis_1_3,illumination,1702,1571,34.36,0.4307,0.9195,0.9924,0.9988,1,1,1,0.5693,0.8564,0.9139,0.9569
i_fenis_1_4,illumination,1212,924,33.87,1.0210,0.7426,0.9257,0.9802,1,1,1,0.0000,0.6597,0.7958,0.8979
i_fenis_1_5,illumination,1223,837,32.88,1.6403,0.6541,0.8610,0.9362,1,1,1,0.0000,0.4532,0.6719,0.8360
i_fenis_1_6,illumination,1273,991,33.79,0.7622,0.7659,0.9262,0.9701,1,1,1,0.2378,0.7459,0.8476,0.9238
i_fog_1_2,illumination,2334,2275,50.72,0.1823,0.9730,0.9966,0.9996,1,1,1,0.8177,0.9392,0.9635,0.9818
i_fog_1_3,illumination,2093,2007,43.76,0.3715,0.9560,0.9943,0.9995,1,1,1,0.6285,0.8762,0.9257,0.9628
i_fog_1_4,illumination,2096,1993,41.34,0.3114,0.9475,0.9914,0.9986,1,1,1,0.6886,0.8962,0.9377,0.9689
i_fog_1_5,illumination,1570,1453,36.09,0.5667,0.9185,0.9783,0.9924,1,1,1,0.4333,0.8111,0.8867,0.9433
i_fog_1_6,illumination,1603,1465,36.35,0.6638,0.9102,0.9775,0.9944,1,1,1,0.3362,0.7787,0.8672,0.9336
i_fruits_1_2,illumination,2333,2153,58.98,0.3650,0.9228,0.9936,0.9996,1,1,1,0.6350,0.8783,0.9270,0.9635
i_fruits_1_3,illumination,2221,2047,48.47,0.4756,0.9185,0.9910,0.9991,1,1,1,0.5244,0.8415,0.9049,0.9524
i_fruits_1_4,illumination,2208,2045,48.83,0.3556,0.9257,0.9946,0.9986,1,1,1,0.6444,0.8815,0.9289,0.9644
i_fruits_1_5,illumination,2179,2025,50.04,0.3436,0.9284,0.9908,0.9991,1,1,1,0.6564,0.8855,0.9313,0.9656
i_fruits_1_6,illumination,2246,2060,52.89,0.3848,0.9159,0.9898,0.9964,1,1,1,0.6152,0.8717,0.9230,0.9615
i_gonnenberg_1_2,illumination,1750,1727,36.07,0.1365,0.9869,0.9983,0.9989,1,1,1,0.8635,0.9545,0.9727,0.9863
i_gonnenberg_1_3,illumination,1741,1711,31.83,0.1745,0.9833,0.9977,0.9994,1,1,1,0.8255,0.9418,0.9651,0.9825
i_gonnenberg_1_4,illumination,1640,1595,31.23,0.2202,0.9707,0.9988,0.9994,1,1,1,0.7798,0.9266,0.9560,0.9780
i_gonnenberg_1_5,illumination,1623,1596,30.68,0.1786,0.9821,0.9994,1.0000,1,1,1,0.8214,0.9405,0.9643,0.9821
i_gonnenberg_1_6,illumination,1647,1617,31.65,0.2251,0.9830,0.9970,0.9970,1,1,1,0.7749,0.9250,0.9550,0.9775
i_greenhouse_1_2,illumination,2559,2479,48.47,0.0866,0.9691,0.9961,1.0000,1,1,1,0.9134,0.9711,0.9827,0.9913
i_greenhouse_1_3,illumination,2578,2455,48.29,0.2808,0.9503,0.9950,0.9996,1,1,1,0.7192,0.9064,0.9438,0.9719
i_greenhouse_1_4,illumination,2499,2374,47.49,0.3780,0.9496,0.9952,1.0000,1,1,1,0.6220,0.8740,0.9244,0.9622
i_greenhouse_1_5,illumination,2506,2347,47.98,0.5494,0.9366,0.9952,1.0000,1,1,1,0.4506,0.8169,0.8901,0.9451
i_greenhouse_1_6,illumination,2429,2282,47.37,0.6979,0.9271,0.9946,0.9996,1,1,1,0.3021,0.7674,0.8604,0.9302
i_greentea_1_2,illumination,1563,1514,33.51,0.0943,0.9687,0.9955,0.9987,1,1,1,0.9057,0.9686,0.9811,0.9906
i_greentea_1_3,illumination,1954,1930,35.54,0.1379,0.9877,0.9985,0.9995,1,1,1,0.8621,0.9540,0.9724,0.9862
i_greentea_1_4,illumination,1949,1934,34.85,0.1513,0.9923,0.9990,1.0000,1,1,1,0.8487,0.9496,0.9697,0.9849
i_greentea_1_5,illumination,1926,1895,34.87,0.2234,0.9834,0.9979,0.9995,1,1,1,0.7766,0.9255,0.9553,0.9777
i_greentea_1_6,illumination,1856,1815,34.43,0.2389,0.9784,0.9946,1.0000,1,1,1,0.7611,0.9204,0.9522,0.9761
i_indiana_1_2,illumination,1899,1806,38.13,0.1582,0.9510,0.9926,1.0000,1,1,1,0.8418,0.9473,0.9684,0.9842
i_indiana_1_3,illumination,1810,1678,36.94,0.3588,0.9249,0.9901,0.9989,1,1,1,0.6412,0.8804,0.9282,0.9641
i_indiana_1_4,illumination,1815,1703,36.70,0.3585,0.9377,0.9950,1.0000,1,1,1,0.6415,0.8805,0.9283,0.9642
i_indiana_1_5,illumination,1820,1660,37.82,0.4846,0.9071,0.9879,0.9989,1,1,1,0.5154,0.8385,0.9031,0.9515
i_indiana_1_6,illumination,1755,1584,36.99,0.4061,0.9020,0.9863,0.9989,1,1,1,0.5939,0.8646,0.9188,0.9594
i_kions_1_2,illumination,1376,1288,39.23,0.9835,0.9208,0.9927,0.9985,1,1,1,0.0165,0.6722,0.8033,0.9016
i_kions_1_3,illumination,1195,1088,29.54,0.4152,0.9071,0.9874,0.9967,1,1,1,0.5848,0.8616,0.9170,0.9585
i_kions_1_4,illumination,1293,1100,31.62,1.5909,0.8275,0.9598,0.9907,1,1,1,0.0000,0.4697,0.6818,0.8409
i_kions_1_5,illumination,1279,1076,28.97,1.6101,0.8296,0.9523,0.9883,1,1,1,0.0000,0.4633,0.6780,0.8390
i_kions_1_6,illumination,1072,971,27.70,0.7357,0.9049,0.9823,0.9944,1,1,1,0.2643,0.7548,0.8529,0.9264
i_ktirio_1_2,illumination,2142,2111,39.09,0.1226,0.9869,0.9995,1.0000,1,1,1,0.8774,0.9591,0.9755,0.9877
i_ktirio_1_3,illumination,1787,1709,35.30,0.4904,0.9524,0.9938,0.9978,1,1,1,0.5096,0.8365,0.9019,0.9510
i_ktirio_1_4,illumination,1381,1251,31.71,1.0187,0.8972,0.9761,0.9949,1,1,1,0.0000,0.6604,0.7963,0.8981
i_ktirio_1_5,illumination,1690,1604,35.51,0.4340,0.9456,0.9959,1.0000,1,1,1,0.5660,0.8553,0.9132,0.9566
i_ktirio_1_6,illumination,1432,1284,35.71,0.4843,0.8946,0.9832,0.9972,1,1,1,0.5157,0.8386,0.9031,0.9516
i_kurhaus_1_2,illumination,1879,1847,49.96,0.1750,0.9814,0.9995,1.0000,1,1,1,0.8250,0.9417,0.9650,0.9825
i_kurhaus_1_3,illumination,1734,1680,35.45,0.1242,0.9694,0.9954,0.9988,1,1,1,0.8758,0.9586,0.9752,0.9876
i_kurhaus_1_4,illumination,1614,1548,33.94,0.1373,0.9591,0.9950,1.0000,1,1,1,0.8627,0.9542,0.9725,0.9863
i_kurhaus_1_5,illumination,1520,1433,33.40,0.1680,0.9421,0.9914,1.0000,1,1,1,0.8320,0.9440,0.9664,0.9832
i_kurhaus_1_6,illumination,1446,1309,33.30,0.1793,0.9059,0.9799,0.9972,1,1,1,0.8207,0.9402,0.9641,0.9821
i_leuven_1_2,illumination,1718,1612,37.94,1.1516,0.9267,0.9825,0.9971,1,1,1,0.0000,0.6161,0.7697,0.8848
i_leuven_1_3,illumination,1919,1836,38.93,1.3093,0.9343,0.9906,0.9990,1,1,1,0.0000,0.5636,0.7381,0.8691
i_leuven_1_4,illumination,1786,1625,37.90,1.6845,0.9093,0.9826,0.9961,1,1,1,0.0000,0.4385,0.6631,0.8315
i_leuven_1_5,illumination,1664,1553,36.55,1.4479,0.9159,0.9886,0.9988,1,1,1,0.0000,0.5174,0.7104,0.8552
i_leuven_1_6,illumination,1550,1447,34.62,7.2798,0.6742,0.8335,0.9052,0,0,0,0.0000,0.0000,0.0000,0.2720
i_lionday_1_2,illumination,1007,858,27.30,1.3604,0.8500,0.9553,0.9930,1,1,1,0.0000,0.5465,0.7279,0.8640
i_lionday_1_3,illumination,1015,913,27.54,1.0695,0.8867,0.9704,0.9961,1,1,1,0.0000,0.6435,0.7861,0.8931
i_lionday_1_4,illumination,751,533,26.94,2.0906,0.6258,0.8788,0.9680,1,1,1,0.0000,0.3031,0.5819,0.7909
i_lionday_1_5,illumination,764,597,26.61,3.2183,0.7081,0.8992,0.9634,0,1,1,0.0000,0.0000,0.3563,0.6782
i_lionday_1_6,illumination,973,859,27.66,1.0007,0.8664,0.9733,0.9897,1,1,1,0.0000,0.6664,0.7999,0.8999
i_lionnight_1_2,illumination,1493,1395,33.29,0.8311,0.9263,0.9853,0.9946,1,1,1,0.1689,0.7230,0.8338,0.9169
i_lionnight_1_3,illumination,1029,948,28.60,1.4027,0.8873,0.9806,0.9932,1,1,1,0.0000,0.5324,0.7195,0.8597
i_lionnight_1_4,illumination,1540,1472,31.12,0.5169,0.9513,0.9955,0.9987,1,1,1,0.4831,0.8277,0.8966,0.9483
i_lionnight_1_5,illumination,1470,1389,30.74,1.4131,0.9184,0.9878,0.9959,1,1,1,0.0000,0.5290,0.7174,0.8587
i_lionnight_1_6,illumination,1391,1305,30.55,1.5080,0.9209,0.9863,0.9978,1,1,1,0.0000,0.4973,0.6984,0.8492
i_londonbridge_1_2,illumination,1392,1349,29.16,1.0522,0.9605,0.9950,0.9993,1,1,1,0.0000,0.6493,0.7896,0.8948
i_londonbridge_1_3,illumination,1352,1306,28.66,0.9177,0.9623,0.9963,1.0000,1,1,1,0.0823,0.6941,0.8165,0.9082
i_londonbridge_1_4,illumination,1241,1133,26.89,2.8523,0.8469,0.9758,0.9968,1,1,1,0.0000,0.0492,0.4295,0.7148
i_londonbridge_1_5,illumination,880,630,25.44,3.2812,0.5932,0.8443,0.9534,0,1,1,0.0000,0.0000,0.3438,0.6719
i_londonbridge_1_6,illumination,1316,1268,27.11,0.6896,0.9620,0.9977,1.0000,1,1,1,0.3104,0.7701,0.8621,0.9310
i_melon_1_2,illumination,1289,1262,27.71,0.2667,0.9783,0.9984,0.9992,1,1,1,0.7333,0.9111,0.9467,0.9733
i_melon_1_3,illumination,1129,1065,26.38,0.3159,0.9433,0.9858,0.9973,1,1,1,0.6841,0.8947,0.9368,0.9684
i_melon_1_4,illumination,713,592,23.69,1.4259,0.8135,0.9411,0.9762,1,1,1,0.0000,0.5247,0.7148,0.8574
i_melon_1_5,illumination,1146,1075,25.90,0.2517,0.9380,0.9799,0.9904,1,1,1,0.7483,0.9161,0.9497,0.9748
i_melon_1_6,illumination,1095,1024,25.50,0.4283,0.9352,0.9836,0.9936,1,1,1,0.5717,0.8572,0.9143,0.9572
i_miniature_1_2,illumination,1861,1844,34.76,0.1961,0.9909,0.9995,1.0000,1,1,1,0.8039,0.9346,0.9608,0.9804
i_miniature_1_3,illumination,1683,1637,32.93,0.3991,0.9739,0.9970,0.9994,1,1,1,0.6009,0.8670,0.9202,0.9601
i_miniature_1_4,illumination,1538,1417,32.84,0.7462,0.9207,0.9824,0.9980,1,1,1,0.2538,0.7513,0.8508,0.9254
i_miniature_1_5,illumination,1320,966,33.18,2.7657,0.7273,0.8841,0.9621,1,1,1,0.0000,0.0781,0.4469,0.7234
i_miniature_1_6,illumination,1626,1589,32.10,0.3614,0.9766,0.9963,0.9994,1,1,1,0.6386,0.8795,0.9277,0.9639
i_nescafe_1_2,illumination,1319,1253,28.36,0.3142,0.9500,0.9788,0.9848,1,1,1,0.6858,0.8953,0.9372,0.9686
i_nescafe_1_3,illumination,1581,1518,31.10,0.4853,0.9545,0.9798,0.9867,1,1,1,0.5147,0.8382,0.9029,0.9515
i_nescafe_1_4,illumination,1632,1577,31.01,0.2854,0.9657,0.9877,1.0000,1,1,1,0.7146,0.9049,0.9429,0.9715
i_nescafe_1_5,illumination,1499,1452,29.57,0.2911,0.9666,0.9860,0.9967,1,1,1,0.7089,0.9030,0.9418,0.9709
i_nescafe_1_6,illumination,1492,1383,30.46,0.2219,0.9249,0.9879,0.9973,1,1,1,0.7781,0.9260,0.9556,0.9778
i_nijmegen_1_2,illumination,2437,2266,49.06,0.8165,0.9085,0.9819,0.9984,1,1,1,0.1835,0.7278,0.8367,0.9184
i_nijmegen_1_3,illumination,2555,2380,50.09,0.5915,0.9182,0.9910,0.9996,1,1,1,0.4085,0.8028,0.8817,0.9409
i_nijmegen_1_4,illumination,2305,1960,47.00,0.5902,0.8469,0.9666,0.9965,1,1,1,0.4098,0.8033,0.8820,0.9410
i_nijmegen_1_5,illumination,2590,2397,49.74,0.6209,0.9069,0.9834,0.9958,1,1,1,0.3791,0.7930,0.8758,0.9379
i_nijmegen_1_6,illumination,2543,2356,48.65,0.5878,0.9099,0.9858,0.9984,1,1,1,0.4122,0.8041,0.8824,0.9412
i_nuts_1_2,illumination,2142,1734,49.04,0.7376,0.8081,0.8992,0.9300,1,1,1,0.2624,0.7541,0.8525,0.9262
i_nuts_1_3,illumination,1702,1364,44.85,0.7876,0.7885,0.9142,0.9548,1,1,1,0.2124,0.7375,0.8425,0.9212
i_nuts_1_4,illumination,1442,959,49.10,0.8184,0.6616,0.8218,0.9001,1,1,1,0.1816,0.7272,0.8363,0.9182
i_nuts_1_5,illumination,1169,677,44.19,0.6790,0.5680,0.7630,0.8725,1,1,1,0.3210,0.7737,0.8642,0.9321
i_nuts_1_6,illumination,880,432,39.07,2.6850,0.4864,0.7000,0.8250,1,1,1,0.0000,0.1050,0.4630,0.7315
i_objects_1_2,illumination,1608,1540,33.26,0.7006,0.9471,0.9963,1.0000,1,1,1,0.2994,0.7665,0.8599,0.9299
i_objects_1_3,illumination,1530,1404,31.39,0.9440,0.9059,0.9850,0.9980,1,1,1,0.0560,0.6853,0.8112,0.9056
i_objects_1_4,illumination,1400,1232,32.95,1.1830,0.8550,0.9707,0.9986,1,1,1,0.0000,0.6057,0.7634,0.8817
i_objects_1_5,illumination,1430,1224,31.76,1.4459,0.8210,0.9524,0.9839,1,1,1,0.0000,0.5180,0.7108,0.8554
i_objects_1_6,illumination,1765,1726,32.32,0.1159,0.9768,0.9966,1.0000,1,1,1,0.8841,0.9614,0.9768,0.9884
i_parking_1_2,illumination,1865,1768,36.19,0.2073,0.9501,0.9952,1.0000,1,1,1,0.7927,0.9309,0.9585,0.9793
i_parking_1_3,illumination,1776,1660,35.22,0.2849,0.9375,0.9927,0.9989,1,1,1,0.7151,0.9050,0.9430,0.9715
i_parking_1_4,illumination,1587,1416,34.51,1.0662,0.8544,0.9899,0.9987,1,1,1,0.0000,0.6446,0.7868,0.8934
i_parking_1_5,illumination,1419,1180,33.69,0.9706,0.7829,0.9584,0.9894,1,1,1,0.0294,0.6765,0.8059,0.9029
i_parking_1_6,illumination,1649,1478,35.10,0.7815,0.8763,0.9751,0.9970,1,1,1,0.2185,0.7395,0.8437,0.9219
i_partyfood_1_2,illumination,712,709,18.29,0.1498,0.9958,1.0000,1.0000,1,1,1,0.8502,0.9501,0.9700,0.9850
i_partyfood_1_3,illumination,659,657,18.50,0.3036,0.9970,1.0000,1.0000,1,1,1,0.6964,0.8988,0.9393,0.9696
i_partyfood_1_4,illumination,623,614,18.23,0.4232,0.9856,1.0000,1.0000,1,1,1,0.5768,0.8589,0.9154,0.9577
i_partyfood_1_5,illumination,590,582,19.95,0.7900,0.9881,0.9983,1.0000,1,1,1,0.2100,0.7367,0.8420,0.9210
i_partyfood_1_6,illumination,524,511,17.87,0.7001,0.9752,0.9981,1.0000,1,1,1,0.2999,0.7666,0.8600,0.9300
i_pinard_1_2,illumination,1320,1249,26.14,0.5699,0.9470,0.9667,0.9727,1,1,1,0.4301,0.8100,0.8860,0.9430
i_pinard_1_3,illumination,1038,945,25.49,1.4434,0.9075,0.9547,0.9750,1,1,1,0.0000,0.5189,0.7113,0.8557
i_pinard_1_4,illumination,1050,941,24.76,0.7998,0.8933,0.9429,0.9676,1,1,1,0.2002,0.7334,0.8400,0.9200
i_pinard_1_5,illumination,1102,1009,25.37,1.1808,0.9038,0.9537,0.9764,1,1,1,0.0000,0.6064,0.7638,0.8819
i_pinard_1_6,illumination,1219,1132,26.70,0.4636,0.9229,0.9803,0.9951,1,1,1,0.5364,0.8455,0.9073,0.9536
i_pool_1_2,illumination,896,709,25.68,1.4078,0.7969,0.9196,0.9688,1,1,1,0.0000,0.5307,0.7184,0.8592
i_pool_1_3,illumination,321,176,20.50,4.2582,0.5265,0.7508,0.8692,0,1,1,0.0000,0.0000,0.1484,0.5742
i_pool_1_4,illumination,311,184,20.24,3.0148,0.5884,0.7749,0.8714,0,1,1,0.0000,0.0000,0.3970,0.6985
i_pool_1_5,illumination,638,447,24.50,0.7342,0.6944,0.8715,0.9420,1,1,1,0.2658,0.7553,0.8532,0.9266
i_pool_1_6,illumination,667,465,23.68,1.1476,0.6912,0.8726,0.9340,1,1,1,0.0000,0.6175,0.7705,0.8852
i_porta_1_2,illumination,1977,1643,45.05,0.6673,0.8209,0.9818,0.9970,1,1,1,0.3327,0.7776,0.8665,0.9333
i_porta_1_3,illumination,2058,1748,44.56,0.2420,0.8465,0.9810,0.9985,1,1,1,0.7580,0.9193,0.9516,0.9758
i_porta_1_4,illumination,1587,1328,41.41,0.5292,0.8267,0.9773,0.9962,1,1,1,0.4708,0.8236,0.8942,0.9471
i_porta_1_5,illumination,1072,870,27.78,0.9171,0.8125,0.9599,0.9935,1,1,1,0.0829,0.6943,0.8166,0.9083
i_porta_1_6,illumination,1128,784,34.87,1.5858,0.6764,0.8785,0.9637,1,1,1,0.0000,0.4714,0.6828,0.8414
i_resort_1_2,illumination,2425,2367,46.27,0.2191,0.9753,0.9996,0.9996,1,1,1,0.7809,0.9270,0.9562,0.9781
i_resort_1_3,illumination,2729,2698,46.83,0.0901,0.9886,0.9996,1.0000,1,1,1,0.9099,0.9700,0.9820,0.9910
i_resort_1_4,illumination,2721,2695,46.61,0.0647,0.9904,0.9993,1.0000,1,1,1,0.9353,0.9784,0.9871,0.9935
i_resort_1_5,illumination,2346,2256,43.85,0.3057,0.9599,0.9987,1.0000,1,1,1,0.6943,0.8981,0.9389,0.9694
i_resort_1_6,illumination,2296,2212,42.79,0.6247,0.9634,0.9974,0.9996,1,1,1,0.3753,0.7918,0.8751,0.9375
i_salon_1_2,illumination,2715,2688,47.70,0.1008,0.9897,1.0000,1.0000,1,1,1,0.8992,0.9664,0.9798,0.9899
i_salon_1_3,illumination,2377,2322,43.95,0.1640,0.9773,0.9975,1.0000,1,1,1,0.8360,0.9453,0.9672,0.9836
i_salon_1_4,illumination,2160,2060,42.55,0.2920,0.9519,0.9940,1.0000,1,1,1,0.7080,0.9027,0.9416,0.9708
i_salon_1_5,illumination,2430,2385,43.90,0.1863,0.9819,1.0000,1.0000,1,1,1,0.8137,0.9379,0.9627,0.9814
i_salon_1_6,illumination,2215,2143,41.98,0.2090,0.9670,0.9977,0.9995,1,1,1,0.7910,0.9303,0.9582,0.9791
i_santuario_1_2,illumination,1951,1853,38.90,1.0351,0.9236,0.9908,0.9985,1,1,1,0.0000,0.6550,0.7930,0.8965
i_santuario_1_3,illumination,1955,1825,37.58,1.2494,0.9013,0.9841,0.9964,1,1,1,0.0000,0.5835,0.7501,0.8751
i_santuario_1_4,illumination,1885,1742,36.82,1.4502,0.8520,0.9814,0.9958,1,1,1,0.0000,0.5166,0.7100,0.8550
i_santuario_1_5,illumination,2012,1898,37.88,0.3584,0.9443,0.9950,0.9995,1,1,1,0.6416,0.8805,0.9283,0.9642
i_santuario_1_6,illumination,1764,1625,35.34,0.8725,0.9076,0.9830,0.9955,1,1,1,0.1275,0.7092,0.8255,0.9127
i_school_1_2,illumination,2218,2143,42.62,0.1419,0.9644,0.9982,1.0000,1,1,1,0.8581,0.9527,0.9716,0.9858
i_school_1_3,illumination,2156,2041,40.61,0.1842,0.9467,0.9907,1.0000,1,1,1,0.8158,0.9386,0.9632,0.9816
i_school_1_4,illumination,1774,1593,37.32,0.4031,0.8884,0.9808,0.9977,1,1,1,0.5969,0.8656,0.9194,0.9597
i_school_1_5,illumination,2014,1838,40.54,0.5864,0.9002,0.9856,0.9995,1,1,1,0.4136,0.8045,0.8827,0.9414
i_school_1_6,illumination,1800,1442,41.05,0.9626,0.7861,0.9350,0.9850,1,1,1,0.0374,0.6791,0.8075,0.9037
i_ski_1_2,illumination,2269,2226,44.91,0.2056,0.9815,0.9982,0.9996,1,1,1,0.7944,0.9315,0.9589,0.9794
i_ski_1_3,illumination,2149,2094,40.61,0.3124,0.9716,0.9977,1.0000,1,1,1,0.6876,0.8959,0.9375,0.9688
i_ski_1_4,illumination,2038,1953,37.73,0.4735,0.9539,0.9966,1.0000,1,1,1,0.5265,0.8422,0.9053,0.9526
i_ski_1_5,illumination,1985,1894,37.30,0.4473,0.9511,0.9955,0.9995,1,1,1,0.5527,0.8509,0.9105,0.9553
i_ski_1_6,illumination,1935,1827,37.69,0.6113,0.9416,0.9917,0.9995,1,1,1,0.3887,0.7962,0.8777,0.9389
i_smurf_1_2,illumination,2086,2009,39.37,0.2274,0.9616,0.9847,0.9942,1,1,1,0.7726,0.9242,0.9545,0.9773
i_smurf_1_3,illumination,2091,2012,38.15,0.2571,0.9603,0.9890,0.9952,1,1,1,0.7429,0.9143,0.9486,0.9743
i_smurf_1_4,illumination,1975,1897,36.04,0.3155,0.9605,0.9863,0.9954,1,1,1,0.6845,0.8948,0.9369,0.9684
i_smurf_1_5,illumination,1898,1797,34.86,0.3760,0.9468,0.9842,0.9942,1,1,1,0.6240,0.8747,0.9248,0.9624
i_smurf_1_6,illumination,1750,1601,33.45,0.3259,0.9120,0.9846,0.9977,1,1,1,0.6741,0.8914,0.9348,0.9674
i_steps_1_2,illumination,1925,1888,35.68,0.1718,0.9803,0.9995,1.0000,1,1,1,0.8282,0.9427,0.9656,0.9828
i_steps_1_3,illumination,1961,1903,36.01,0.5134,0.9679,0.9969,1.0000,1,1,1,0.4866,0.8289,0.8973,0.9487
i_steps_1_4,illumination,1983,1936,35.48,0.5697,0.9738,0.9965,0.9995,1,1,1,0.4303,0.8101,0.8861,0.9430
i_steps_1_5,illumination,1588,1518,32.24,0.7514,0.9503,0.9899,0.9975,1,1,1,0.2486,0.7495,0.8497,0.9249
i_steps_1_6,illumination,1737,1679,33.54,0.6306,0.9632,0.9954,0.9994,1,1,1,0.3694,0.7898,0.8739,0.9369
i_table_1_2,illumination,1608,1540,31.72,0.7006,0.9471,0.9963,1.0000,1,1,1,0.2994,0.7665,0.8599,0.9299
i_table_1_3,illumination,1530,1404,30.39,0.9440,0.9059,0.9850,0.9980,1,1,1,0.0560,0.6853,0.8112,0.9056
i_table_1_4,illumination,1400,1232,29.84,1.1830,0.8550,0.9707,0.9986,1,1,1,0.0000,0.6057,0.7634,0.8817
i_table_1_5,illumination,1430,1224,29.67,1.4459,0.8210,0.9524,0.9839,1,1,1,0.0000,0.5180,0.7108,0.8554
i_table_1_6,illumination,1765,1726,30.64,0.1159,0.9768,0.9966,1.0000,1,1,1,0.8841,0.9614,0.9768,0.9884
i_tools_1_2,illumination,613,385,22.58,5.7504,0.4078,0.6362,0.7781,0,0,1,0.0000,0.0000,0.0000,0.4250
i_tools_1_3,illumination,861,729,25.30,1.4325,0.8188,0.9663,0.9930,1,1,1,0.0000,0.5225,0.7135,0.8567
i_tools_1_4,illumination,678,407,22.11,3.5196,0.4779,0.6873,0.8451,0,1,1,0.0000,0.0000,0.2961,0.6480
i_tools_1_5,illumination,780,651,24.79,2.0646,0.8038,0.9513,0.9821,1,1,1,0.0000,0.3118,0.5871,0.7935
i_tools_1_6,illumination,582,289,21.55,7.0152,0.1856,0.3179,0.5103,0,0,0,0.0000,0.0000,0.0000,0.2985
i_toy_1_2,illumination,2989,2809,56.01,0.1856,0.9394,0.9880,0.9957,1,1,1,0.8144,0.9381,0.9629,0.9814
i_toy_1_3,illumination,2827,2576,53.39,0.1895,0.9109,0.9841,0.9968,1,1,1,0.8105,0.9368,0.9621,0.9811
i_toy_1_4,illumination,2527,2197,57.63,0.3849,0.8655,0.9683,0.9917,1,1,1,0.6151,0.8717,0.9230,0.9615
i_toy_1_5,illumination,2129,1647,49.31,0.5483,0.7666,0.9164,0.9723,1,1,1,0.4517,0.8172,0.8903,0.9452
i_toy_1_6,illumination,1520,838,43.77,1.4026,0.5520,0.7500,0.8625,1,1,1,0.0000,0.5325,0.7195,0.8597
i_troulos_1_2,illumination,768,718,21.62,1.0997,0.9284,0.9870,0.9974,1,1,1,0.0000,0.6334,0.7801,0.8900
i_troulos_1_3,illumination,522,449,18.57,3.8389,0.4866,0.8889,0.9808,0,1,1,0.0000,0.0000,0.2322,0.6161
i_troulos_1_4,illumination,857,831,22.71,0.2920,0.9720,0.9988,1.0000,1,1,1,0.7080,0.9027,0.9416,0.9708
i_troulos_1_5,illumination,770,721,20.77,1.2277,0.9221,0.9818,0.9974,1,1,1,0.0000,0.5908,0.7545,0.8772
i_troulos_1_6,illumination,633,583,18.49,1.3139,0.8957,0.9874,0.9968,1,1,1,0.0000,0.5620,0.7372,0.8686
i_veggies_1_2,illumination,1918,1893,33.72,0.2469,0.9864,0.9990,1.0000,1,1,1,0.7531,0.9177,0.9506,0.9753
i_veggies_1_3,illumination,1621,1555,30.99,0.3729,0.9568,0.9957,0.9994,1,1,1,0.6271,0.8757,0.9254,0.9627
i_veggies_1_4,illumination,1765,1736,30.45,0.1682,0.9847,0.9994,1.0000,1,1,1,0.8318,0.9439,0.9664,0.9832
i_veggies_1_5,illumination,1400,1310,28.05,0.3658,0.9336,0.9871,0.9971,1,1,1,0.6342,0.8781,0.9268,0.9634
i_veggies_1_6,illumination,1316,1145,27.50,0.6710,0.8708,0.9559,0.9863,1,1,1,0.3290,0.7763,0.8658,0.9329
i_village_1_2,illumination,2575,2414,61.37,0.4477,0.9363,0.9887,0.9977,1,1,1,0.5523,0.8508,0.9105,0.9552
i_village_1_3,illumination,2615,2438,52.02,0.3630,0.9304,0.9916,0.9992,1,1,1,0.6370,0.8790,0.9274,0.9637
i_village_1_4,illumination,2569,2416,50.37,0.2926,0.9408,0.9969,0.9996,1,1,1,0.7074,0.9025,0.9415,0.9707
i_village_1_5,illumination,2968,2920,53.15,0.3070,0.9832,0.9983,0.9997,1,1,1,0.6930,0.8977,0.9386,0.9693
i_village_1_6,illumination,2378,2180,49.05,0.4986,0.9117,0.9815,0.9975,1,1,1,0.5014,0.8338,0.9003,0.9501
i_yellowtent_1_2,illumination,2052,2036,36.80,0.0761,0.9917,1.0000,1.0000,1,1,1,0.9239,0.9746,0.9848,0.9924
i_yellowtent_1_3,illumination,1840,1803,31.60,0.2365,0.9793,0.9995,1.0000,1,1,1,0.7635,0.9212,0.9527,0.9763
i_yellowtent_1_4,illumination,1668,1591,32.92,0.3709,0.9526,0.9958,0.9988,1,1,1,0.6291,0.8764,0.9258,0.9629
i_yellowtent_1_5,illumination,1702,1607,30.49,0.5575,0.9412,0.9747,0.9888,1,1,1,0.4425,0.8142,0.8885,0.9443
i_yellowtent_1_6,illumination,1525,1385,30.74,0.4558,0.9082,0.9757,0.9954,1,1,1,0.5442,0.8481,0.9088,0.9544
i_zion_1_2,illumination,2390,2337,46.32,0.1682,0.9770,0.9992,1.0000,1,1,1,0.8318,0.9439,0.9664,0.9832
i_zion_1_3,illumination,2088,1964,42.79,0.4204,0.9387,0.9895,0.9995,1,1,1,0.5796,0.8599,0.9159,0.9580
i_zion_1_4,illumination,1753,1597,42.82,0.5893,0.9104,0.9823,0.9949,1,1,1,0.4107,0.8036,0.8821,0.9411
i_zion_1_5,illumination,1491,1198,35.72,0.7779,0.8042,0.9309,0.9819,1,1,1,0.2221,0.7407,0.8444,0.9222
i_zion_1_6,illumination,1345,1094,34.40,1.5513,0.8156,0.9234,0.9762,1,1,1,0.0000,0.4829,0.6897,0.8449
v_abstract_1_2,viewpoint,2159,2074,44.52,0.2594,0.9602,0.9958,1.0000,1,1,1,0.7406,0.9135,0.9481,0.9741
v_abstract_1_3,viewpoint,2104,1992,42.57,0.5889,0.9458,0.9943,0.9976,1,1,1,0.4111,0.8037,0.8822,0.9411
v_abstract_1_4,viewpoint,1555,1399,37.20,1.2885,0.8945,0.9839,0.9968,1,1,1,0.0000,0.5705,0.7423,0.8712
v_abstract_1_5,viewpoint,1763,1656,38.94,0.4602,0.9342,0.9938,1.0000,1,1,1,0.5398,0.8466,0.9080,0.9540
v_abstract_1_6,viewpoint,1388,1285,35.75,0.9418,0.9164,0.9849,0.9950,1,1,1,0.0582,0.6861,0.8116,0.9058
v_adam_1_2,viewpoint,1698,1662,37.09,0.4867,0.9770,0.9994,1.0000,1,1,1,0.5133,0.8378,0.9027,0.9513
v_adam_1_3,viewpoint,1472,1412,33.99,0.7829,0.9497,0.9959,1.0000,1,1,1,0.2171,0.7390,0.8434,0.9217
v_adam_1_4,viewpoint,942,904,28.87,1.0314,0.9427,0.9989,1.0000,1,1,1,0.0000,0.6562,0.7937,0.8969
v_adam_1_5,viewpoint,1321,1286,32.03,0.5106,0.9674,0.9992,1.0000,1,1,1,0.4894,0.8298,0.8979,0.9489
v_adam_1_6,viewpoint,1286,1229,31.94,0.9760,0.9401,0.9946,1.0000,1,1,1,0.0240,0.6747,0.8048,0.9024
v_apprentices_1_2,viewpoint,1672,1602,43.05,0.1500,0.9563,0.9976,0.9994,1,1,1,0.8500,0.9500,0.9700,0.9850
v_apprentices_1_3,viewpoint,1623,1572,32.27,0.3634,0.9655,0.9975,1.0000,1,1,1,0.6366,0.8789,0.9273,0.9637
v_apprentices_1_4,viewpoint,1369,1286,30.60,0.3672,0.9401,0.9905,0.9978,1,1,1,0.6328,0.8776,0.9266,0.9633
v_apprentices_1_5,viewpoint,1162,1088,29.84,0.6842,0.9346,0.9862,0.9983,1,1,1,0.3158,0.7719,0.8632,0.9316
v_apprentices_1_6,viewpoint,1020,968,30.81,0.4597,0.9490,0.9951,1.0000,1,1,1,0.5403,0.8468,0.9081,0.9540
v_azzola_1_2,viewpoint,2004,1875,49.32,0.5416,0.9321,0.9920,0.9990,1,1,1,0.4584,0.8195,0.8917,0.9458
v_azzola_1_3,viewpoint,1620,1419,35.95,1.3967,0.8574,0.9821,0.9981,1,1,1,0.0000,0.5344,0.7207,0.8603
v_azzola_1_4,viewpoint,1926,1860,38.77,0.3576,0.9647,0.9953,0.9995,1,1,1,0.6424,0.8808,0.9285,0.9642
v_azzola_1_5,viewpoint,1371,1193,34.91,0.5928,0.8556,0.9745,0.9978,1,1,1,0.4072,0.8024,0.8814,0.9407
v_azzola_1_6,viewpoint,850,629,28.60,2.3470,0.7247,0.8894,0.9600,1,1,1,0.0000,0.2177,0.5306,0.7653
v_bark_1_2,viewpoint,1632,1518,36.57,0.4908,0.9308,0.9884,1.0000,1,1,1,0.5092,0.8364,0.9018,0.9509
v_bark_1_3,viewpoint,9,8,35.03,1117.4514,0.0000,0.0000,0.0000,0,0,0,0.0000,0.0000,0.0000,0.0000
v_bark_1_4,viewpoint,7,5,34.80,281.1488,0.0000,0.0000,0.0000,0,0,0,0.0000,0.0000,0.0000,0.0000
v_bark_1_5,viewpoint,111,25,34.71,222.8554,0.2072,0.2973,0.3514,0,0,0,0.0000,0.0000,0.0000,0.0000
v_bark_1_6,viewpoint,25,12,34.70,719.2495,0.0000,0.0000,0.0000,0,0,0,0.0000,0.0000,0.0000,0.0000
v_bees_1_2,viewpoint,2366,2279,46.47,0.1283,0.9632,0.9941,1.0000,1,1,1,0.8717,0.9572,0.9743,0.9872
v_bees_1_3,viewpoint,2447,2360,46.79,0.5251,0.9604,0.9926,1.0000,1,1,1,0.4749,0.8250,0.8950,0.9475
v_bees_1_4,viewpoint,2144,2068,42.54,0.7815,0.9594,0.9916,0.9991,1,1,1,0.2185,0.7395,0.8437,0.9218
v_bees_1_5,viewpoint,1663,1539,36.92,0.8785,0.9140,0.9759,0.9904,1,1,1,0.1215,0.7072,0.8243,0.9122
v_bees_1_6,viewpoint,1774,1603,35.82,0.7507,0.9036,0.9645,0.9893,1,1,1,0.2493,0.7498,0.8499,0.9249
v_beyus_1_2,viewpoint,665,616,33.13,0.9536,0.9128,0.9729,0.9880,1,1,1,0.0464,0.6821,0.8093,0.9046
v_beyus_1_3,viewpoint,733,588,25.77,3.7421,0.7681,0.9250,0.9768,0,1,1,0.0000,0.0000,0.2516,0.6258
v_beyus_1_4,viewpoint,846,792,24.71,0.7649,0.9279,0.9811,0.9976,1,1,1,0.2351,0.7450,0.8470,0.9235
v_beyus_1_5,viewpoint,562,511,23.59,1.1113,0.8772,0.9698,0.9929,1,1,1,0.0000,0.6296,0.7777,0.8889
v_beyus_1_6,viewpoint,808,729,25.63,1.0083,0.8886,0.9790,0.9963,1,1,1,0.0000,0.6639,0.7983,0.8992
v_bip_1_2,viewpoint,1293,1259,30.93,0.2925,0.9729,0.9961,1.0000,1,1,1,0.7075,0.9025,0.9415,0.9708
v_bip_1_3,viewpoint,1224,1190,31.45,0.2772,0.9698,0.9975,1.0000,1,1,1,0.7228,0.9076,0.9446,0.9723
v_bip_1_4,viewpoint,1243,1214,30.57,0.2237,0.9791,0.9976,1.0000,1,1,1,0.7763,0.9254,0.9553,0.9776
v_bip_1_5,viewpoint,648,610,26.99,0.7021,0.9491,0.9861,0.9969,1,1,1,0.2979,0.7660,0.8596,0.9298
v_bip_1_6,viewpoint,436,416,25.49,0.6884,0.9381,0.9885,0.9977,1,1,1,0.3116,0.7705,0.8623,0.9312
v_bird_1_2,viewpoint,1232,1169,35.00,76.8706,0.0000,0.0000,0.0000,0,0,0,0.0000,0.0000,0.0000,0.0000
v_bird_1_3,viewpoint,1165,1070,33.09,85.0507,0.0000,0.0000,0.0000,0,0,0,0.0000,0.0000,0.0000,0.0000
v_bird_1_4,viewpoint,1196,1097,33.13,99.4263,0.0000,0.0000,0.0000,0,0,0,0.0000,0.0000,0.0000,0.0000
v_bird_1_5,viewpoint,1101,908,32.26,89.5120,0.0000,0.0000,0.0000,0,0,0,0.0000,0.0000,0.0000,0.0000
v_bird_1_6,viewpoint,648,499,28.94,181.8291,0.0000,0.0000,0.0000,0,0,0,0.0000,0.0000,0.0000,0.0000
v_birdwoman_1_2,viewpoint,725,655,34.27,43.8396,0.0000,0.0000,0.0000,0,0,0,0.0000,0.0000,0.0000,0.0000
v_birdwoman_1_3,viewpoint,1104,1025,37.22,54.3059,0.0000,0.0000,0.0000,0,0,0,0.0000,0.0000,0.0000,0.0000
v_birdwoman_1_4,viewpoint,1474,1431,39.20,50.5346,0.0000,0.0000,0.0000,0,0,0,0.0000,0.0000,0.0000,0.0000
v_birdwoman_1_5,viewpoint,2071,1966,51.33,52.7332,0.0000,0.0000,0.0010,0,0,0,0.0000,0.0000,0.0000,0.0000
v_birdwoman_1_6,viewpoint,1542,1489,40.60,51.5901,0.0000,0.0000,0.0000,0,0,0,0.0000,0.0000,0.0000,0.0000
v_blueprint_1_2,viewpoint,1948,1895,42.31,0.2423,0.9713,0.9990,0.9995,1,1,1,0.7577,0.9192,0.9515,0.9758
v_blueprint_1_3,viewpoint,1607,1555,37.03,0.3618,0.9689,0.9963,1.0000,1,1,1,0.6382,0.8794,0.9276,0.9638
v_blueprint_1_4,viewpoint,1830,1789,38.82,0.5111,0.9749,0.9956,0.9995,1,1,1,0.4889,0.8296,0.8978,0.9489
v_blueprint_1_5,viewpoint,1425,1381,34.93,0.5174,0.9684,0.9944,0.9979,1,1,1,0.4826,0.8275,0.8965,0.9483
v_blueprint_1_6,viewpoint,1165,1103,30.09,1.5585,0.9348,0.9906,0.9983,1,1,1,0.0000,0.4805,0.6883,0.8441
v_boat_1_2,viewpoint,2288,2186,57.94,0.5331,0.9510,0.9939,1.0000,1,1,1,0.4669,0.8223,0.8934,0.9467
v_boat_1_3,viewpoint,1832,1673,44.25,0.8746,0.9072,0.9858,0.9973,1,1,1,0.1254,0.7085,0.8251,0.9125
v_boat_1_4,viewpoint,60,32,36.89,33.5547,0.4333,0.7333,0.8667,0,0,0,0.0000,0.0000,0.0000,0.0000
v_boat_1_5,viewpoint,0,0,16.80,inf,0.0000,0.0000,0.0000,0,0,0,0.0000,0.0000,0.0000,0.0000
v_boat_1_6,viewpoint,712,688,31.10,0.6218,0.9494,1.0000,1.0000,1,1,1,0.3782,0.7927,0.8756,0.9378
v_bricks_1_2,viewpoint,2386,2332,50.24,33.2841,0.0029,0.0155,0.0419,0,0,0,0.0000,0.0000,0.0000,0.0000
v_bricks_1_3,viewpoint,2302,2216,46.81,31.9135,0.0009,0.0074,0.0343,0,0,0,0.0000,0.0000,0.0000,0.0000
v_bricks_1_4,viewpoint,1916,1873,42.59,31.0773,0.0005,0.0021,0.0136,0,0,0,0.0000,0.0000,0.0000,0.0000
v_bricks_1_5,viewpoint,1699,1613,40.89,27.7817,0.0006,0.0053,0.0283,0,0,0,0.0000,0.0000,0.0000,0.0000
v_bricks_1_6,viewpoint,1226,1041,38.87,25.9147,0.0008,0.0041,0.0106,0,0,0,0.0000,0.0000,0.0000,0.0000
v_busstop_1_2,viewpoint,2159,2085,45.31,0.3178,0.9662,0.9968,1.0000,1,1,1,0.6822,0.8941,0.9364,0.9682
v_busstop_1_3,viewpoint,1796,1693,41.77,0.3111,0.9427,0.9900,0.9994,1,1,1,0.6889,0.8963,0.9378,0.9689
v_busstop_1_4,viewpoint,1904,1840,42.25,0.5971,0.9643,0.9932,0.9995,1,1,1,0.4029,0.8010,0.8806,0.9403
v_busstop_1_5,viewpoint,1838,1796,41.24,0.3121,0.9771,0.9984,1.0000,1,1,1,0.6879,0.8960,0.9376,0.9688
v_busstop_1_6,viewpoint,2225,2166,45.77,0.4729,0.9703,0.9991,0.9996,1,1,1,0.5271,0.8424,0.9054,0.9527
v_calder_1_2,viewpoint,1449,1386,36.76,0.5857,0.9489,0.9917,0.9979,1,1,1,0.4143,0.8048,0.8829,0.9414
v_calder_1_3,viewpoint,1834,1747,40.53,0.4191,0.9509,0.9929,1.0000,1,1,1,0.5809,0.8603,0.9162,0.9581
v_calder_1_4,viewpoint,996,939,30.56,0.9369,0.9398,0.9920,0.9970,1,1,1,0.0631,0.6877,0.8126,0.9063
v_calder_1_5,viewpoint,847,789,29.79,0.4133,0.9256,0.9929,0.9976,1,1,1,0.5867,0.8622,0.9173,0.9587
v_calder_1_6,viewpoint,592,498,27.33,0.9905,0.8209,0.9426,0.9848,1,1,1,0.0095,0.6698,0.8019,0.9010
v_cartooncity_1_2,viewpoint,1711,1650,36.59,62.2642,0.0000,0.0000,0.0029,0,0,0,0.0000,0.0000,0.0000,0.0000
v_cartooncity_1_3,viewpoint,1034,902,30.64,66.4120,0.0000,0.0000,0.0000,0,0,0,0.0000,0.0000,0.0000,0.0000
v_cartooncity_1_4,viewpoint,1570,1485,32.79,74.7766,0.0000,0.0013,0.0038,0,0,0,0.0000,0.0000,0.0000,0.0000
v_cartooncity_1_5,viewpoint,1162,1059,29.62,76.2322,0.0000,0.0000,0.0000,0,0,0,0.0000,0.0000,0.0000,0.0000
v_cartooncity_1_6,viewpoint,975,857,30.03,69.8931,0.0000,0.0000,0.0000,0,0,0,0.0000,0.0000,0.0000,0.0000
v_charing_1_2,viewpoint,513,429,21.43,4.2873,0.8324,0.9591,0.9922,0,1,1,0.0000,0.0000,0.1425,0.5713
v_charing_1_3,viewpoint,418,293,22.07,37.5250,0.6938,0.8708,0.9354,0,0,0,0.0000,0.0000,0.0000,0.0000
v_charing_1_4,viewpoint,477,404,20.79,3.8533,0.8302,0.9518,0.9895,0,1,1,0.0000,0.0000,0.2293,0.6147
v_charing_1_5,viewpoint,470,376,20.81,47.7496,0.7830,0.9426,0.9809,0,0,0,0.0000,0.0000,0.0000,0.0000
v_charing_1_6,viewpoint,469,355,22.93,281.7384,0.7441,0.9062,0.9552,0,0,0,0.0000,0.0000,0.0000,0.0000
v_churchill_1_2,viewpoint,1399,1283,34.36,1.4176,0.9199,0.9771,0.9943,1,1,1,0.0000,0.5275,0.7165,0.8582
v_churchill_1_3,viewpoint,1213,1054,31.56,3.4671,0.8648,0.9580,0.9843,0,1,1,0.0000,0.0000,0.3066,0.6533
v_churchill_1_4,viewpoint,1103,1003,29.60,1.5997,0.9112,0.9755,0.9946,1,1,1,0.0000,0.4668,0.6801,0.8400
v_churchill_1_5,viewpoint,1547,1509,31.65,0.5621,0.9729,0.9961,0.9994,1,1,1,0.4379,0.8126,0.8876,0.9438
v_churchill_1_6,viewpoint,884,742,29.28,2.9167,0.8439,0.9333,0.9661,1,1,1,0.0000,0.0278,0.4167,0.7083
v_circus_1_2,viewpoint,1164,1067,28.05,0.5196,0.9149,0.9880,0.9974,1,1,1,0.4804,0.8268,0.8961,0.9480
v_circus_1_3,viewpoint,1078,830,26.68,1.1031,0.7681,0.9499,0.9814,1,1,1,0.0000,0.6323,0.7794,0.8897
v_circus_1_4,viewpoint,843,596,26.19,0.7098,0.6940,0.8849,0.9537,1,1,1,0.2902,0.7634,0.8580,0.9290
v_circus_1_5,viewpoint,1196,994,25.16,0.5893,0.8336,0.9607,0.9941,1,1,1,0.4107,0.8036,0.8821,0.9411
v_circus_1_6,viewpoint,1055,882,26.58,0.7081,0.8180,0.9555,0.9905,1,1,1,0.2919,0.7640,0.8584,0.9292
v_coffeehouse_1_2,viewpoint,1121,1052,30.42,0.4942,0.9393,0.9866,0.9964,1,1,1,0.5058,0.8353,0.9012,0.9506
v_coffeehouse_1_3,viewpoint,1191,1101,29.43,0.4735,0.9177,0.9731,0.9941,1,1,1,0.5265,0.8422,0.9053,0.9527
v_coffeehouse_1_4,viewpoint,1053,967,28.07,1.0864,0.9107,0.9829,0.9962,1,1,1,0.0000,0.6379,0.7827,0.8914
v_coffeehouse_1_5,viewpoint,1044,991,29.71,0.4424,0.9483,0.9904,0.9990,1,1,1,0.5576,0.8525,0.9115,0.9558
v_coffeehouse_1_6,viewpoint,827,722,31.25,0.8102,0.8706,0.9661,0.9927,1,1,1,0.1898,0.7299,0.8380,0.9190
v_colors_1_2,viewpoint,1366,873,33.65,1.1075,0.6340,0.8968,0.9700,1,1,1,0.0000,0.6308,0.7785,0.8893
v_colors_1_3,viewpoint,771,374,29.66,0.9367,0.4942,0.7160,0.8301,1,1,1,0.0633,0.6878,0.8127,0.9063
v_colors_1_4,viewpoint,11,5,27.57,487.4515,0.0000,0.0000,0.0000,0,0,0,0.0000,0.0000,0.0000,0.0000
v_colors_1_5,viewpoint,6,4,28.30,450.3511,0.0000,0.0000,0.0000,0,0,0,0.0000,0.0000,0.0000,0.0000
v_colors_1_6,viewpoint,0,0,14.33,inf,0.0000,0.0000,0.0000,0,0,0,0.0000,0.0000,0.0000,0.0000
v_courses_1_2,viewpoint,1496,1378,32.33,0.3284,0.9178,0.9880,1.0000,1,1,1,0.6716,0.8905,0.9343,0.9672
v_courses_1_3,viewpoint,1305,1167,28.39,1.0088,0.8935,0.9839,0.9954,1,1,1,0.0000,0.6637,0.7982,0.8991
v_courses_1_4,viewpoint,1256,1185,28.78,0.7001,0.9363,0.9976,0.9992,1,1,1,0.2999,0.7666,0.8600,0.9300
v_courses_1_5,viewpoint,1048,920,28.00,3.0570,0.8387,0.9676,0.9914,0,1,1,0.0000,0.0000,0.3886,0.6943
v_courses_1_6,viewpoint,975,800,25.96,5.9347,0.7497,0.9282,0.9785,0,0,1,0.0000,0.0000,0.0000,0.4065
v_dirtywall_1_2,viewpoint,1676,1611,44.60,0.2899,0.9600,0.9964,0.9994,1,1,1,0.7101,0.9034,0.9420,0.9710
v_dirtywall_1_3,viewpoint,1589,1487,35.36,0.3493,0.9358,0.9880,0.9987,1,1,1,0.6507,0.8836,0.9301,0.9651
v_dirtywall_1_4,viewpoint,1297,1160,34.64,0.6012,0.8867,0.9761,0.9954,1,1,1,0.3988,0.7996,0.8798,0.9399
v_dirtywall_1_5,viewpoint,1458,1356,36.20,0.4523,0.9300,0.9822,0.9945,1,1,1,0.5477,0.8492,0.9095,0.9548
v_dirtywall_1_6,viewpoint,1038,942,29.37,0.6562,0.9027,0.9740,0.9961,1,1,1,0.3438,0.7813,0.8688,0.9344
v_dogman_1_2,viewpoint,1105,996,27.46,1.2771,0.9140,0.9738,0.9891,1,1,1,0.0000,0.5743,0.7446,0.8723
v_dogman_1_3,viewpoint,1121,1050,26.38,0.7912,0.9376,0.9786,0.9857,1,1,1,0.2088,0.7363,0.8418,0.9209
v_dogman_1_4,viewpoint,754,618,26.09,2.0862,0.8050,0.9390,0.9867,1,1,1,0.0000,0.3046,0.5828,0.7914
v_dogman_1_5,viewpoint,977,884,26.52,1.2136,0.8987,0.9744,0.9939,1,1,1,0.0000,0.5955,0.7573,0.8786
v_dogman_1_6,viewpoint,535,396,24.05,68.9377,0.7290,0.8579,0.9178,0,0,0,0.0000,0.0000,0.0000,0.0000
v_eastsouth_1_2,viewpoint,2211,2168,45.53,0.1414,0.9806,0.9991,1.0000,1,1,1,0.8586,0.9529,0.9717,0.9859
v_eastsouth_1_3,viewpoint,1671,1541,42.66,0.4717,0.9192,0.9874,0.9988,1,1,1,0.5283,0.8428,0.9057,0.9528
v_eastsouth_1_4,viewpoint,20,14,38.19,394.9221,0.0000,0.0000,0.0000,0,0,0,0.0000,0.0000,0.0000,0.0000
v_eastsouth_1_5,viewpoint,689,589,38.06,0.8314,0.8491,0.9811,0.9971,1,1,1,0.1686,0.7229,0.8337,0.9169
v_eastsouth_1_6,viewpoint,630,600,34.37,0.7316,0.9540,0.9968,1.0000,1,1,1,0.2684,0.7561,0.8537,0.9268
v_feast_1_2,viewpoint,1467,1413,35.57,0.2217,0.9625,0.9973,1.0000,1,1,1,0.7783,0.9261,0.9557,0.9778
v_feast_1_3,viewpoint,1888,1787,41.76,0.3329,0.9380,0.9952,0.9995,1,1,1,0.6671,0.8890,0.9334,0.9667
v_feast_1_4,viewpoint,1286,1227,37.29,0.7671,0.9425,0.9961,1.0000,1,1,1,0.2329,0.7443,0.8466,0.9233
v_feast_1_5,viewpoint,1689,1599,41.73,0.8461,0.9343,0.9893,1.0000,1,1,1,0.1539,0.7180,0.8308,0.9154
v_feast_1_6,viewpoint,1455,1361,40.94,0.6173,0.9203,0.9890,0.9993,1,1,1,0.3827,0.7942,0.8765,0.9383
v_fest_1_2,viewpoint,2055,1957,44.32,0.3885,0.9528,0.9922,1.0000,1,1,1,0.6115,0.8705,0.9223,0.9611
v_fest_1_3,viewpoint,1594,1415,38.09,2.0404,0.8808,0.9724,0.9925,1,1,1,0.0000,0.3199,0.5919,0.7960
v_fest_1_4,viewpoint,1557,1470,36.36,0.4805,0.9441,0.9961,0.9994,1,1,1,0.5195,0.8398,0.9039,0.9519
v_fest_1_5,viewpoint,1561,1454,36.99,1.2451,0.9250,0.9827,0.9942,1,1,1,0.0000,0.5850,0.7510,0.8755
v_fest_1_6,viewpoint,1314,1151,35.72,1.6497,0.8706,0.9673,0.9909,1,1,1,0.0000,0.4501,0.6701,0.8350
v_gardens_1_2,viewpoint,1699,1550,37.83,0.8663,0.9076,0.9753,0.9912,1,1,1,0.1337,0.7112,0.8267,0.9134
v_gardens_1_3,viewpoint,973,765,32.76,4.7751,0.7657,0.9116,0.9589,0,1,1,0.0000,0.0000,0.0450,0.5225
v_gardens_1_4,viewpoint,1960,1841,41.15,0.8388,0.9352,0.9878,0.9964,1,1,1,0.1612,0.7204,0.8322,0.9161
v_gardens_1_5,viewpoint,1295,1114,35.36,1.8556,0.8440,0.9452,0.9745,1,1,1,0.0000,0.3815,0.6289,0.8144
v_gardens_1_6,viewpoint,1748,1617,38.49,0.5026,0.9256,0.9851,1.0000,1,1,1,0.4974,0.8325,0.8995,0.9497
v_grace_1_2,viewpoint,1960,1725,44.22,0.4880,0.8776,0.9816,0.9990,1,1,1,0.5120,0.8373,0.9024,0.9512
v_grace_1_3,viewpoint,1791,1558,44.75,0.8000,0.8682,0.9782,0.9978,1,1,1,0.2000,0.7333,0.8400,0.9200
v_grace_1_4,viewpoint,1635,1395,40.04,1.5254,0.8422,0.9566,0.9920,1,1,1,0.0000,0.4915,0.6949,0.8475
v_grace_1_5,viewpoint,1327,1027,37.50,2.6785,0.7641,0.9164,0.9721,1,1,1,0.0000,0.1072,0.4643,0.7322
v_grace_1_6,viewpoint,737,444,34.00,2.4404,0.5997,0.7666,0.8426,1,1,1,0.0000,0.1865,0.5119,0.7560
v_graffiti_1_2,viewpoint,1818,1646,40.45,0.6246,0.9076,0.9813,1.0000,1,1,1,0.3754,0.7918,0.8751,0.9375
v_graffiti_1_3,viewpoint,1575,1378,38.55,1.2727,0.8667,0.9841,0.9987,1,1,1,0.0000,0.5758,0.7455,0.8727
v_graffiti_1_4,viewpoint,1382,1082,38.60,1.6946,0.7482,0.9240,0.9761,1,1,1,0.0000,0.4351,0.6611,0.8305
v_graffiti_1_5,viewpoint,1063,843,35.23,0.8737,0.7808,0.9398,0.9944,1,1,1,0.1263,0.7088,0.8253,0.9126
v_graffiti_1_6,viewpoint,132,73,35.64,6.5650,0.4773,0.7652,0.8864,0,0,1,0.0000,0.0000,0.0000,0.3435
v_home_1_2,viewpoint,1225,1188,36.18,0.8241,0.9641,0.9951,1.0000,1,1,1,0.1759,0.7253,0.8352,0.9176
v_home_1_3,viewpoint,1131,1057,33.64,1.3949,0.9257,0.9876,0.9965,1,1,1,0.0000,0.5350,0.7210,0.8605
v_home_1_4,viewpoint,1217,1178,33.58,0.7411,0.9696,0.9967,0.9992,1,1,1,0.2589,0.7530,0.8518,0.9259
v_home_1_5,viewpoint,1168,1056,35.96,5.4667,0.8664,0.9649,0.9863,0,0,1,0.0000,0.0000,0.0000,0.4533
v_home_1_6,viewpoint,1177,1044,30.16,1.1208,0.8853,0.9805,0.9975,1,1,1,0.0000,0.6264,0.7758,0.8879
v_laptop_1_2,viewpoint,1060,1002,25.11,0.2835,0.9453,0.9962,1.0000,1,1,1,0.7165,0.9055,0.9433,0.9717
v_laptop_1_3,viewpoint,792,724,23.39,0.7659,0.9167,0.9949,1.0000,1,1,1,0.2341,0.7447,0.8468,0.9234
v_laptop_1_4,viewpoint,94,53,20.37,3.0886,0.5532,0.7766,0.8723,0,1,1,0.0000,0.0000,0.3823,0.6911
v_laptop_1_5,viewpoint,10,8,20.47,226.1772,0.0000,0.0000,0.0000,0,0,0,0.0000,0.0000,0.0000,0.0000
v_laptop_1_6,viewpoint,10,7,17.86,250.2322,0.0000,0.0000,0.0000,0,0,0,0.0000,0.0000,0.0000,0.0000
v_london_1_2,viewpoint,1852,1783,38.13,0.3106,0.9627,0.9946,0.9989,1,1,1,0.6894,0.8965,0.9379,0.9689
v_london_1_3,viewpoint,1690,1634,34.95,0.2053,0.9669,0.9994,1.0000,1,1,1,0.7947,0.9316,0.9589,0.9795
v_london_1_4,viewpoint,1607,1509,35.01,1.1515,0.9347,0.9888,0.9950,1,1,1,0.0000,0.6162,0.7697,0.8848
v_london_1_5,viewpoint,1817,1753,37.25,0.2966,0.9626,0.9928,0.9983,1,1,1,0.7034,0.9011,0.9407,0.9703
v_london_1_6,viewpoint,1960,1911,37.42,0.1535,0.9755,0.9954,0.9995,1,1,1,0.8465,0.9488,0.9693,0.9846
v_machines_1_2,viewpoint,1446,1363,28.83,0.6907,0.9371,0.9924,0.9993,1,1,1,0.3093,0.7698,0.8619,0.9309
v_machines_1_3,viewpoint,1051,908,27.05,2.7444,0.8126,0.9591,0.9924,1,1,1,0.0000,0.0852,0.4511,0.7256
v_machines_1_4,viewpoint,1217,1177,25.67,0.5430,0.9647,0.9959,1.0000,1,1,1,0.4570,0.8190,0.8914,0.9457
v_machines_1_5,viewpoint,940,870,25.52,1.7563,0.9064,0.9830,0.9968,1,1,1,0.0000,0.4146,0.6487,0.8244
v_machines_1_6,viewpoint,1084,1050,26.35,0.3224,0.9677,0.9982,1.0000,1,1,1,0.6776,0.8925,0.9355,0.9678
v_man_1_2,viewpoint,1605,1414,36.56,1.8666,0.8617,0.9769,0.9975,1,1,1,0.0000,0.3778,0.6267,0.8133
v_man_1_3,viewpoint,1218,1054,33.28,3.6167,0.8169,0.9589,0.9836,0,1,1,0.0000,0.0000,0.2767,0.6383
v_man_1_4,viewpoint,1282,998,33.58,3.4881,0.7262,0.9228,0.9797,0,1,1,0.0000,0.0000,0.3024,0.6512
v_man_1_5,viewpoint,1415,1270,34.81,2.4698,0.8707,0.9823,0.9972,1,1,1,0.0000,0.1767,0.5060,0.7530
v_man_1_6,viewpoint,1405,1265,34.37,1.6524,0.8712,0.9779,0.9972,1,1,1,0.0000,0.4492,0.6695,0.8348
v_maskedman_1_2,viewpoint,1133,1022,31.17,1.1275,0.8888,0.9673,0.9921,1,1,1,0.0000,0.6242,0.7745,0.8873
v_maskedman_1_3,viewpoint,870,783,29.57,1.3208,0.8954,0.9667,0.9920,1,1,1,0.0000,0.5597,0.7358,0.8679
v_maskedman_1_4,viewpoint,1258,1162,32.67,2.5024,0.9181,0.9825,0.9960,1,1,1,0.0000,0.1659,0.4995,0.7498
v_maskedman_1_5,viewpoint,1323,1239,35.10,2.0334,0.9342,0.9864,0.9962,1,1,1,0.0000,0.3222,0.5933,0.7967
v_maskedman_1_6,viewpoint,469,378,24.81,0.9717,0.7910,0.9574,0.9872,1,1,1,0.0283,0.6761,0.8057,0.9028
v_pomegranate_1_2,viewpoint,2118,1937,44.24,0.3549,0.9150,0.9849,0.9981,1,1,1,0.6451,0.8817,0.9290,0.9645
v_pomegranate_1_3,viewpoint,1961,1710,41.29,1.1622,0.8552,0.9791,0.9975,1,1,1,0.0000,0.6126,0.7676,0.8838
v_pomegranate_1_4,viewpoint,1728,1601,38.68,0.5715,0.9236,0.9902,0.9971,1,1,1,0.4285,0.8095,0.8857,0.9429
v_pomegranate_1_5,viewpoint,1823,1648,40.34,0.9037,0.8936,0.9813,0.9973,1,1,1,0.0963,0.6988,0.8193,0.9096
v_pomegranate_1_6,viewpoint,1809,1654,39.79,0.7405,0.9093,0.9884,0.9989,1,1,1,0.2595,0.7532,0.8519,0.9260
v_posters_1_2,viewpoint,1460,1398,45.85,115.1261,0.0000,0.0000,0.0000,0,0,0,0.0000,0.0000,0.0000,0.0000
v_posters_1_3,viewpoint,1786,1721,40.14,120.8321,0.0000,0.0000,0.0000,0,0,0,0.0000,0.0000,0.0000,0.0000
v_posters_1_4,viewpoint,1633,1574,40.14,112.5527,0.0000,0.0000,0.0000,0,0,0,0.0000,0.0000,0.0000,0.0000
v_posters_1_5,viewpoint,1426,1307,38.71,124.8855,0.0000,0.0000,0.0000,0,0,0,0.0000,0.0000,0.0000,0.0000
v_posters_1_6,viewpoint,1410,1164,39.53,147.2748,0.0000,0.0000,0.0000,0,0,0,0.0000,0.0000,0.0000,0.0000
v_samples_1_2,viewpoint,1988,1887,43.39,68.2333,0.0000,0.0000,0.0000,0,0,0,0.0000,0.0000,0.0000,0.0000
v_samples_1_3,viewpoint,2081,2017,46.25,72.5758,0.0000,0.0000,0.0005,0,0,0,0.0000,0.0000,0.0000,0.0000
v_samples_1_4,viewpoint,1993,1857,44.69,72.0639,0.0000,0.0015,0.0055,0,0,0,0.0000,0.0000,0.0000,0.0000
v_samples_1_5,viewpoint,1913,1841,41.29,80.7352,0.0000,0.0000,0.0000,0,0,0,0.0000,0.0000,0.0000,0.0000
v_samples_1_6,viewpoint,1841,1709,41.54,67.4027,0.0000,0.0033,0.0098,0,0,0,0.0000,0.0000,0.0000,0.0000
v_soldiers_1_2,viewpoint,1615,1466,37.65,0.9055,0.9090,0.9851,0.9957,1,1,1,0.0945,0.6982,0.8189,0.9094
v_soldiers_1_3,viewpoint,1174,1009,32.71,1.6868,0.8620,0.9651,0.9889,1,1,1,0.0000,0.4377,0.6626,0.8313
v_soldiers_1_4,viewpoint,946,799,32.20,2.5005,0.8362,0.9471,0.9810,1,1,1,0.0000,0.1665,0.4999,0.7499
v_soldiers_1_5,viewpoint,767,587,33.79,5.0122,0.7262,0.9022,0.9596,0,0,1,0.0000,0.0000,0.0000,0.4988
v_soldiers_1_6,viewpoint,1419,1310,37.81,97.0765,0.0000,0.0000,0.0000,0,0,0,0.0000,0.0000,0.0000,0.0000
v_strand_1_2,viewpoint,1898,1839,35.45,0.3091,0.9663,0.9968,1.0000,1,1,1,0.6909,0.8970,0.9382,0.9691
v_strand_1_3,viewpoint,1426,1282,31.56,1.2283,0.8513,0.9832,1.0000,1,1,1,0.0000,0.5906,0.7543,0.8772
v_strand_1_4,viewpoint,1511,1379,34.03,2.4853,0.8815,0.9861,0.9987,1,1,1,0.0000,0.1716,0.5029,0.7515
v_strand_1_5,viewpoint,1537,1368,33.93,2.2856,0.8621,0.9733,0.9954,1,1,1,0.0000,0.2381,0.5429,0.7714
v_strand_1_6,viewpoint,1223,1059,28.33,4.4480,0.7768,0.9477,0.9869,0,1,1,0.0000,0.0000,0.1104,0.5552
v_sunseason_1_2,viewpoint,2302,2224,42.74,0.1760,0.9657,0.9970,1.0000,1,1,1,0.8240,0.9413,0.9648,0.9824
v_sunseason_1_3,viewpoint,2035,1951,41.04,0.2205,0.9572,0.9946,0.9995,1,1,1,0.7795,0.9265,0.9559,0.9780
v_sunseason_1_4,viewpoint,1370,1287,35.37,0.6562,0.9380,0.9854,0.9920,1,1,1,0.3438,0.7813,0.8688,0.9344
v_sunseason_1_5,viewpoint,1206,1092,34.69,0.5678,0.8988,0.9710,0.9876,1,1,1,0.4322,0.8107,0.8864,0.9432
v_sunseason_1_6,viewpoint,1017,813,35.31,1.8223,0.7925,0.8830,0.9105,1,1,1,0.0000,0.3926,0.6355,0.8178
v_tabletop_1_2,viewpoint,1524,1440,36.73,0.4209,0.9449,0.9915,1.0000,1,1,1,0.5791,0.8597,0.9158,0.9579
v_tabletop_1_3,viewpoint,1121,956,30.02,0.8689,0.8501,0.9643,0.9911,1,1,1,0.1311,0.7104,0.8262,0.9131
v_tabletop_1_4,viewpoint,1063,902,29.17,0.7409,0.8420,0.9652,0.9925,1,1,1,0.2591,0.7530,0.8518,0.9259
v_tabletop_1_5,viewpoint,1082,948,31.98,0.8851,0.8715,0.9732,0.9945,1,1,1,0.1149,0.7050,0.8230,0.9115
v_tabletop_1_6,viewpoint,1116,971,32.68,0.9854,0.8692,0.9713,0.9928,1,1,1,0.0146,0.6715,0.8029,0.9015
v_tempera_1_2,viewpoint,1134,1107,28.11,0.2418,0.9753,0.9974,1.0000,1,1,1,0.7582,0.9194,0.9516,0.9758
v_tempera_1_3,viewpoint,1173,1118,28.24,0.5522,0.9540,0.9932,0.9991,1,1,1,0.4478,0.8159,0.8896,0.9448
v_tempera_1_4,viewpoint,1038,1000,24.43,0.4890,0.9624,0.9981,1.0000,1,1,1,0.5110,0.8370,0.9022,0.9511
v_tempera_1_5,viewpoint,1026,970,27.22,1.1687,0.9444,0.9951,0.9990,1,1,1,0.0000,0.6104,0.7663,0.8831
v_tempera_1_6,viewpoint,651,576,24.35,1.3373,0.8725,0.9693,0.9862,1,1,1,0.0000,0.5542,0.7325,0.8663
v_there_1_2,viewpoint,1650,1431,40.61,0.8254,0.8545,0.9758,0.9988,1,1,1,0.1746,0.7249,0.8349,0.9175
v_there_1_3,viewpoint,535,449,28.59,2.4578,0.7963,0.9533,0.9907,1,1,1,0.0000,0.1807,0.5084,0.7542
v_there_1_4,viewpoint,105,77,29.99,11.3955,0.6381,0.8762,0.9333,0,0,0,0.0000,0.0000,0.0000,0.0000
v_there_1_5,viewpoint,0,0,16.72,inf,0.0000,0.0000,0.0000,0,0,0,0.0000,0.0000,0.0000,0.0000
v_there_1_6,viewpoint,2,0,32.01,inf,0.0000,0.0000,0.0000,0,0,0,0.0000,0.0000,0.0000,0.0000
v_underground_1_2,viewpoint,1624,1515,37.05,0.3598,0.9304,0.9865,0.9957,1,1,1,0.6402,0.8801,0.9280,0.9640
v_underground_1_3,viewpoint,1455,1320,31.75,0.6040,0.9072,0.9759,0.9952,1,1,1,0.3960,0.7987,0.8792,0.9396
v_underground_1_4,viewpoint,1196,1003,29.81,1.1283,0.8395,0.9490,0.9799,1,1,1,0.0000,0.6239,0.7743,0.8872
v_underground_1_5,viewpoint,981,756,30.28,1.4645,0.7676,0.9103,0.9664,1,1,1,0.0000,0.5118,0.7071,0.8535
v_underground_1_6,viewpoint,749,456,29.50,9.2855,0.6101,0.8037,0.9159,0,0,0,0.0000,0.0000,0.0000,0.0714
v_vitro_1_2,viewpoint,1813,1738,35.15,0.2357,0.9592,0.9989,1.0000,1,1,1,0.7643,0.9214,0.9529,0.9764
v_vitro_1_3,viewpoint,1715,1616,34.48,0.2992,0.9376,0.9942,1.0000,1,1,1,0.7008,0.9003,0.9402,0.9701
v_vitro_1_4,viewpoint,1522,1401,32.46,0.4134,0.9166,0.9928,1.0000,1,1,1,0.5866,0.8622,0.9173,0.9587
v_vitro_1_5,viewpoint,1763,1640,34.06,0.2595,0.9274,0.9921,1.0000,1,1,1,0.7405,0.9135,0.9481,0.9740
v_vitro_1_6,viewpoint,1605,1446,33.10,0.6386,0.8960,0.9869,0.9994,1,1,1,0.3614,0.7871,0.8723,0.9361
v_wall_1_2,viewpoint,1767,1684,37.38,0.5054,0.9513,0.9864,0.9949,1,1,1,0.4946,0.8315,0.8989,0.9495
v_wall_1_3,viewpoint,1539,1416,35.17,0.8274,0.9142,0.9786,0.9961,1,1,1,0.1726,0.7242,0.8345,0.9173
v_wall_1_4,viewpoint,1729,1627,34.93,0.6011,0.9404,0.9780,0.9855,1,1,1,0.3989,0.7996,0.8798,0.9399
v_wall_1_5,viewpoint,1415,1293,31.89,1.3540,0.8919,0.9703,0.9880,1,1,1,0.0000,0.5487,0.7292,0.8646
v_wall_1_6,viewpoint,1262,1127,31.75,2.0692,0.8788,0.9635,0.9913,1,1,1,0.0000,0.3103,0.5862,0.7931
v_wapping_1_2,viewpoint,2139,1871,48.27,0.3667,0.8752,0.9827,0.9991,1,1,1,0.6333,0.8778,0.9267,0.9633
v_wapping_1_3,viewpoint,1381,1074,38.88,2.6818,0.7596,0.9218,0.9783,1,1,1,0.0000,0.1061,0.4636,0.7318
v_wapping_1_4,viewpoint,1614,1220,41.98,1.9539,0.7460,0.9343,0.9857,1,1,1,0.0000,0.3487,0.6092,0.8046
v_wapping_1_5,viewpoint,934,751,35.88,4.0817,0.7687,0.9422,0.9882,0,1,1,0.0000,0.0000,0.1837,0.5918
v_wapping_1_6,viewpoint,565,449,32.02,6.0004,0.7150,0.9133,0.9788,0,0,1,0.0000,0.0000,0.0000,0.4000
v_war_1_2,viewpoint,1222,1083,33.01,0.7531,0.8805,0.9820,0.9967,1,1,1,0.2469,0.7490,0.8494,0.9247
v_war_1_3,viewpoint,1056,890,29.81,1.1817,0.8163,0.9555,0.9924,1,1,1,0.0000,0.6061,0.7637,0.8818
v_war_1_4,viewpoint,1502,1426,33.05,0.3620,0.9494,0.9927,1.0000,1,1,1,0.6380,0.8793,0.9276,0.9638
v_war_1_5,viewpoint,1488,1392,32.96,0.7276,0.9315,0.9940,1.0000,1,1,1,0.2724,0.7575,0.8545,0.9272
v_war_1_6,viewpoint,1038,893,27.72,2.0109,0.8391,0.9461,0.9750,1,1,1,0.0000,0.3297,0.5978,0.7989
v_weapons_1_2,viewpoint,1251,1203,29.26,0.5391,0.9584,0.9976,1.0000,1,1,1,0.4609,0.8203,0.8922,0.9461
v_weapons_1_3,viewpoint,1136,1051,27.32,0.3666,0.9199,0.9868,0.9974,1,1,1,0.6334,0.8778,0.9267,0.9633
v_weapons_1_4,viewpoint,1280,1141,29.80,0.7826,0.8867,0.9805,0.9969,1,1,1,0.2174,0.7391,0.8435,0.9217
v_weapons_1_5,viewpoint,1257,1205,27.83,1.1292,0.9411,0.9944,0.9976,1,1,1,0.0000,0.6236,0.7742,0.8871
v_weapons_1_6,viewpoint,1191,1126,25.58,1.2671,0.9345,0.9857,0.9983,1,1,1,0.0000,0.5776,0.7466,0.8733
v_woman_1_2,viewpoint,832,807,29.75,46.1453,0.0000,0.0000,0.0000,0,0,0,0.0000,0.0000,0.0000,0.0000
v_woman_1_3,viewpoint,992,901,30.06,49.5465,0.0000,0.0000,0.0010,0,0,0,0.0000,0.0000,0.0000,0.0000
v_woman_1_4,viewpoint,969,853,31.53,50.5862,0.0000,0.0000,0.0000,0,0,0,0.0000,0.0000,0.0000,0.0000
v_woman_1_5,viewpoint,642,590,28.31,43.9487,0.0000,0.0000,0.0000,0,0,0,0.0000,0.0000,0.0000,0.0000
v_woman_1_6,viewpoint,841,722,28.17,49.2514,0.0000,0.0000,0.0000,0,0,0,0.0000,0.0000,0.0000,0.0000
v_wormhole_1_2,viewpoint,1299,1254,31.13,0.3597,0.9646,0.9954,0.9962,1,1,1,0.6403,0.8801,0.9281,0.9640
v_wormhole_1_3,viewpoint,1595,1495,32.37,0.5170,0.9354,0.9887,0.9994,1,1,1,0.4830,0.8277,0.8966,0.9483
v_wormhole_1_4,viewpoint,1638,1585,34.08,0.7686,0.9615,0.9939,0.9994,1,1,1,0.2314,0.7438,0.8463,0.9231
v_wormhole_1_5,viewpoint,1138,1020,29.71,3.7086,0.8893,0.9631,0.9833,0,1,1,0.0000,0.0000,0.2583,0.6291
v_wormhole_1_6,viewpoint,788,613,27.72,6.4881,0.7627,0.9226,0.9784,0,0,1,0.0000,0.0000,0.0000,0.3512
v_wounded_1_2,viewpoint,920,858,29.11,0.4939,0.9261,0.9783,0.9957,1,1,1,0.5061,0.8354,0.9012,0.9506
v_wounded_1_3,viewpoint,610,503,23.08,10.3947,0.8098,0.9066,0.9656,0,0,0,0.0000,0.0000,0.0000,0.0000
v_wounded_1_4,viewpoint,377,243,21.54,26.7410,0.6446,0.7798,0.8515,0,0,0,0.0000,0.0000,0.0000,0.0000
v_wounded_1_5,viewpoint,572,448,21.89,3.2193,0.7692,0.9056,0.9476,0,1,1,0.0000,0.0000,0.3561,0.6781
v_wounded_1_6,viewpoint,363,242,21.10,13.3741,0.6639,0.8457,0.9311,0,0,0,0.0000,0.0000,0.0000,0.0000
v_yard_1_2,viewpoint,2025,1958,43.12,0.3110,0.9644,0.9975,0.9995,1,1,1,0.6890,0.8963,0.9378,0.9689
v_yard_1_3,viewpoint,1350,1178,36.32,1.5033,0.8600,0.9689,0.9919,1,1,1,0.0000,0.4989,0.6993,0.8497
v_yard_1_4,viewpoint,1864,1775,39.99,0.4770,0.9512,0.9930,0.9989,1,1,1,0.5230,0.8410,0.9046,0.9523
v_yard_1_5,viewpoint,1606,1446,38.79,1.3324,0.8966,0.9751,0.9925,1,1,1,0.0000,0.5559,0.7335,0.8668
v_yard_1_6,viewpoint,1283,964,36.73,5.3936,0.7428,0.8956,0.9641,0,0,1,0.0000,0.0000,0.0000,0.4606
v_yuri_1_2,viewpoint,988,924,28.23,0.8315,0.9291,0.9939,0.9990,1,1,1,0.1685,0.7228,0.8337,0.9169
v_yuri_1_3,viewpoint,870,731,25.29,0.5064,0.8287,0.9460,0.9736,1,1,1,0.4936,0.8312,0.8987,0.9494
v_yuri_1_4,viewpoint,763,567,26.95,42.7430,0.7143,0.9030,0.9725,0,0,0,0.0000,0.0000,0.0000,0.0000
v_yuri_1_5,viewpoint,917,776,26.12,3.4084,0.8168,0.9477,0.9847,0,1,1,0.0000,0.0000,0.3183,0.6592
v_yuri_1_6,viewpoint,753,588,25.22,10.1091,0.7463,0.9031,0.9708,0,0,0,0.0000,0.0000,0.0000,0.0000
