PairName,SeqType,NumMatches,Inliers,TimeMS,H_Error,MMA@3,MMA@5,MMA@7,MHA_Acc@3,MHA_Acc@5,MHA_Acc@7,AUC@1,AUC@3,AUC@5,AUC@10
i_ajuntament_1_2,illumination,1352,1154,248.39,0.5984,0.8417,0.9408,0.9741,1,1,1,0.4016,0.8005,0.8803,0.9402
i_ajuntament_1_3,illumination,969,718,13.92,0.7567,0.7276,0.8751,0.9484,1,1,1,0.2433,0.7478,0.8487,0.9243
i_ajuntament_1_4,illumination,734,419,11.50,1.4888,0.5627,0.7411,0.8624,1,1,1,0.0000,0.5037,0.7022,0.8511
i_ajuntament_1_5,illumination,760,423,11.11,1.6417,0.5382,0.7289,0.8395,1,1,1,0.0000,0.4528,0.6717,0.8358
i_ajuntament_1_6,illumination,768,437,11.11,1.3651,0.5651,0.7487,0.8633,1,1,1,0.0000,0.5450,0.7270,0.8635
i_autannes_1_2,illumination,1233,1101,20.88,0.2357,0.8921,0.9740,0.9935,1,1,1,0.7643,0.9214,0.9529,0.9764
i_autannes_1_3,illumination,1099,929,10.99,0.2658,0.8453,0.9490,0.9809,1,1,1,0.7342,0.9114,0.9468,0.9734
i_autannes_1_4,illumination,783,499,10.18,1.4975,0.6194,0.8225,0.9208,1,1,1,0.0000,0.5008,0.7005,0.8503
i_autannes_1_5,illumination,835,551,10.32,1.3488,0.6359,0.8168,0.8982,1,1,1,0.0000,0.5504,0.7302,0.8651
i_autannes_1_6,illumination,1020,772,9.72,0.8043,0.7431,0.8824,0.9451,1,1,1,0.1957,0.7319,0.8391,0.9196
i_bologna_1_2,illumination,779,723,18.73,0.2418,0.9255,0.9782,0.9936,1,1,1,0.7582,0.9194,0.9516,0.9758
i_bologna_1_3,illumination,715,629,9.18,0.5755,0.8671,0.9427,0.9818,1,1,1,0.4245,0.8082,0.8849,0.9424
i_bologna_1_4,illumination,679,595,9.31,0.7887,0.8601,0.9426,0.9823,1,1,1,0.2113,0.7371,0.8423,0.9211
i_bologna_1_5,illumination,649,545,9.36,0.8116,0.8336,0.9276,0.9692,1,1,1,0.1884,0.7295,0.8377,0.9188
i_bologna_1_6,illumination,607,518,9.38,0.9120,0.8451,0.9325,0.9819,1,1,1,0.0880,0.6960,0.8176,0.9088
i_books_1_2,illumination,845,701,12.26,0.5621,0.8260,0.9148,0.9515,1,1,1,0.4379,0.8126,0.8876,0.9438
i_books_1_3,illumination,892,753,11.85,0.1529,0.8352,0.9170,0.9608,1,1,1,0.8471,0.9490,0.9694,0.9847
i_books_1_4,illumination,959,825,11.32,0.2655,0.8551,0.9218,0.9593,1,1,1,0.7345,0.9115,0.9469,0.9735
i_books_1_5,illumination,1016,854,10.99,0.3975,0.8327,0.9222,0.9557,1,1,1,0.6025,0.8675,0.9205,0.9602
i_books_1_6,illumination,936,769,10.67,0.4577,0.8162,0.9006,0.9455,1,1,1,0.5423,0.8474,0.9085,0.9542
i_boutique_1_2,illumination,1287,1136,11.52,0.2693,0.8695,0.9425,0.9681,1,1,1,0.7307,0.9102,0.9461,0.9731
i_boutique_1_3,illumination,1232,1096,10.86,0.1974,0.8807,0.9619,0.9838,1,1,1,0.8026,0.9342,0.9605,0.9803
i_boutique_1_4,illumination,1252,1116,11.04,0.2280,0.8826,0.9569,0.9800,1,1,1,0.7720,0.9240,0.9544,0.9772
i_boutique_1_5,illumination,851,632,10.83,0.7348,0.7262,0.8743,0.9283,1,1,1,0.2652,0.7551,0.8530,0.9265
i_boutique_1_6,illumination,810,576,10.56,0.6435,0.6951,0.8444,0.9148,1,1,1,0.3565,0.7855,0.8713,0.9357
i_bridger_1_2,illumination,1355,1220,19.90,0.2516,0.8819,0.9786,0.9970,1,1,1,0.7484,0.9161,0.9497,0.9748
i_bridger_1_3,illumination,1128,949,9.79,0.5801,0.8245,0.9512,0.9894,1,1,1,0.4199,0.8066,0.8840,0.9420
i_bridger_1_4,illumination,1147,959,9.10,0.2146,0.8361,0.9669,0.9956,1,1,1,0.7854,0.9285,0.9571,0.9785
i_bridger_1_5,illumination,1064,841,8.92,0.5978,0.7782,0.9239,0.9812,1,1,1,0.4022,0.8007,0.8804,0.9402
i_bridger_1_6,illumination,746,421,9.09,1.4698,0.5483,0.7587,0.8861,1,1,1,0.0000,0.5101,0.7060,0.8530
i_brooklyn_1_2,illumination,1182,954,9.71,0.6070,0.7936,0.9239,0.9653,1,1,1,0.3930,0.7977,0.8786,0.9393
i_brooklyn_1_3,illumination,1420,1261,9.24,1.0641,0.8782,0.9676,0.9930,1,1,1,0.0000,0.6453,0.7872,0.8936
i_brooklyn_1_4,illumination,1071,810,9.64,0.9134,0.7274,0.8842,0.9608,1,1,1,0.0866,0.6955,0.8173,0.9087
i_brooklyn_1_5,illumination,1422,1240,9.56,1.3083,0.8242,0.9627,0.9937,1,1,1,0.0000,0.5639,0.7383,0.8692
i_brooklyn_1_6,illumination,1164,903,9.63,1.2779,0.7354,0.9081,0.9734,1,1,1,0.0000,0.5740,0.7444,0.8722
i_castle_1_2,illumination,812,553,11.10,0.9936,0.6761,0.8596,0.9261,1,1,1,0.0064,0.6688,0.8013,0.9006
i_castle_1_3,illumination,858,661,11.21,1.0956,0.7622,0.9091,0.9674,1,1,1,0.0000,0.6348,0.7809,0.8904
i_castle_1_4,illumination,801,612,11.01,1.7750,0.7428,0.8864,0.9426,1,1,1,0.0000,0.4083,0.6450,0.8225
i_castle_1_5,illumination,591,354,10.05,0.0000,0.6159,0.8071,0.9002,1,1,1,1.0000,1.0000,1.0000,1.0000
i_castle_1_6,illumination,677,412,9.99,1.7265,0.5879,0.7873,0.8774,1,1,1,0.0000,0.4245,0.6547,0.8273
i_chestnuts_1_2,illumination,1118,967,10.28,0.3181,0.8640,0.9311,0.9642,1,1,1,0.6819,0.8940,0.9364,0.9682
i_chestnuts_1_3,illumination,1107,949,10.44,0.4979,0.8528,0.9332,0.9702,1,1,1,0.5021,0.8340,0.9004,0.9502
i_chestnuts_1_4,illumination,1078,902,10.16,0.0000,0.8451,0.9295,0.9601,1,1,1,1.0000,1.0000,1.0000,1.0000
i_chestnuts_1_5,illumination,1022,833,10.28,0.4794,0.8131,0.8982,0.9491,1,1,1,0.5206,0.8402,0.9041,0.9521
i_chestnuts_1_6,illumination,909,699,10.50,0.6269,0.7646,0.8537,0.9186,1,1,1,0.3731,0.7910,0.8746,0.9373
i_crownday_1_2,illumination,1148,810,11.48,0.8831,0.6995,0.8632,0.9443,1,1,1,0.1169,0.7056,0.8234,0.9117
i_crownday_1_3,illumination,1375,1091,11.68,0.9770,0.7745,0.9040,0.9615,1,1,1,0.0230,0.6743,0.8046,0.9023
i_crownday_1_4,illumination,1482,1254,12.31,0.7099,0.8408,0.9325,0.9757,1,1,1,0.2901,0.7634,0.8580,0.9290
i_crownday_1_5,illumination,1629,1404,11.33,0.5548,0.8649,0.9503,0.9810,1,1,1,0.4452,0.8151,0.8890,0.9445
i_crownday_1_6,illumination,1116,759,11.31,1.0704,0.6595,0.8244,0.9301,1,1,1,0.0000,0.6432,0.7859,0.8930
i_dome_1_2,illumination,1380,1307,10.13,0.0000,0.9529,0.9862,0.9942,1,1,1,1.0000,1.0000,1.0000,1.0000
i_dome_1_3,illumination,651,449,10.20,2.1172,0.6774,0.8157,0.8756,1,1,1,0.0000,0.2943,0.5766,0.7883
i_dome_1_4,illumination,653,463,10.12,1.8706,0.6937,0.8361,0.9035,1,1,1,0.0000,0.3765,0.6259,0.8129
i_dome_1_5,illumination,659,477,10.33,1.4072,0.7071,0.8467,0.9150,1,1,1,0.0000,0.5309,0.7186,0.8593
i_dome_1_6,illumination,1022,852,10.01,0.3508,0.8268,0.9305,0.9697,1,1,1,0.6492,0.8831,0.9298,0.9649
i_duda_1_2,illumination,914,900,9.57,0.2701,0.9803,0.9945,0.9967,1,1,1,0.7299,0.9100,0.9460,0.9730
i_duda_1_3,illumination,839,810,9.72,0.4631,0.9642,0.9845,0.9964,1,1,1,0.5369,0.8456,0.9074,0.9537
i_duda_1_4,illumination,793,760,9.22,0.5266,0.9496,0.9861,0.9924,1,1,1,0.4734,0.8245,0.8947,0.9473
i_duda_1_5,illumination,746,702,9.41,0.4164,0.9303,0.9772,0.9933,1,1,1,0.5836,0.8612,0.9167,0.9584
i_duda_1_6,illumination,658,591,9.07,0.8568,0.8875,0.9650,0.9863,1,1,1,0.1432,0.7144,0.8286,0.9143
i_fenis_1_2,illumination,1283,1135,9.40,0.0000,0.8893,0.9634,0.9899,1,1,1,1.0000,1.0000,1.0000,1.0000
i_fenis_1_3,illumination,970,736,9.56,0.6201,0.7309,0.8866,0.9577,1,1,1,0.3799,0.7933,0.8760,0.9380
i_fenis_1_4,illumination,547,336,9.48,0.8079,0.5960,0.7678,0.8574,1,1,1,0.1921,0.7307,0.8384,0.9192
i_fenis_1_5,illumination,480,257,9.55,0.6846,0.5229,0.7083,0.8313,1,1,1,0.3154,0.7718,0.8631,0.9315
i_fenis_1_6,illumination,534,316,9.62,0.8240,0.5805,0.7678,0.8652,1,1,1,0.1760,0.7253,0.8352,0.9176
i_fog_1_2,illumination,1735,1582,9.75,0.2951,0.9049,0.9718,0.9925,1,1,1,0.7049,0.9016,0.9410,0.9705
i_fog_1_3,illumination,1388,1180,9.96,0.0000,0.8610,0.9625,0.9856,1,1,1,1.0000,1.0000,1.0000,1.0000
i_fog_1_4,illumination,1371,1164,10.49,0.3836,0.8373,0.9387,0.9803,1,1,1,0.6164,0.8721,0.9233,0.9616
i_fog_1_5,illumination,939,760,9.57,0.7945,0.7945,0.8978,0.9382,1,1,1,0.2055,0.7352,0.8411,0.9206
i_fog_1_6,illumination,892,696,9.15,0.9037,0.7724,0.8778,0.9159,1,1,1,0.0963,0.6988,0.8193,0.9096
i_fruits_1_2,illumination,1450,1176,22.98,0.3040,0.8083,0.9207,0.9538,1,1,1,0.6960,0.8987,0.9392,0.9696
i_fruits_1_3,illumination,1379,1073,13.41,0.2573,0.7716,0.9072,0.9594,1,1,1,0.7427,0.9142,0.9485,0.9743
i_fruits_1_4,illumination,1385,1057,13.73,0.3189,0.7588,0.8968,0.9473,1,1,1,0.6811,0.8937,0.9362,0.9681
i_fruits_1_5,illumination,1312,1006,13.29,0.7168,0.7546,0.8887,0.9360,1,1,1,0.2832,0.7611,0.8566,0.9283
i_fruits_1_6,illumination,1366,1094,14.18,0.3903,0.7950,0.9100,0.9553,1,1,1,0.6097,0.8699,0.9219,0.9610
i_gonnenberg_1_2,illumination,1220,1115,9.57,0.7308,0.9131,0.9713,0.9820,1,1,1,0.2692,0.7564,0.8538,0.9269
i_gonnenberg_1_3,illumination,1233,1135,9.51,0.8992,0.9205,0.9757,0.9927,1,1,1,0.1008,0.7003,0.8202,0.9101
i_gonnenberg_1_4,illumination,1098,977,9.97,0.6609,0.8816,0.9617,0.9818,1,1,1,0.3391,0.7797,0.8678,0.9339
i_gonnenberg_1_5,illumination,1145,1056,9.03,0.4978,0.9214,0.9686,0.9782,1,1,1,0.5022,0.8341,0.9004,0.9502
i_gonnenberg_1_6,illumination,1146,1029,9.07,0.8282,0.8988,0.9590,0.9747,1,1,1,0.1718,0.7239,0.8344,0.9172
i_greenhouse_1_2,illumination,1691,1458,10.67,0.3460,0.8587,0.9574,0.9876,1,1,1,0.6540,0.8847,0.9308,0.9654
i_greenhouse_1_3,illumination,1634,1392,10.85,0.5583,0.8464,0.9437,0.9859,1,1,1,0.4417,0.8139,0.8883,0.9442
i_greenhouse_1_4,illumination,1465,1190,11.01,0.6404,0.8027,0.9201,0.9713,1,1,1,0.3596,0.7865,0.8719,0.9360
i_greenhouse_1_5,illumination,1484,1196,10.80,0.8920,0.7931,0.9151,0.9677,1,1,1,0.1080,0.7027,0.8216,0.9108
i_greenhouse_1_6,illumination,1383,1077,10.57,0.7890,0.7585,0.8995,0.9573,1,1,1,0.2110,0.7370,0.8422,0.9211
i_greentea_1_2,illumination,897,743,11.03,0.0000,0.8384,0.8997,0.9420,1,1,1,1.0000,1.0000,1.0000,1.0000
i_greentea_1_3,illumination,1200,1077,12.72,0.0000,0.9050,0.9508,0.9658,1,1,1,1.0000,1.0000,1.0000,1.0000
i_greentea_1_4,illumination,1256,1152,10.62,0.0000,0.9212,0.9578,0.9689,1,1,1,1.0000,1.0000,1.0000,1.0000
i_greentea_1_5,illumination,1271,1166,9.92,0.1357,0.9197,0.9512,0.9685,1,1,1,0.8643,0.9548,0.9729,0.9864
i_greentea_1_6,illumination,1169,1023,10.03,0.1113,0.8743,0.9461,0.9769,1,1,1,0.8887,0.9629,0.9777,0.9889
i_indiana_1_2,illumination,1098,881,8.47,0.5504,0.7796,0.9208,0.9745,1,1,1,0.4496,0.8165,0.8899,0.9450
i_indiana_1_3,illumination,1038,738,8.81,0.0000,0.7274,0.8902,0.9624,1,1,1,1.0000,1.0000,1.0000,1.0000
i_indiana_1_4,illumination,980,691,8.97,0.9200,0.6949,0.8765,0.9490,1,1,1,0.0800,0.6933,0.8160,0.9080
i_indiana_1_5,illumination,952,663,9.04,0.8457,0.6786,0.8571,0.9422,1,1,1,0.1543,0.7181,0.8309,0.9154
i_indiana_1_6,illumination,911,621,8.93,0.6141,0.6784,0.8595,0.9352,1,1,1,0.3859,0.7953,0.8772,0.9386
i_kions_1_2,illumination,975,789,9.69,1.1138,0.7764,0.9097,0.9641,1,1,1,0.0000,0.6287,0.7772,0.8886
i_kions_1_3,illumination,775,558,10.34,0.5833,0.7019,0.8529,0.9303,1,1,1,0.4167,0.8056,0.8833,0.9417
i_kions_1_4,illumination,881,623,9.78,1.5520,0.6856,0.8706,0.9489,1,1,1,0.0000,0.4827,0.6896,0.8448
i_kions_1_5,illumination,876,625,10.64,1.5275,0.6769,0.8573,0.9532,1,1,1,0.0000,0.4908,0.6945,0.8472
i_kions_1_6,illumination,696,476,9.53,0.6475,0.6767,0.8046,0.8822,1,1,1,0.3525,0.7842,0.8705,0.9352
i_ktirio_1_2,illumination,1447,1358,10.87,0.2038,0.9371,0.9793,0.9910,1,1,1,0.7962,0.9321,0.9592,0.9796
i_ktirio_1_3,illumination,1039,851,10.90,0.4721,0.8094,0.9095,0.9567,1,1,1,0.5279,0.8426,0.9056,0.9528
i_ktirio_1_4,illumination,866,589,10.58,1.2577,0.6594,0.8210,0.9030,1,1,1,0.0000,0.5808,0.7485,0.8742
i_ktirio_1_5,illumination,999,775,10.37,0.6513,0.7618,0.8799,0.9349,1,1,1,0.3487,0.7829,0.8697,0.9349
i_ktirio_1_6,illumination,788,531,10.59,1.2211,0.6612,0.7995,0.8820,1,1,1,0.0000,0.5930,0.7558,0.8779
i_kurhaus_1_2,illumination,1445,1340,10.46,0.1425,0.9253,0.9758,0.9896,1,1,1,0.8575,0.9525,0.9715,0.9858
i_kurhaus_1_3,illumination,1241,1099,11.00,0.2142,0.8904,0.9565,0.9742,1,1,1,0.7858,0.9286,0.9572,0.9786
i_kurhaus_1_4,illumination,1175,985,10.51,0.0000,0.8494,0.9379,0.9711,1,1,1,1.0000,1.0000,1.0000,1.0000
i_kurhaus_1_5,illumination,1053,829,9.87,0.2004,0.7958,0.9193,0.9582,1,1,1,0.7996,0.9332,0.9599,0.9800
i_kurhaus_1_6,illumination,1014,769,10.29,0.4207,0.7515,0.8895,0.9408,1,1,1,0.5793,0.8598,0.9159,0.9579
i_leuven_1_2,illumination,1219,1083,10.14,1.5572,0.8720,0.9516,0.9852,1,1,1,0.0000,0.4809,0.6886,0.8443
i_leuven_1_3,illumination,1244,1121,9.68,1.4479,0.8850,0.9510,0.9791,1,1,1,0.0000,0.5174,0.7104,0.8552
i_leuven_1_4,illumination,1156,1003,9.57,2.3000,0.8573,0.9420,0.9715,1,1,1,0.0000,0.2333,0.5400,0.7700
i_leuven_1_5,illumination,1035,886,9.55,1.3284,0.8609,0.9314,0.9691,1,1,1,0.0000,0.5572,0.7343,0.8672
i_leuven_1_6,illumination,956,772,9.47,7.2527,0.6004,0.7751,0.8692,0,0,0,0.0000,0.0000,0.0000,0.2747
i_lionday_1_2,illumination,780,520,10.56,1.2184,0.6423,0.8295,0.9192,1,1,1,0.0000,0.5939,0.7563,0.8782
i_lionday_1_3,illumination,807,572,11.63,1.0004,0.6877,0.8686,0.9331,1,1,1,0.0000,0.6665,0.7999,0.9000
i_lionday_1_4,illumination,580,266,12.65,2.7381,0.3828,0.5793,0.7207,1,1,1,0.0000,0.0873,0.4524,0.7262
i_lionday_1_5,illumination,674,374,11.85,2.8954,0.4881,0.6914,0.8323,1,1,1,0.0000,0.0349,0.4209,0.7105
i_lionday_1_6,illumination,776,566,11.17,1.3516,0.6804,0.8505,0.9278,1,1,1,0.0000,0.5495,0.7297,0.8648
i_lionnight_1_2,illumination,877,731,10.70,0.9324,0.8164,0.9213,0.9601,1,1,1,0.0676,0.6892,0.8135,0.9068
i_lionnight_1_3,illumination,708,526,10.36,0.8843,0.7133,0.8701,0.9322,1,1,1,0.1157,0.7052,0.8231,0.9116
i_lionnight_1_4,illumination,919,799,10.43,0.9552,0.8509,0.9543,0.9804,1,1,1,0.0448,0.6816,0.8090,0.9045
i_lionnight_1_5,illumination,904,791,10.67,1.0802,0.8363,0.9414,0.9768,1,1,1,0.0000,0.6399,0.7840,0.8920
i_lionnight_1_6,illumination,941,806,10.52,0.9604,0.8300,0.9182,0.9532,1,1,1,0.0396,0.6799,0.8079,0.9040
i_londonbridge_1_2,illumination,1147,1048,9.86,0.9178,0.8980,0.9712,0.9808,1,1,1,0.0822,0.6941,0.8164,0.9082
i_londonbridge_1_3,illumination,1041,950,10.52,0.9204,0.8761,0.9750,0.9923,1,1,1,0.0796,0.6932,0.8159,0.9080
i_londonbridge_1_4,illumination,964,783,10.53,2.4766,0.7521,0.9357,0.9793,1,1,1,0.0000,0.1745,0.5047,0.7523
i_londonbridge_1_5,illumination,648,370,10.04,3.8119,0.5000,0.6975,0.8735,0,1,1,0.0000,0.0000,0.2376,0.6188
i_londonbridge_1_6,illumination,912,745,9.67,0.7051,0.7950,0.9408,0.9814,1,1,1,0.2949,0.7650,0.8590,0.9295
i_melon_1_2,illumination,986,824,10.80,0.3084,0.8337,0.9229,0.9594,1,1,1,0.6916,0.8972,0.9383,0.9692
i_melon_1_3,illumination,818,626,10.32,0.7086,0.7518,0.8667,0.9377,1,1,1,0.2914,0.7638,0.8583,0.9291
i_melon_1_4,illumination,551,294,10.91,1.5157,0.5100,0.6770,0.8167,1,1,1,0.0000,0.4948,0.6969,0.8484
i_melon_1_5,illumination,868,638,10.88,1.2389,0.7177,0.8594,0.9182,1,1,1,0.0000,0.5870,0.7522,0.8761
i_melon_1_6,illumination,787,548,10.85,1.1312,0.6912,0.8170,0.8945,1,1,1,0.0000,0.6229,0.7738,0.8869
i_miniature_1_2,illumination,1321,1224,11.44,0.3675,0.9220,0.9674,0.9864,1,1,1,0.6325,0.8775,0.9265,0.9632
i_miniature_1_3,illumination,1129,980,11.75,0.8817,0.8636,0.9371,0.9663,1,1,1,0.1183,0.7061,0.8237,0.9118
i_miniature_1_4,illumination,812,618,10.64,1.3998,0.7389,0.8682,0.9286,1,1,1,0.0000,0.5334,0.7200,0.8600
i_miniature_1_5,illumination,534,308,10.68,1.1688,0.5730,0.7397,0.8258,1,1,1,0.0000,0.6104,0.7662,0.8831
i_miniature_1_6,illumination,1082,922,10.87,1.1208,0.8494,0.9187,0.9501,1,1,1,0.0000,0.6264,0.7758,0.8879
i_nescafe_1_2,illumination,870,707,10.22,0.6423,0.8103,0.8862,0.9310,1,1,1,0.3577,0.7859,0.8715,0.9358
i_nescafe_1_3,illumination,1023,862,10.47,1.1701,0.8475,0.8993,0.9355,1,1,1,0.0000,0.6100,0.7660,0.8830
i_nescafe_1_4,illumination,1071,890,10.45,0.2449,0.8394,0.9048,0.9608,1,1,1,0.7551,0.9184,0.9510,0.9755
i_nescafe_1_5,illumination,973,808,10.58,0.4828,0.8294,0.9075,0.9630,1,1,1,0.5172,0.8391,0.9034,0.9517
i_nescafe_1_6,illumination,934,720,10.43,0.0000,0.7848,0.8758,0.9336,1,1,1,1.0000,1.0000,1.0000,1.0000
i_nijmegen_1_2,illumination,1557,1321,11.22,0.8506,0.8215,0.9473,0.9859,1,1,1,0.1494,0.7165,0.8299,0.9149
i_nijmegen_1_3,illumination,1651,1463,11.54,0.6591,0.8716,0.9679,0.9921,1,1,1,0.3409,0.7803,0.8682,0.9341
i_nijmegen_1_4,illumination,994,678,10.90,0.9023,0.6579,0.8209,0.9105,1,1,1,0.0977,0.6992,0.8195,0.9098
i_nijmegen_1_5,illumination,1662,1447,11.15,0.6544,0.8538,0.9585,0.9868,1,1,1,0.3456,0.7819,0.8691,0.9346
i_nijmegen_1_6,illumination,1589,1374,10.53,0.5820,0.8408,0.9553,0.9874,1,1,1,0.4180,0.8060,0.8836,0.9418
i_nuts_1_2,illumination,1150,677,13.61,0.0000,0.6096,0.7557,0.8348,1,1,1,1.0000,1.0000,1.0000,1.0000
i_nuts_1_3,illumination,679,347,13.11,1.8549,0.4948,0.6421,0.7246,1,1,1,0.0000,0.3817,0.6290,0.8145
i_nuts_1_4,illumination,600,233,12.77,1.7536,0.3833,0.5233,0.6183,1,1,1,0.0000,0.4155,0.6493,0.8246
i_nuts_1_5,illumination,482,153,12.91,0.9988,0.3091,0.4585,0.5581,1,1,1,0.0012,0.6671,0.8002,0.9001
i_nuts_1_6,illumination,409,92,13.06,1.8242,0.2176,0.3130,0.4010,1,1,1,0.0000,0.3919,0.6352,0.8176
i_objects_1_2,illumination,1232,1041,9.91,0.5400,0.8263,0.9643,0.9903,1,1,1,0.4600,0.8200,0.8920,0.9460
i_objects_1_3,illumination,1118,902,10.61,1.0812,0.7818,0.9329,0.9812,1,1,1,0.0000,0.6396,0.7838,0.8919
i_objects_1_4,illumination,974,681,9.98,1.3303,0.6807,0.8706,0.9435,1,1,1,0.0000,0.5566,0.7339,0.8670
i_objects_1_5,illumination,965,662,9.93,1.8660,0.6539,0.8570,0.9534,1,1,1,0.0000,0.3780,0.6268,0.8134
i_objects_1_6,illumination,1377,1264,9.82,0.3837,0.9070,0.9760,0.9956,1,1,1,0.6163,0.8721,0.9233,0.9616
i_parking_1_2,illumination,1350,1154,9.95,0.3392,0.8467,0.9519,0.9800,1,1,1,0.6608,0.8869,0.9322,0.9661
i_parking_1_3,illumination,1273,1077,9.48,0.3281,0.8413,0.9474,0.9788,1,1,1,0.6719,0.8906,0.9344,0.9672
i_parking_1_4,illumination,1068,781,9.20,1.2059,0.6751,0.8680,0.9438,1,1,1,0.0000,0.5980,0.7588,0.8794
i_parking_1_5,illumination,886,583,9.44,1.2519,0.6072,0.7822,0.8826,1,1,1,0.0000,0.5827,0.7496,0.8748
i_parking_1_6,illumination,1062,794,9.50,0.9472,0.7109,0.8832,0.9463,1,1,1,0.0528,0.6843,0.8106,0.9053
i_partyfood_1_2,illumination,754,709,9.02,0.2515,0.9430,0.9748,0.9854,1,1,1,0.7485,0.9162,0.9497,0.9748
i_partyfood_1_3,illumination,704,636,9.60,0.5213,0.9048,0.9474,0.9787,1,1,1,0.4787,0.8262,0.8957,0.9479
i_partyfood_1_4,illumination,615,520,9.79,0.0000,0.8569,0.9333,0.9675,1,1,1,1.0000,1.0000,1.0000,1.0000
i_partyfood_1_5,illumination,599,507,9.72,1.0067,0.8381,0.9115,0.9549,1,1,1,0.0000,0.6644,0.7987,0.8993
i_partyfood_1_6,illumination,496,405,9.40,0.8769,0.8165,0.9194,0.9536,1,1,1,0.1231,0.7077,0.8246,0.9123
i_pinard_1_2,illumination,921,788,10.37,0.5263,0.8415,0.9338,0.9696,1,1,1,0.4737,0.8246,0.8947,0.9474
i_pinard_1_3,illumination,734,508,10.55,1.6332,0.6689,0.7807,0.8651,1,1,1,0.0000,0.4556,0.6734,0.8367
i_pinard_1_4,illumination,737,533,10.54,1.6490,0.6961,0.8100,0.8955,1,1,1,0.0000,0.4503,0.6702,0.8351
i_pinard_1_5,illumination,767,551,10.85,1.6835,0.6871,0.8188,0.9100,1,1,1,0.0000,0.4388,0.6633,0.8317
i_pinard_1_6,illumination,824,634,11.30,1.0853,0.7549,0.8750,0.9515,1,1,1,0.0000,0.6382,0.7829,0.8915
i_pool_1_2,illumination,556,288,9.54,0.9557,0.5144,0.7140,0.8399,1,1,1,0.0443,0.6814,0.8089,0.9044
i_pool_1_3,illumination,275,89,9.78,7.1204,0.3127,0.4873,0.6182,0,0,0,0.0000,0.0000,0.0000,0.2880
i_pool_1_4,illumination,285,102,10.37,3.6465,0.3333,0.5439,0.6526,0,1,1,0.0000,0.0000,0.2707,0.6354
i_pool_1_5,illumination,387,175,10.21,1.1964,0.4548,0.6279,0.7623,1,1,1,0.0000,0.6012,0.7607,0.8804
i_pool_1_6,illumination,393,171,9.85,1.1489,0.4122,0.5929,0.7176,1,1,1,0.0000,0.6170,0.7702,0.8851
i_porta_1_2,illumination,1257,869,11.31,0.5116,0.6826,0.8775,0.9515,1,1,1,0.4884,0.8295,0.8977,0.9488
i_porta_1_3,illumination,1286,902,10.83,0.3977,0.6952,0.8974,0.9705,1,1,1,0.6023,0.8674,0.9205,0.9602
i_porta_1_4,illumination,1107,698,10.52,0.9006,0.6170,0.8329,0.9295,1,1,1,0.0994,0.6998,0.8199,0.9099
i_porta_1_5,illumination,786,502,10.29,0.6822,0.6387,0.8270,0.9389,1,1,1,0.3178,0.7726,0.8636,0.9318
i_porta_1_6,illumination,584,297,10.51,0.6523,0.4777,0.6729,0.7894,1,1,1,0.3477,0.7826,0.8695,0.9348
i_resort_1_2,illumination,1658,1454,11.34,0.3450,0.8764,0.9692,0.9940,1,1,1,0.6550,0.8850,0.9310,0.9655
i_resort_1_3,illumination,2017,1936,10.55,0.1237,0.9618,0.9911,0.9985,1,1,1,0.8763,0.9588,0.9753,0.9876
i_resort_1_4,illumination,1975,1880,11.42,0.1359,0.9529,0.9889,0.9975,1,1,1,0.8641,0.9547,0.9728,0.9864
i_resort_1_5,illumination,1555,1370,10.75,0.4484,0.8733,0.9640,0.9904,1,1,1,0.5516,0.8505,0.9103,0.9552
i_resort_1_6,illumination,1599,1387,10.75,0.6613,0.8668,0.9637,0.9931,1,1,1,0.3387,0.7796,0.8677,0.9339
i_salon_1_2,illumination,1690,1605,10.78,0.2762,0.9432,0.9817,0.9959,1,1,1,0.7238,0.9079,0.9448,0.9724
i_salon_1_3,illumination,1440,1304,10.98,0.3242,0.8993,0.9757,0.9944,1,1,1,0.6758,0.8919,0.9352,0.9676
i_salon_1_4,illumination,1166,915,10.46,0.6085,0.7736,0.9065,0.9545,1,1,1,0.3915,0.7972,0.8783,0.9391
i_salon_1_5,illumination,1488,1343,11.30,0.2732,0.8985,0.9731,0.9913,1,1,1,0.7268,0.9089,0.9454,0.9727
i_salon_1_6,illumination,1323,1122,10.62,0.2493,0.8413,0.9358,0.9660,1,1,1,0.7507,0.9169,0.9501,0.9751
i_santuario_1_2,illumination,1238,1083,10.26,1.0257,0.8530,0.9410,0.9782,1,1,1,0.0000,0.6581,0.7949,0.8974
i_santuario_1_3,illumination,1237,1081,10.62,1.2610,0.8504,0.9418,0.9790,1,1,1,0.0000,0.5797,0.7478,0.8739
i_santuario_1_4,illumination,1100,895,10.13,1.5089,0.7464,0.9000,0.9509,1,1,1,0.0000,0.4970,0.6982,0.8491
i_santuario_1_5,illumination,1215,1023,10.04,0.6356,0.8321,0.9383,0.9802,1,1,1,0.3644,0.7881,0.8729,0.9364
i_santuario_1_6,illumination,1043,858,9.48,1.1770,0.7872,0.9204,0.9626,1,1,1,0.0000,0.6077,0.7646,0.8823
i_school_1_2,illumination,1399,1233,11.19,0.3252,0.8756,0.9607,0.9836,1,1,1,0.6748,0.8916,0.9350,0.9675
i_school_1_3,illumination,1406,1227,10.59,0.2609,0.8670,0.9587,0.9844,1,1,1,0.7391,0.9130,0.9478,0.9739
i_school_1_4,illumination,1104,813,10.82,0.6619,0.7056,0.8478,0.9266,1,1,1,0.3381,0.7794,0.8676,0.9338
i_school_1_5,illumination,1201,951,10.93,0.5841,0.7769,0.8968,0.9534,1,1,1,0.4159,0.8053,0.8832,0.9416
i_school_1_6,illumination,929,602,11.26,1.1665,0.6189,0.7944,0.8956,1,1,1,0.0000,0.6112,0.7667,0.8833
i_ski_1_2,illumination,1556,1467,10.54,0.2084,0.9428,0.9897,0.9974,1,1,1,0.7916,0.9305,0.9583,0.9792
i_ski_1_3,illumination,1428,1298,11.79,0.3158,0.9027,0.9790,0.9944,1,1,1,0.6842,0.8947,0.9368,0.9684
i_ski_1_4,illumination,1364,1215,11.10,0.4908,0.8761,0.9707,0.9941,1,1,1,0.5092,0.8364,0.9018,0.9509
i_ski_1_5,illumination,1308,1112,11.32,0.4100,0.8456,0.9679,0.9908,1,1,1,0.5900,0.8633,0.9180,0.9590
i_ski_1_6,illumination,1228,1047,11.73,0.4434,0.8469,0.9585,0.9919,1,1,1,0.5566,0.8522,0.9113,0.9557
i_smurf_1_2,illumination,1181,988,12.27,0.9261,0.8264,0.9077,0.9467,1,1,1,0.0739,0.6913,0.8148,0.9074
i_smurf_1_3,illumination,1188,986,12.91,0.5639,0.8207,0.9082,0.9512,1,1,1,0.4361,0.8120,0.8872,0.9436
i_smurf_1_4,illumination,1126,949,12.21,0.3956,0.8321,0.9121,0.9565,1,1,1,0.6044,0.8681,0.9209,0.9604
i_smurf_1_5,illumination,1081,867,12.75,0.4550,0.7946,0.8908,0.9463,1,1,1,0.5450,0.8483,0.9090,0.9545
i_smurf_1_6,illumination,925,680,12.15,0.3573,0.7308,0.8605,0.9157,1,1,1,0.6427,0.8809,0.9285,0.9643
i_steps_1_2,illumination,1396,1295,11.27,0.3662,0.9248,0.9828,0.9964,1,1,1,0.6338,0.8779,0.9268,0.9634
i_steps_1_3,illumination,1414,1300,11.48,0.5672,0.9081,0.9851,0.9986,1,1,1,0.4328,0.8109,0.8866,0.9433
i_steps_1_4,illumination,1382,1263,10.71,0.3098,0.9132,0.9761,0.9964,1,1,1,0.6902,0.8967,0.9380,0.9690
i_steps_1_5,illumination,1024,845,10.81,0.5093,0.8135,0.9229,0.9648,1,1,1,0.4907,0.8302,0.8981,0.9491
i_steps_1_6,illumination,1155,1011,10.33,0.5058,0.8641,0.9541,0.9870,1,1,1,0.4942,0.8314,0.8988,0.9494
i_table_1_2,illumination,1232,1041,10.46,0.5400,0.8263,0.9643,0.9903,1,1,1,0.4600,0.8200,0.8920,0.9460
i_table_1_3,illumination,1118,902,10.08,1.0812,0.7818,0.9329,0.9812,1,1,1,0.0000,0.6396,0.7838,0.8919
i_table_1_4,illumination,974,681,9.62,1.3303,0.6807,0.8706,0.9435,1,1,1,0.0000,0.5566,0.7339,0.8670
i_table_1_5,illumination,965,662,9.47,1.8660,0.6539,0.8570,0.9534,1,1,1,0.0000,0.3780,0.6268,0.8134
i_table_1_6,illumination,1377,1264,9.82,0.3837,0.9070,0.9760,0.9956,1,1,1,0.6163,0.8721,0.9233,0.9616
i_tools_1_2,illumination,475,226,10.06,3.2523,0.3368,0.5495,0.7074,0,1,1,0.0000,0.0000,0.3495,0.6748
i_tools_1_3,illumination,663,487,9.96,1.3278,0.7134,0.8733,0.9472,1,1,1,0.0000,0.5574,0.7344,0.8672
i_tools_1_4,illumination,518,254,10.45,2.2569,0.4189,0.6737,0.8127,1,1,1,0.0000,0.2477,0.5486,0.7743
i_tools_1_5,illumination,676,447,10.16,1.3165,0.6435,0.8033,0.8920,1,1,1,0.0000,0.5612,0.7367,0.8684
i_tools_1_6,illumination,530,224,9.57,4.5524,0.2547,0.4547,0.6415,0,1,1,0.0000,0.0000,0.0895,0.5448
i_toy_1_2,illumination,2090,1843,13.12,0.2225,0.8804,0.9612,0.9890,1,1,1,0.7775,0.9258,0.9555,0.9777
i_toy_1_3,illumination,1873,1522,13.25,0.4639,0.8030,0.9215,0.9648,1,1,1,0.5361,0.8454,0.9072,0.9536
i_toy_1_4,illumination,1504,1036,14.06,0.7852,0.6742,0.8085,0.9096,1,1,1,0.2148,0.7383,0.8430,0.9215
i_toy_1_5,illumination,1061,531,13.33,1.2682,0.4788,0.6428,0.7663,1,1,1,0.0000,0.5773,0.7464,0.8732
i_toy_1_6,illumination,851,309,14.46,2.0760,0.3408,0.5053,0.6428,1,1,1,0.0000,0.3080,0.5848,0.7924
i_troulos_1_2,illumination,759,608,9.98,0.6678,0.7826,0.9051,0.9473,1,1,1,0.3322,0.7774,0.8664,0.9332
i_troulos_1_3,illumination,579,394,10.43,2.5889,0.3523,0.7340,0.8584,1,1,1,0.0000,0.1370,0.4822,0.7411
i_troulos_1_4,illumination,867,762,10.00,0.6301,0.8731,0.9481,0.9631,1,1,1,0.3699,0.7900,0.8740,0.9370
i_troulos_1_5,illumination,752,559,9.88,1.3371,0.7221,0.8670,0.9215,1,1,1,0.0000,0.5543,0.7326,0.8663
i_troulos_1_6,illumination,695,539,9.37,1.3544,0.7353,0.8878,0.9353,1,1,1,0.0000,0.5485,0.7291,0.8646
i_veggies_1_2,illumination,1325,1223,10.53,0.0000,0.9275,0.9721,0.9826,1,1,1,1.0000,1.0000,1.0000,1.0000
i_veggies_1_3,illumination,954,765,10.43,0.8678,0.7862,0.8931,0.9497,1,1,1,0.1322,0.7107,0.8264,0.9132
i_veggies_1_4,illumination,1163,1014,10.80,0.2362,0.8719,0.9475,0.9742,1,1,1,0.7638,0.9213,0.9528,0.9764
i_veggies_1_5,illumination,819,544,11.37,1.2727,0.6520,0.8132,0.9035,1,1,1,0.0000,0.5758,0.7455,0.8727
i_veggies_1_6,illumination,749,470,10.90,1.1197,0.6021,0.7664,0.8732,1,1,1,0.0000,0.6268,0.7761,0.8880
i_village_1_2,illumination,1546,1182,22.95,1.5134,0.7607,0.8972,0.9618,1,1,1,0.0000,0.4955,0.6973,0.8487
i_village_1_3,illumination,1576,1211,14.54,1.1410,0.7582,0.9042,0.9626,1,1,1,0.0000,0.6197,0.7718,0.8859
i_village_1_4,illumination,1564,1235,12.70,0.9900,0.7698,0.9188,0.9687,1,1,1,0.0100,0.6700,0.8020,0.9010
i_village_1_5,illumination,2328,2173,12.83,0.3537,0.9248,0.9824,0.9966,1,1,1,0.6463,0.8821,0.9293,0.9646
i_village_1_6,illumination,1498,1137,14.01,0.8517,0.7363,0.8879,0.9573,1,1,1,0.1483,0.7161,0.8297,0.9148
i_yellowtent_1_2,illumination,1327,1255,10.81,0.1622,0.9435,0.9819,0.9917,1,1,1,0.8378,0.9459,0.9676,0.9838
i_yellowtent_1_3,illumination,1169,1044,11.00,0.3867,0.8939,0.9607,0.9829,1,1,1,0.6133,0.8711,0.9227,0.9613
i_yellowtent_1_4,illumination,956,785,11.04,0.5002,0.8065,0.9079,0.9634,1,1,1,0.4998,0.8333,0.9000,0.9500
i_yellowtent_1_5,illumination,946,784,11.22,0.4592,0.8224,0.9101,0.9493,1,1,1,0.5408,0.8469,0.9082,0.9541
i_yellowtent_1_6,illumination,812,620,11.36,0.6505,0.7586,0.8621,0.9163,1,1,1,0.3495,0.7832,0.8699,0.9349
i_zion_1_2,illumination,1842,1675,11.22,0.4939,0.9083,0.9745,0.9908,1,1,1,0.5061,0.8354,0.9012,0.9506
i_zion_1_3,illumination,1414,1082,11.97,0.8013,0.7546,0.9003,0.9653,1,1,1,0.1987,0.7329,0.8397,0.9199
i_zion_1_4,illumination,798,491,11.33,0.7922,0.6140,0.7456,0.8421,1,1,1,0.2078,0.7359,0.8416,0.9208
i_zion_1_5,illumination,608,314,10.78,1.2472,0.4967,0.6711,0.8207,1,1,1,0.0000,0.5843,0.7506,0.8753
i_zion_1_6,illumination,732,452,10.55,1.4940,0.6093,0.7486,0.8661,1,1,1,0.0000,0.5020,0.7012,0.8506
v_abstract_1_2,viewpoint,1529,1340,11.10,0.4062,0.8751,0.9379,0.9608,1,1,1,0.5938,0.8646,0.9188,0.9594
v_abstract_1_3,viewpoint,1439,1195,11.67,1.4356,0.8304,0.9173,0.9493,1,1,1,0.0000,0.5215,0.7129,0.8564
v_abstract_1_4,viewpoint,911,615,11.18,3.4605,0.6795,0.8255,0.8979,0,1,1,0.0000,0.0000,0.3079,0.6540
v_abstract_1_5,viewpoint,1044,818,11.53,1.1181,0.7816,0.8966,0.9368,1,1,1,0.0000,0.6273,0.7764,0.8882
v_abstract_1_6,viewpoint,685,438,11.57,1.5723,0.6292,0.7635,0.8336,1,1,1,0.0000,0.4759,0.6855,0.8428
v_adam_1_2,viewpoint,1154,995,11.04,0.2973,0.8657,0.9575,0.9835,1,1,1,0.7027,0.9009,0.9405,0.9703
v_adam_1_3,viewpoint,948,770,11.88,1.1232,0.7880,0.9262,0.9747,1,1,1,0.0000,0.6256,0.7754,0.8877
v_adam_1_4,viewpoint,559,379,11.52,1.9675,0.6637,0.8247,0.9123,1,1,1,0.0000,0.3442,0.6065,0.8032
v_adam_1_5,viewpoint,810,645,10.99,1.7805,0.7901,0.9222,0.9519,1,1,1,0.0000,0.4065,0.6439,0.8219
v_adam_1_6,viewpoint,769,576,10.71,1.6570,0.7178,0.8908,0.9532,1,1,1,0.0000,0.4477,0.6686,0.8343
v_apprentices_1_2,viewpoint,1395,1289,20.00,0.2228,0.9247,0.9735,0.9842,1,1,1,0.7772,0.9257,0.9554,0.9777
v_apprentices_1_3,viewpoint,1208,1083,10.73,0.3268,0.8907,0.9702,0.9859,1,1,1,0.6732,0.8911,0.9346,0.9673
v_apprentices_1_4,viewpoint,975,820,11.07,0.7996,0.8359,0.9395,0.9723,1,1,1,0.2004,0.7335,0.8401,0.9200
v_apprentices_1_5,viewpoint,767,615,11.38,1.2730,0.7875,0.9087,0.9622,1,1,1,0.0000,0.5757,0.7454,0.8727
v_apprentices_1_6,viewpoint,591,443,10.82,1.2715,0.7327,0.8866,0.9374,1,1,1,0.0000,0.5762,0.7457,0.8729
v_azzola_1_2,viewpoint,1407,1166,12.17,0.7518,0.8138,0.9261,0.9588,1,1,1,0.2482,0.7494,0.8496,0.9248
v_azzola_1_3,viewpoint,1010,716,12.52,2.2845,0.6762,0.8693,0.9386,1,1,1,0.0000,0.2385,0.5431,0.7715
v_azzola_1_4,viewpoint,1485,1329,11.81,0.5128,0.8909,0.9630,0.9778,1,1,1,0.4872,0.8291,0.8974,0.9487
v_azzola_1_5,viewpoint,785,557,11.95,1.6566,0.6879,0.8522,0.9083,1,1,1,0.0000,0.4478,0.6687,0.8343
v_azzola_1_6,viewpoint,464,233,12.02,2.0350,0.4504,0.6616,0.7435,1,1,1,0.0000,0.3217,0.5930,0.7965
v_bark_1_2,viewpoint,686,424,10.18,1.9556,0.5816,0.7536,0.8265,1,1,1,0.0000,0.3481,0.6089,0.8044
v_bark_1_3,viewpoint,288,11,10.65,371.9063,0.0000,0.0000,0.0000,0,0,0,0.0000,0.0000,0.0000,0.0000
v_bark_1_4,viewpoint,296,13,10.83,328.9938,0.0000,0.0000,0.0000,0,0,0,0.0000,0.0000,0.0000,0.0000
v_bark_1_5,viewpoint,303,9,11.03,299.3433,0.0132,0.0198,0.0297,0,0,0,0.0000,0.0000,0.0000,0.0000
v_bark_1_6,viewpoint,319,9,11.59,1082.3657,0.0000,0.0000,0.0000,0,0,0,0.0000,0.0000,0.0000,0.0000
v_bees_1_2,viewpoint,1581,1402,13.26,0.5523,0.8855,0.9500,0.9760,1,1,1,0.4477,0.8159,0.8895,0.9448
v_bees_1_3,viewpoint,1680,1516,11.89,0.4376,0.9042,0.9589,0.9786,1,1,1,0.5624,0.8541,0.9125,0.9562
v_bees_1_4,viewpoint,1386,1243,11.60,0.6301,0.8947,0.9639,0.9805,1,1,1,0.3699,0.7900,0.8740,0.9370
v_bees_1_5,viewpoint,946,745,11.25,1.6204,0.7706,0.8911,0.9397,1,1,1,0.0000,0.4599,0.6759,0.8380
v_bees_1_6,viewpoint,1103,902,10.70,1.4928,0.8087,0.9121,0.9519,1,1,1,0.0000,0.5024,0.7014,0.8507
v_beyus_1_2,viewpoint,322,163,10.68,3.7156,0.4814,0.7019,0.7888,0,1,1,0.0000,0.0000,0.2569,0.6284
v_beyus_1_3,viewpoint,324,133,10.97,6.2067,0.4043,0.6019,0.7315,0,0,1,0.0000,0.0000,0.0000,0.3793
v_beyus_1_4,viewpoint,553,402,11.33,1.5624,0.6998,0.8680,0.9078,1,1,1,0.0000,0.4792,0.6875,0.8438
v_beyus_1_5,viewpoint,259,99,11.01,4.9929,0.3668,0.5521,0.6448,0,1,1,0.0000,0.0000,0.0014,0.5007
v_beyus_1_6,viewpoint,445,240,11.49,3.6594,0.5146,0.7281,0.8472,0,1,1,0.0000,0.0000,0.2681,0.6341
v_bip_1_2,viewpoint,732,560,12.30,0.4680,0.7637,0.9016,0.9495,1,1,1,0.5320,0.8440,0.9064,0.9532
v_bip_1_3,viewpoint,687,510,12.35,0.5148,0.7322,0.8967,0.9418,1,1,1,0.4852,0.8284,0.8970,0.9485
v_bip_1_4,viewpoint,677,514,11.71,0.4706,0.7430,0.8833,0.9291,1,1,1,0.5294,0.8431,0.9059,0.9529
v_bip_1_5,viewpoint,260,81,10.90,1.3266,0.2846,0.4808,0.5538,1,1,1,0.0000,0.5578,0.7347,0.8673
v_bip_1_6,viewpoint,207,24,12.47,2.9867,0.1159,0.1884,0.2319,1,1,1,0.0000,0.0044,0.4027,0.7013
v_bird_1_2,viewpoint,747,591,14.63,76.7124,0.0000,0.0000,0.0000,0,0,0,0.0000,0.0000,0.0000,0.0000
v_bird_1_3,viewpoint,650,476,14.40,83.8995,0.0000,0.0000,0.0000,0,0,0,0.0000,0.0000,0.0000,0.0000
v_bird_1_4,viewpoint,741,555,14.67,99.3680,0.0000,0.0000,0.0000,0,0,0,0.0000,0.0000,0.0000,0.0000
v_bird_1_5,viewpoint,641,373,14.78,81.4102,0.0000,0.0000,0.0000,0,0,0,0.0000,0.0000,0.0000,0.0000
v_bird_1_6,viewpoint,367,128,13.85,172.3566,0.0027,0.0027,0.0027,0,0,0,0.0000,0.0000,0.0000,0.0000
v_birdwoman_1_2,viewpoint,295,103,11.71,44.3724,0.0000,0.0000,0.0000,0,0,0,0.0000,0.0000,0.0000,0.0000
v_birdwoman_1_3,viewpoint,322,160,11.08,51.1666,0.0000,0.0000,0.0000,0,0,0,0.0000,0.0000,0.0000,0.0000
v_birdwoman_1_4,viewpoint,557,380,12.45,50.1916,0.0000,0.0000,0.0000,0,0,0,0.0000,0.0000,0.0000,0.0000
v_birdwoman_1_5,viewpoint,1061,830,12.19,52.9070,0.0000,0.0000,0.0000,0,0,0,0.0000,0.0000,0.0000,0.0000
v_birdwoman_1_6,viewpoint,653,438,11.46,51.7143,0.0000,0.0000,0.0015,0,0,0,0.0000,0.0000,0.0000,0.0000
v_blueprint_1_2,viewpoint,1465,1253,11.25,1.2202,0.8341,0.9509,0.9782,1,1,1,0.0000,0.5933,0.7560,0.8780
v_blueprint_1_3,viewpoint,1097,839,11.17,1.8462,0.7621,0.8988,0.9544,1,1,1,0.0000,0.3846,0.6308,0.8154
v_blueprint_1_4,viewpoint,1217,1012,10.94,1.0087,0.8118,0.9293,0.9712,1,1,1,0.0000,0.6638,0.7983,0.8991
v_blueprint_1_5,viewpoint,761,523,10.89,1.9796,0.6478,0.8252,0.8870,1,1,1,0.0000,0.3401,0.6041,0.8020
v_blueprint_1_6,viewpoint,504,299,10.85,1.1248,0.5635,0.7282,0.8056,1,1,1,0.0000,0.6251,0.7750,0.8875
v_boat_1_2,viewpoint,1538,1303,11.43,0.8875,0.8446,0.9499,0.9720,1,1,1,0.1125,0.7042,0.8225,0.9112
v_boat_1_3,viewpoint,778,485,12.26,0.9716,0.6221,0.8252,0.9152,1,1,1,0.0284,0.6761,0.8057,0.9028
v_boat_1_4,viewpoint,195,7,11.78,191.8630,0.0051,0.0051,0.0103,0,0,0,0.0000,0.0000,0.0000,0.0000
v_boat_1_5,viewpoint,220,8,11.43,437.3462,0.0000,0.0000,0.0000,0,0,0,0.0000,0.0000,0.0000,0.0000
v_boat_1_6,viewpoint,305,93,11.03,4.3886,0.2885,0.4197,0.5082,0,1,1,0.0000,0.0000,0.1223,0.5611
v_bricks_1_2,viewpoint,1814,1601,11.05,33.1357,0.0006,0.0110,0.0342,0,0,0,0.0000,0.0000,0.0000,0.0000
v_bricks_1_3,viewpoint,1678,1435,12.39,31.7679,0.0018,0.0089,0.0334,0,0,0,0.0000,0.0000,0.0000,0.0000
v_bricks_1_4,viewpoint,1233,985,11.23,30.6038,0.0008,0.0016,0.0105,0,0,0,0.0000,0.0000,0.0000,0.0000
v_bricks_1_5,viewpoint,956,688,11.58,27.7323,0.0000,0.0021,0.0073,0,0,0,0.0000,0.0000,0.0000,0.0000
v_bricks_1_6,viewpoint,514,200,11.22,28.6568,0.0000,0.0000,0.0000,0,0,0,0.0000,0.0000,0.0000,0.0000
v_busstop_1_2,viewpoint,1585,1341,13.25,0.5227,0.8416,0.9426,0.9653,1,1,1,0.4773,0.8258,0.8955,0.9477
v_busstop_1_3,viewpoint,1156,901,12.64,1.1562,0.7768,0.8815,0.9282,1,1,1,0.0000,0.6146,0.7688,0.8844
v_busstop_1_4,viewpoint,1292,1086,12.07,0.8544,0.8351,0.9373,0.9574,1,1,1,0.1456,0.7152,0.8291,0.9146
v_busstop_1_5,viewpoint,1225,1021,11.53,0.6199,0.8229,0.9339,0.9649,1,1,1,0.3801,0.7934,0.8760,0.9380
v_busstop_1_6,viewpoint,1539,1322,11.77,0.7653,0.8583,0.9506,0.9682,1,1,1,0.2347,0.7449,0.8469,0.9235
v_calder_1_2,viewpoint,836,688,11.30,0.6456,0.8146,0.9067,0.9390,1,1,1,0.3544,0.7848,0.8709,0.9354
v_calder_1_3,viewpoint,1103,956,10.88,0.7152,0.8631,0.9374,0.9574,1,1,1,0.2848,0.7616,0.8570,0.9285
v_calder_1_4,viewpoint,510,322,10.49,1.7352,0.6137,0.7529,0.8255,1,1,1,0.0000,0.4216,0.6530,0.8265
v_calder_1_5,viewpoint,349,124,10.61,1.8874,0.3381,0.5158,0.6304,1,1,1,0.0000,0.3709,0.6225,0.8113
v_calder_1_6,viewpoint,254,8,11.48,109.4081,0.0354,0.0709,0.1142,0,0,0,0.0000,0.0000,0.0000,0.0000
v_cartooncity_1_2,viewpoint,1366,1270,11.34,61.9323,0.0000,0.0007,0.0007,0,0,0,0.0000,0.0000,0.0000,0.0000
v_cartooncity_1_3,viewpoint,633,382,10.65,62.7440,0.0000,0.0000,0.0000,0,0,0,0.0000,0.0000,0.0000,0.0000
v_cartooncity_1_4,viewpoint,1167,1005,10.32,73.9141,0.0000,0.0000,0.0000,0,0,0,0.0000,0.0000,0.0000,0.0000
v_cartooncity_1_5,viewpoint,642,404,10.78,75.4786,0.0000,0.0000,0.0000,0,0,0,0.0000,0.0000,0.0000,0.0000
v_cartooncity_1_6,viewpoint,591,350,10.43,67.3690,0.0000,0.0000,0.0000,0,0,0,0.0000,0.0000,0.0000,0.0000
v_charing_1_2,viewpoint,379,173,10.85,8.5681,0.4565,0.5910,0.6992,0,0,0,0.0000,0.0000,0.0000,0.1432
v_charing_1_3,viewpoint,265,65,10.77,150.6925,0.2415,0.3698,0.4642,0,0,0,0.0000,0.0000,0.0000,0.0000
v_charing_1_4,viewpoint,351,162,11.59,34.4695,0.4615,0.6410,0.7550,0,0,0,0.0000,0.0000,0.0000,0.0000
v_charing_1_5,viewpoint,333,133,14.51,72.4468,0.3784,0.5225,0.6156,0,0,0,0.0000,0.0000,0.0000,0.0000
v_charing_1_6,viewpoint,292,119,11.97,1338.9980,0.3425,0.5240,0.6062,0,0,0,0.0000,0.0000,0.0000,0.0000
v_churchill_1_2,viewpoint,893,644,11.40,2.6924,0.7256,0.8287,0.8858,1,1,1,0.0000,0.1025,0.4615,0.7308
v_churchill_1_3,viewpoint,739,463,11.38,5.8937,0.6265,0.7551,0.8146,0,0,1,0.0000,0.0000,0.0000,0.4106
v_churchill_1_4,viewpoint,658,403,11.10,4.1790,0.6231,0.7660,0.8571,0,1,1,0.0000,0.0000,0.1642,0.5821
v_churchill_1_5,viewpoint,1112,993,10.75,0.6317,0.8930,0.9406,0.9505,1,1,1,0.3683,0.7894,0.8737,0.9368
v_churchill_1_6,viewpoint,421,226,10.48,5.8344,0.5321,0.6888,0.7933,0,0,1,0.0000,0.0000,0.0000,0.4166
v_circus_1_2,viewpoint,473,369,10.22,0.5515,0.7907,0.8922,0.9154,1,1,1,0.4485,0.8162,0.8897,0.9448
v_circus_1_3,viewpoint,466,335,10.16,1.1524,0.7039,0.8605,0.9185,1,1,1,0.0000,0.6159,0.7695,0.8848
v_circus_1_4,viewpoint,345,209,10.13,1.7705,0.6000,0.7565,0.8609,1,1,1,0.0000,0.4098,0.6459,0.8230
v_circus_1_5,viewpoint,492,376,10.13,0.7963,0.7500,0.8801,0.9146,1,1,1,0.2037,0.7346,0.8407,0.9204
v_circus_1_6,viewpoint,406,272,10.18,1.4226,0.6650,0.8300,0.8842,1,1,1,0.0000,0.5258,0.7155,0.8577
v_coffeehouse_1_2,viewpoint,750,602,10.58,0.4788,0.8027,0.9067,0.9347,1,1,1,0.5212,0.8404,0.9042,0.9521
v_coffeehouse_1_3,viewpoint,805,656,9.89,0.6008,0.8137,0.8957,0.9342,1,1,1,0.3992,0.7997,0.8798,0.9399
v_coffeehouse_1_4,viewpoint,676,527,9.72,1.1097,0.7722,0.8802,0.9157,1,1,1,0.0000,0.6301,0.7781,0.8890
v_coffeehouse_1_5,viewpoint,646,504,9.46,0.2860,0.7833,0.8870,0.9118,1,1,1,0.7140,0.9047,0.9428,0.9714
v_coffeehouse_1_6,viewpoint,483,322,9.19,1.1073,0.6770,0.7888,0.8468,1,1,1,0.0000,0.6309,0.7785,0.8893
v_colors_1_2,viewpoint,549,316,10.44,1.1384,0.5647,0.7577,0.8015,1,1,1,0.0000,0.6205,0.7723,0.8862
v_colors_1_3,viewpoint,502,264,9.79,2.2139,0.5139,0.6952,0.7888,1,1,1,0.0000,0.2620,0.5572,0.7786
v_colors_1_4,viewpoint,275,57,9.98,9.5740,0.2036,0.2873,0.3491,0,0,0,0.0000,0.0000,0.0000,0.0426
v_colors_1_5,viewpoint,241,24,9.83,107.5770,0.0954,0.1701,0.2075,0,0,0,0.0000,0.0000,0.0000,0.0000
v_colors_1_6,viewpoint,205,13,9.72,67.4729,0.0829,0.1317,0.1610,0,0,0,0.0000,0.0000,0.0000,0.0000
v_courses_1_2,viewpoint,1088,978,10.72,1.0144,0.9026,0.9651,0.9789,1,1,1,0.0000,0.6619,0.7971,0.8986
v_courses_1_3,viewpoint,855,672,10.95,1.7751,0.7871,0.9018,0.9462,1,1,1,0.0000,0.4083,0.6450,0.8225
v_courses_1_4,viewpoint,834,698,10.91,1.3107,0.8261,0.9353,0.9580,1,1,1,0.0000,0.5631,0.7379,0.8689
v_courses_1_5,viewpoint,587,412,10.04,3.2068,0.6457,0.8313,0.8825,0,1,1,0.0000,0.0000,0.3586,0.6793
v_courses_1_6,viewpoint,458,299,10.62,5.3050,0.5655,0.7707,0.8537,0,0,1,0.0000,0.0000,0.0000,0.4695
v_dirtywall_1_2,viewpoint,1291,1136,20.55,0.4042,0.8792,0.9574,0.9783,1,1,1,0.5958,0.8653,0.9192,0.9596
v_dirtywall_1_3,viewpoint,1088,878,11.95,0.5861,0.8116,0.9292,0.9697,1,1,1,0.4139,0.8046,0.8828,0.9414
v_dirtywall_1_4,viewpoint,762,517,11.57,1.8358,0.6811,0.8360,0.9213,1,1,1,0.0000,0.3881,0.6328,0.8164
v_dirtywall_1_5,viewpoint,952,717,11.98,0.7492,0.7479,0.8992,0.9548,1,1,1,0.2508,0.7503,0.8502,0.9251
v_dirtywall_1_6,viewpoint,549,310,10.77,1.5660,0.5337,0.7013,0.7887,1,1,1,0.0000,0.4780,0.6868,0.8434
v_dogman_1_2,viewpoint,852,663,10.62,1.2160,0.7770,0.8732,0.9155,1,1,1,0.0000,0.5947,0.7568,0.8784
v_dogman_1_3,viewpoint,954,807,10.94,1.0791,0.8375,0.8931,0.9182,1,1,1,0.0000,0.6403,0.7842,0.8921
v_dogman_1_4,viewpoint,473,254,10.46,8.0274,0.5412,0.6934,0.7590,0,0,0,0.0000,0.0000,0.0000,0.1973
v_dogman_1_5,viewpoint,681,428,10.99,3.7948,0.6270,0.7797,0.8282,0,1,1,0.0000,0.0000,0.2410,0.6205
v_dogman_1_6,viewpoint,343,127,12.26,26.7241,0.3469,0.4927,0.5598,0,0,0,0.0000,0.0000,0.0000,0.0000
v_eastsouth_1_2,viewpoint,1471,1312,12.92,0.3054,0.8912,0.9667,0.9796,1,1,1,0.6946,0.8982,0.9389,0.9695
v_eastsouth_1_3,viewpoint,668,422,12.12,1.0309,0.6063,0.8219,0.9192,1,1,1,0.0000,0.6564,0.7938,0.8969
v_eastsouth_1_4,viewpoint,220,8,11.53,542.8142,0.0000,0.0091,0.0136,0,0,0,0.0000,0.0000,0.0000,0.0000
v_eastsouth_1_5,viewpoint,340,71,11.64,3.0772,0.1882,0.3882,0.5000,0,1,1,0.0000,0.0000,0.3846,0.6923
v_eastsouth_1_6,viewpoint,269,38,11.09,4.4568,0.1413,0.2268,0.2974,0,1,1,0.0000,0.0000,0.1086,0.5543
v_feast_1_2,viewpoint,1031,824,11.21,0.6070,0.8021,0.9457,0.9670,1,1,1,0.3930,0.7977,0.8786,0.9393
v_feast_1_3,viewpoint,1335,1096,11.88,1.0273,0.8142,0.9476,0.9745,1,1,1,0.0000,0.6576,0.7945,0.8973
v_feast_1_4,viewpoint,671,445,12.19,2.2430,0.6408,0.8241,0.8793,1,1,1,0.0000,0.2523,0.5514,0.7757
v_feast_1_5,viewpoint,1157,908,11.04,0.8142,0.7684,0.9084,0.9637,1,1,1,0.1858,0.7286,0.8372,0.9186
v_feast_1_6,viewpoint,832,595,11.39,1.0292,0.6719,0.8534,0.9207,1,1,1,0.0000,0.6569,0.7942,0.8971
v_fest_1_2,viewpoint,1486,1237,11.40,1.4095,0.8324,0.9213,0.9482,1,1,1,0.0000,0.5302,0.7181,0.8591
v_fest_1_3,viewpoint,890,631,11.51,1.4763,0.7022,0.8337,0.8955,1,1,1,0.0000,0.5079,0.7047,0.8524
v_fest_1_4,viewpoint,1085,892,11.14,0.6044,0.8203,0.9115,0.9512,1,1,1,0.3956,0.7985,0.8791,0.9396
v_fest_1_5,viewpoint,962,682,11.85,1.9696,0.6996,0.8524,0.9200,1,1,1,0.0000,0.3435,0.6061,0.8030
v_fest_1_6,viewpoint,740,438,11.74,3.7385,0.5811,0.7568,0.8392,0,1,1,0.0000,0.0000,0.2523,0.6262
v_gardens_1_2,viewpoint,1082,777,12.73,2.4721,0.7098,0.8410,0.9002,1,1,1,0.0000,0.1760,0.5056,0.7528
v_gardens_1_3,viewpoint,508,223,12.87,17.3364,0.4252,0.5591,0.6535,0,0,0,0.0000,0.0000,0.0000,0.0000
v_gardens_1_4,viewpoint,1477,1227,12.34,1.1766,0.8321,0.9282,0.9580,1,1,1,0.0000,0.6078,0.7647,0.8823
v_gardens_1_5,viewpoint,667,389,11.30,3.9766,0.5592,0.7256,0.8081,0,1,1,0.0000,0.0000,0.2047,0.6023
v_gardens_1_6,viewpoint,1129,882,13.26,1.1010,0.7741,0.8946,0.9424,1,1,1,0.0000,0.6330,0.7798,0.8899
v_grace_1_2,viewpoint,1109,835,10.13,1.4518,0.7484,0.8945,0.9468,1,1,1,0.0000,0.5161,0.7096,0.8548
v_grace_1_3,viewpoint,919,637,9.94,1.0989,0.6768,0.8444,0.9238,1,1,1,0.0000,0.6337,0.7802,0.8901
v_grace_1_4,viewpoint,731,437,11.24,3.3956,0.5964,0.7606,0.8536,0,1,1,0.0000,0.0000,0.3209,0.6604
v_grace_1_5,viewpoint,522,271,10.20,3.3632,0.4962,0.6743,0.7548,0,1,1,0.0000,0.0000,0.3274,0.6637
v_grace_1_6,viewpoint,340,95,10.27,5.6826,0.2706,0.3882,0.4853,0,0,1,0.0000,0.0000,0.0000,0.4317
v_graffiti_1_2,viewpoint,993,822,11.70,1.0568,0.8207,0.9184,0.9517,1,1,1,0.0000,0.6477,0.7886,0.8943
v_graffiti_1_3,viewpoint,721,435,11.60,2.1238,0.5992,0.7850,0.8766,1,1,1,0.0000,0.2921,0.5752,0.7876
v_graffiti_1_4,viewpoint,547,265,11.54,1.4556,0.4479,0.6636,0.7751,1,1,1,0.0000,0.5148,0.7089,0.8544
v_graffiti_1_5,viewpoint,418,148,10.98,1.6875,0.3421,0.5263,0.6579,1,1,1,0.0000,0.4375,0.6625,0.8313
v_graffiti_1_6,viewpoint,255,15,12.37,194.4759,0.0549,0.0824,0.1294,0,0,0,0.0000,0.0000,0.0000,0.0000
v_home_1_2,viewpoint,834,684,11.74,1.4217,0.8022,0.9137,0.9484,1,1,1,0.0000,0.5261,0.7157,0.8578
v_home_1_3,viewpoint,706,517,12.65,3.2515,0.7195,0.8669,0.8994,0,1,1,0.0000,0.0000,0.3497,0.6748
v_home_1_4,viewpoint,776,618,11.50,1.2399,0.7809,0.9124,0.9575,1,1,1,0.0000,0.5867,0.7520,0.8760
v_home_1_5,viewpoint,632,391,12.35,6.6449,0.6139,0.7468,0.8323,0,0,1,0.0000,0.0000,0.0000,0.3355
v_home_1_6,viewpoint,650,386,12.15,1.0591,0.5831,0.8246,0.9123,1,1,1,0.0000,0.6470,0.7882,0.8941
v_laptop_1_2,viewpoint,890,805,13.31,0.7734,0.8989,0.9652,0.9764,1,1,1,0.2266,0.7422,0.8453,0.9227
v_laptop_1_3,viewpoint,457,307,11.95,0.7806,0.6696,0.8381,0.9256,1,1,1,0.2194,0.7398,0.8439,0.9219
v_laptop_1_4,viewpoint,171,8,12.70,219.1380,0.0175,0.0292,0.0877,0,0,0,0.0000,0.0000,0.0000,0.0000
v_laptop_1_5,viewpoint,159,7,11.78,340.9328,0.0000,0.0000,0.0000,0,0,0,0.0000,0.0000,0.0000,0.0000
v_laptop_1_6,viewpoint,187,9,11.48,568.4311,0.0000,0.0000,0.0000,0,0,0,0.0000,0.0000,0.0000,0.0000
v_london_1_2,viewpoint,1450,1269,11.18,0.4011,0.8717,0.9545,0.9731,1,1,1,0.5989,0.8663,0.9198,0.9599
v_london_1_3,viewpoint,1294,1109,11.29,0.5152,0.8532,0.9451,0.9590,1,1,1,0.4848,0.8283,0.8970,0.9485
v_london_1_4,viewpoint,1142,874,10.76,2.7737,0.7513,0.8905,0.9422,1,1,1,0.0000,0.0754,0.4453,0.7226
v_london_1_5,viewpoint,1479,1291,10.28,0.6760,0.8688,0.9425,0.9662,1,1,1,0.3240,0.7747,0.8648,0.9324
v_london_1_6,viewpoint,1495,1341,10.09,0.6648,0.8930,0.9585,0.9759,1,1,1,0.3352,0.7784,0.8670,0.9335
v_machines_1_2,viewpoint,1094,929,11.47,0.6231,0.8510,0.9506,0.9790,1,1,1,0.3769,0.7923,0.8754,0.9377
v_machines_1_3,viewpoint,668,434,12.46,2.4946,0.6422,0.8263,0.9087,1,1,1,0.0000,0.1685,0.5011,0.7505
v_machines_1_4,viewpoint,862,713,11.29,0.6705,0.8109,0.9420,0.9687,1,1,1,0.3295,0.7765,0.8659,0.9329
v_machines_1_5,viewpoint,540,330,11.32,2.2846,0.6148,0.8074,0.8815,1,1,1,0.0000,0.2385,0.5431,0.7715
v_machines_1_6,viewpoint,813,683,11.07,0.4785,0.8290,0.9471,0.9815,1,1,1,0.5215,0.8405,0.9043,0.9521
v_man_1_2,viewpoint,980,727,12.24,2.4185,0.7378,0.8735,0.9429,1,1,1,0.0000,0.1938,0.5163,0.7582
v_man_1_3,viewpoint,697,482,11.69,6.2618,0.6442,0.8006,0.8608,0,0,1,0.0000,0.0000,0.0000,0.3738
v_man_1_4,viewpoint,612,360,11.47,4.3876,0.5817,0.7582,0.8415,0,1,1,0.0000,0.0000,0.1225,0.5612
v_man_1_5,viewpoint,863,617,12.83,3.7057,0.6883,0.8667,0.9282,0,1,1,0.0000,0.0000,0.2589,0.6294
v_man_1_6,viewpoint,858,617,10.78,1.8648,0.7145,0.8531,0.9161,1,1,1,0.0000,0.3784,0.6270,0.8135
v_maskedman_1_2,viewpoint,805,608,10.01,0.9991,0.7491,0.8708,0.9329,1,1,1,0.0009,0.6670,0.8002,0.9001
v_maskedman_1_3,viewpoint,567,385,10.23,1.0119,0.6861,0.8095,0.8660,1,1,1,0.0000,0.6627,0.7976,0.8988
v_maskedman_1_4,viewpoint,844,616,9.73,2.0852,0.7275,0.8400,0.8934,1,1,1,0.0000,0.3049,0.5830,0.7915
v_maskedman_1_5,viewpoint,924,734,10.76,1.5380,0.7933,0.8874,0.9297,1,1,1,0.0000,0.4873,0.6924,0.8462
v_maskedman_1_6,viewpoint,296,84,9.70,9.6913,0.2703,0.3784,0.4324,0,0,0,0.0000,0.0000,0.0000,0.0309
v_pomegranate_1_2,viewpoint,1391,1123,12.53,0.3449,0.8037,0.9267,0.9583,1,1,1,0.6551,0.8850,0.9310,0.9655
v_pomegranate_1_3,viewpoint,1159,814,12.05,1.8699,0.6920,0.8697,0.9474,1,1,1,0.0000,0.3767,0.6260,0.8130
v_pomegranate_1_4,viewpoint,1028,782,11.93,1.1591,0.7471,0.9086,0.9504,1,1,1,0.0000,0.6136,0.7682,0.8841
v_pomegranate_1_5,viewpoint,1073,789,11.70,1.8467,0.7316,0.8779,0.9394,1,1,1,0.0000,0.3844,0.6307,0.8153
v_pomegranate_1_6,viewpoint,1061,846,11.30,1.4889,0.7842,0.9105,0.9453,1,1,1,0.0000,0.5037,0.7022,0.8511
v_posters_1_2,viewpoint,935,677,14.66,115.7270,0.0000,0.0000,0.0000,0,0,0,0.0000,0.0000,0.0000,0.0000
v_posters_1_3,viewpoint,1243,981,15.04,120.9099,0.0000,0.0000,0.0000,0,0,0,0.0000,0.0000,0.0000,0.0000
v_posters_1_4,viewpoint,1122,869,16.36,112.7877,0.0000,0.0000,0.0000,0,0,0,0.0000,0.0000,0.0000,0.0000
v_posters_1_5,viewpoint,866,531,14.21,124.3223,0.0000,0.0000,0.0000,0,0,0,0.0000,0.0000,0.0000,0.0000
v_posters_1_6,viewpoint,805,447,15.23,147.3412,0.0000,0.0000,0.0000,0,0,0,0.0000,0.0000,0.0000,0.0000
v_samples_1_2,viewpoint,1327,1162,14.96,68.2185,0.0000,0.0000,0.0000,0,0,0,0.0000,0.0000,0.0000,0.0000
v_samples_1_3,viewpoint,1403,1237,13.91,72.8803,0.0000,0.0000,0.0007,0,0,0,0.0000,0.0000,0.0000,0.0000
v_samples_1_4,viewpoint,1046,830,15.54,71.8748,0.0000,0.0000,0.0000,0,0,0,0.0000,0.0000,0.0000,0.0000
v_samples_1_5,viewpoint,1231,1062,14.11,80.8830,0.0000,0.0000,0.0000,0,0,0,0.0000,0.0000,0.0000,0.0000
v_samples_1_6,viewpoint,920,710,13.03,67.0811,0.0000,0.0000,0.0000,0,0,0,0.0000,0.0000,0.0000,0.0000
v_soldiers_1_2,viewpoint,1040,813,12.23,1.1461,0.7798,0.8952,0.9337,1,1,1,0.0000,0.6180,0.7708,0.8854
v_soldiers_1_3,viewpoint,702,470,10.99,2.4488,0.6724,0.8077,0.8732,1,1,1,0.0000,0.1837,0.5102,0.7551
v_soldiers_1_4,viewpoint,442,230,10.88,4.9033,0.5090,0.6176,0.6652,0,1,1,0.0000,0.0000,0.0193,0.5097
v_soldiers_1_5,viewpoint,349,122,10.48,2.6255,0.3295,0.4097,0.4413,1,1,1,0.0000,0.1248,0.4749,0.7374
v_soldiers_1_6,viewpoint,830,599,10.57,96.9610,0.0000,0.0000,0.0000,0,0,0,0.0000,0.0000,0.0000,0.0000
v_strand_1_2,viewpoint,1391,1298,11.01,0.2566,0.9303,0.9856,0.9935,1,1,1,0.7434,0.9145,0.9487,0.9743
v_strand_1_3,viewpoint,932,725,11.59,1.5520,0.7296,0.8938,0.9431,1,1,1,0.0000,0.4827,0.6896,0.8448
v_strand_1_4,viewpoint,934,750,11.05,3.0349,0.7827,0.9122,0.9625,0,1,1,0.0000,0.0000,0.3930,0.6965
v_strand_1_5,viewpoint,906,700,11.15,3.2039,0.7252,0.8664,0.9360,0,1,1,0.0000,0.0000,0.3592,0.6796
v_strand_1_6,viewpoint,716,515,10.86,5.1154,0.6550,0.8687,0.9525,0,0,1,0.0000,0.0000,0.0000,0.4885
v_sunseason_1_2,viewpoint,1697,1572,10.75,0.2461,0.9281,0.9782,0.9888,1,1,1,0.7539,0.9180,0.9508,0.9754
v_sunseason_1_3,viewpoint,1331,1182,10.75,0.8861,0.8843,0.9617,0.9782,1,1,1,0.1139,0.7046,0.8228,0.9114
v_sunseason_1_4,viewpoint,690,489,11.18,1.2342,0.7029,0.8304,0.8710,1,1,1,0.0000,0.5886,0.7532,0.8766
v_sunseason_1_5,viewpoint,533,333,12.02,3.0109,0.5929,0.7542,0.8143,0,1,1,0.0000,0.0000,0.3978,0.6989
v_sunseason_1_6,viewpoint,397,193,11.27,6.9597,0.4962,0.6398,0.7204,0,0,1,0.0000,0.0000,0.0000,0.3040
v_tabletop_1_2,viewpoint,944,675,11.37,1.4049,0.7150,0.8485,0.9163,1,1,1,0.0000,0.5317,0.7190,0.8595
v_tabletop_1_3,viewpoint,370,100,11.27,2.8839,0.2784,0.4351,0.5541,1,1,1,0.0000,0.0387,0.4232,0.7116
v_tabletop_1_4,viewpoint,409,163,11.17,2.4509,0.3961,0.5330,0.6161,1,1,1,0.0000,0.1830,0.5098,0.7549
v_tabletop_1_5,viewpoint,450,191,10.96,1.9557,0.4222,0.5956,0.6667,1,1,1,0.0000,0.3481,0.6089,0.8044
v_tabletop_1_6,viewpoint,455,175,10.86,2.7883,0.4110,0.5648,0.6571,1,1,1,0.0000,0.0706,0.4423,0.7212
v_tempera_1_2,viewpoint,817,700,10.93,0.4018,0.8556,0.9535,0.9731,1,1,1,0.5982,0.8661,0.9196,0.9598
v_tempera_1_3,viewpoint,817,669,11.56,0.5804,0.8140,0.9290,0.9633,1,1,1,0.4196,0.8065,0.8839,0.9420
v_tempera_1_4,viewpoint,740,634,11.02,0.8852,0.8446,0.9392,0.9676,1,1,1,0.1148,0.7049,0.8230,0.9115
v_tempera_1_5,viewpoint,684,540,10.65,2.0357,0.7880,0.8977,0.9532,1,1,1,0.0000,0.3214,0.5929,0.7964
v_tempera_1_6,viewpoint,353,180,10.92,1.5191,0.5071,0.5977,0.6742,1,1,1,0.0000,0.4936,0.6962,0.8481
v_there_1_2,viewpoint,883,637,11.37,2.0326,0.7055,0.8822,0.9502,1,1,1,0.0000,0.3225,0.5935,0.7967
v_there_1_3,viewpoint,287,64,11.51,4.3837,0.2056,0.3519,0.4286,0,1,1,0.0000,0.0000,0.1233,0.5616
v_there_1_4,viewpoint,231,11,10.87,71.1066,0.0390,0.0649,0.0952,0,0,0,0.0000,0.0000,0.0000,0.0000
v_there_1_5,viewpoint,236,8,10.26,385.2080,0.0000,0.0085,0.0085,0,0,0,0.0000,0.0000,0.0000,0.0000
v_there_1_6,viewpoint,224,6,11.42,248.6314,0.0000,0.0045,0.0045,0,0,0,0.0000,0.0000,0.0000,0.0000
v_underground_1_2,viewpoint,958,835,11.21,0.6055,0.8727,0.9374,0.9499,1,1,1,0.3945,0.7982,0.8789,0.9394
v_underground_1_3,viewpoint,726,542,10.63,1.7310,0.7452,0.8526,0.9118,1,1,1,0.0000,0.4230,0.6538,0.8269
v_underground_1_4,viewpoint,525,325,9.73,2.1678,0.6095,0.7124,0.8038,1,1,1,0.0000,0.2774,0.5664,0.7832
v_underground_1_5,viewpoint,393,185,10.01,2.8173,0.4606,0.6209,0.7125,1,1,1,0.0000,0.0609,0.4365,0.7183
v_underground_1_6,viewpoint,279,90,9.74,5.3059,0.3333,0.4409,0.5018,0,0,1,0.0000,0.0000,0.0000,0.4694
v_vitro_1_2,viewpoint,1363,1246,10.86,0.2225,0.9134,0.9780,0.9890,1,1,1,0.7775,0.9258,0.9555,0.9778
v_vitro_1_3,viewpoint,1102,967,10.81,0.6453,0.8766,0.9555,0.9773,1,1,1,0.3547,0.7849,0.8709,0.9355
v_vitro_1_4,viewpoint,823,648,10.60,1.5053,0.7764,0.9125,0.9332,1,1,1,0.0000,0.4982,0.6989,0.8495
v_vitro_1_5,viewpoint,1256,1079,10.84,0.6086,0.8551,0.9562,0.9801,1,1,1,0.3914,0.7971,0.8783,0.9391
v_vitro_1_6,viewpoint,964,743,10.77,0.4359,0.7666,0.9149,0.9575,1,1,1,0.5641,0.8547,0.9128,0.9564
v_wall_1_2,viewpoint,1320,1134,10.07,1.1308,0.8674,0.9303,0.9545,1,1,1,0.0000,0.6231,0.7738,0.8869
v_wall_1_3,viewpoint,1072,824,10.63,2.2981,0.7752,0.8843,0.9263,1,1,1,0.0000,0.2340,0.5404,0.7702
v_wall_1_4,viewpoint,1324,1196,10.57,0.4900,0.9033,0.9645,0.9804,1,1,1,0.5100,0.8367,0.9020,0.9510
v_wall_1_5,viewpoint,1013,809,10.59,2.3099,0.7749,0.8954,0.9388,1,1,1,0.0000,0.2300,0.5380,0.7690
v_wall_1_6,viewpoint,846,629,9.72,4.9290,0.7175,0.8333,0.8913,0,1,1,0.0000,0.0000,0.0142,0.5071
v_wapping_1_2,viewpoint,1316,913,11.81,1.6003,0.6755,0.8663,0.9248,1,1,1,0.0000,0.4666,0.6799,0.8400
v_wapping_1_3,viewpoint,657,320,11.01,3.5011,0.4688,0.6469,0.7412,0,1,1,0.0000,0.0000,0.2998,0.6499
v_wapping_1_4,viewpoint,813,403,11.40,3.8520,0.4785,0.6851,0.7884,0,1,1,0.0000,0.0000,0.2296,0.6148
v_wapping_1_5,viewpoint,442,141,11.11,3.2173,0.2964,0.4615,0.5498,0,1,1,0.0000,0.0000,0.3565,0.6783
v_wapping_1_6,viewpoint,267,26,11.27,8.1054,0.0899,0.1648,0.2285,0,0,0,0.0000,0.0000,0.0000,0.1895
v_war_1_2,viewpoint,797,568,11.39,1.4865,0.7114,0.8582,0.9222,1,1,1,0.0000,0.5045,0.7027,0.8514
v_war_1_3,viewpoint,570,338,11.14,1.8788,0.5965,0.7807,0.8491,1,1,1,0.0000,0.3737,0.6242,0.8121
v_war_1_4,viewpoint,1117,1000,11.46,0.5764,0.8944,0.9642,0.9812,1,1,1,0.4236,0.8079,0.8847,0.9424
v_war_1_5,viewpoint,1056,888,11.69,0.4521,0.8447,0.9555,0.9792,1,1,1,0.5479,0.8493,0.9096,0.9548
v_war_1_6,viewpoint,574,359,11.78,2.0786,0.6185,0.7822,0.8571,1,1,1,0.0000,0.3071,0.5843,0.7921
v_weapons_1_2,viewpoint,960,863,11.90,0.8754,0.8958,0.9604,0.9823,1,1,1,0.1246,0.7082,0.8249,0.9125
v_weapons_1_3,viewpoint,757,604,12.76,1.4040,0.7939,0.8983,0.9551,1,1,1,0.0000,0.5320,0.7192,0.8596
v_weapons_1_4,viewpoint,916,695,11.75,1.0464,0.7533,0.8777,0.9356,1,1,1,0.0000,0.6512,0.7907,0.8954
v_weapons_1_5,viewpoint,941,802,11.87,1.6434,0.8512,0.9267,0.9479,1,1,1,0.0000,0.4522,0.6713,0.8357
v_weapons_1_6,viewpoint,815,655,12.54,1.4142,0.8037,0.9202,0.9595,1,1,1,0.0000,0.5286,0.7172,0.8586
v_woman_1_2,viewpoint,496,326,12.26,45.3486,0.0000,0.0020,0.0020,0,0,0,0.0000,0.0000,0.0000,0.0000
v_woman_1_3,viewpoint,644,460,12.77,49.3934,0.0000,0.0000,0.0000,0,0,0,0.0000,0.0000,0.0000,0.0000
v_woman_1_4,viewpoint,569,375,11.59,51.0982,0.0000,0.0000,0.0000,0,0,0,0.0000,0.0000,0.0000,0.0000
v_woman_1_5,viewpoint,386,211,11.00,43.0633,0.0000,0.0000,0.0000,0,0,0,0.0000,0.0000,0.0000,0.0000
v_woman_1_6,viewpoint,460,254,10.66,49.6737,0.0000,0.0000,0.0000,0,0,0,0.0000,0.0000,0.0000,0.0000
v_wormhole_1_2,viewpoint,837,702,9.69,1.0754,0.8339,0.9104,0.9403,1,1,1,0.0000,0.6415,0.7849,0.8925
v_wormhole_1_3,viewpoint,1048,908,9.76,0.6340,0.8674,0.9447,0.9800,1,1,1,0.3660,0.7887,0.8732,0.9366
v_wormhole_1_4,viewpoint,1115,980,9.77,0.2398,0.8789,0.9498,0.9686,1,1,1,0.7602,0.9201,0.9520,0.9760
v_wormhole_1_5,viewpoint,685,464,9.97,11.7334,0.6642,0.7679,0.8161,0,0,0,0.0000,0.0000,0.0000,0.0000
v_wormhole_1_6,viewpoint,428,158,9.69,28.4047,0.3762,0.4860,0.5911,0,0,0,0.0000,0.0000,0.0000,0.0000
v_wounded_1_2,viewpoint,690,540,11.98,3.4009,0.7739,0.8913,0.9391,0,1,1,0.0000,0.0000,0.3198,0.6599
v_wounded_1_3,viewpoint,429,255,11.69,3.7145,0.5897,0.7389,0.8042,0,1,1,0.0000,0.0000,0.2571,0.6286
v_wounded_1_4,viewpoint,251,88,10.83,25.4075,0.3227,0.4821,0.5737,0,0,0,0.0000,0.0000,0.0000,0.0000
v_wounded_1_5,viewpoint,402,211,10.43,10.0518,0.5025,0.6642,0.7537,0,0,0,0.0000,0.0000,0.0000,0.0000
v_wounded_1_6,viewpoint,238,84,10.24,25.5338,0.3445,0.4916,0.5924,0,0,0,0.0000,0.0000,0.0000,0.0000
v_yard_1_2,viewpoint,1416,1216,11.22,0.4759,0.8559,0.9527,0.9746,1,1,1,0.5241,0.8414,0.9048,0.9524
v_yard_1_3,viewpoint,745,386,12.51,2.5665,0.5047,0.6604,0.7557,1,1,1,0.0000,0.1445,0.4867,0.7433
v_yard_1_4,viewpoint,1226,1038,12.71,1.4130,0.8352,0.9445,0.9666,1,1,1,0.0000,0.5290,0.7174,0.8587
v_yard_1_5,viewpoint,914,671,12.79,1.8369,0.7254,0.8709,0.9223,1,1,1,0.0000,0.3877,0.6326,0.8163
v_yard_1_6,viewpoint,570,263,11.52,5.5340,0.4684,0.6246,0.7281,0,0,1,0.0000,0.0000,0.0000,0.4466
v_yuri_1_2,viewpoint,810,644,12.08,1.3165,0.7827,0.8877,0.9272,1,1,1,0.0000,0.5612,0.7367,0.8684
v_yuri_1_3,viewpoint,557,357,12.41,2.9338,0.6338,0.7522,0.7971,1,1,1,0.0000,0.0221,0.4132,0.7066
v_yuri_1_4,viewpoint,398,171,12.06,27.3918,0.3945,0.5628,0.6633,0,0,0,0.0000,0.0000,0.0000,0.0000
v_yuri_1_5,viewpoint,610,400,12.10,3.1656,0.6574,0.7557,0.8262,0,1,1,0.0000,0.0000,0.3669,0.6834
v_yuri_1_6,viewpoint,440,208,12.66,14.8299,0.4795,0.6114,0.7023,0,0,0,0.0000,0.0000,0.0000,0.0000
