PairName,SeqType,NumMatches,Inliers,TimeMS,H_Error,MMA@3,MMA@5,MMA@7,MHA_Acc@3,MHA_Acc@5,MHA_Acc@7,AUC@1,AUC@3,AUC@5,AUC@10
i_ajuntament_1_2,illumination,2183,2169,311.83,0.1565,0.9927,0.9963,0.9973,1,1,1,0.8435,0.9478,0.9687,0.9843
i_ajuntament_1_3,illumination,2119,2040,33.79,0.7298,0.9420,0.9788,0.9915,1,1,1,0.2702,0.7567,0.8540,0.9270
i_ajuntament_1_4,illumination,1736,1449,32.73,0.3346,0.8237,0.9171,0.9585,1,1,1,0.6654,0.8885,0.9331,0.9665
i_ajuntament_1_5,illumination,1738,1470,32.39,0.7189,0.8205,0.9114,0.9574,1,1,1,0.2811,0.7604,0.8562,0.9281
i_ajuntament_1_6,illumination,1790,1540,32.54,0.7230,0.8408,0.9279,0.9648,1,1,1,0.2770,0.7590,0.8554,0.9277
i_autannes_1_2,illumination,1579,1571,34.44,0.1710,0.9924,0.9994,1.0000,1,1,1,0.8290,0.9430,0.9658,0.9829
i_autannes_1_3,illumination,1567,1547,30.25,0.1038,0.9872,0.9930,0.9974,1,1,1,0.8962,0.9654,0.9792,0.9896
i_autannes_1_4,illumination,1379,1321,28.07,0.9539,0.9529,0.9775,0.9848,1,1,1,0.0461,0.6820,0.8092,0.9046
i_autannes_1_5,illumination,1336,1226,28.32,0.3053,0.9162,0.9401,0.9581,1,1,1,0.6947,0.8982,0.9389,0.9695
i_autannes_1_6,illumination,1459,1399,27.84,0.1320,0.9582,0.9712,0.9808,1,1,1,0.8680,0.9560,0.9736,0.9868
i_bologna_1_2,illumination,952,938,27.13,0.2780,0.9842,0.9884,0.9905,1,1,1,0.7220,0.9073,0.9444,0.9722
i_bologna_1_3,illumination,905,894,24.09,0.4140,0.9878,0.9934,0.9945,1,1,1,0.5860,0.8620,0.9172,0.9586
i_bologna_1_4,illumination,907,878,23.29,0.7847,0.9647,0.9724,0.9735,1,1,1,0.2153,0.7384,0.8431,0.9215
i_bologna_1_5,illumination,878,870,22.96,0.4505,0.9909,0.9943,0.9954,1,1,1,0.5495,0.8498,0.9099,0.9550
i_bologna_1_6,illumination,878,871,23.05,0.4089,0.9920,0.9932,0.9932,1,1,1,0.5911,0.8637,0.9182,0.9591
i_books_1_2,illumination,2125,2098,34.87,0.1470,0.9878,0.9934,0.9972,1,1,1,0.8530,0.9510,0.9706,0.9853
i_books_1_3,illumination,2166,2112,33.45,0.1689,0.9755,0.9843,0.9922,1,1,1,0.8311,0.9437,0.9662,0.9831
i_books_1_4,illumination,2146,2107,32.44,0.0916,0.9818,0.9916,0.9958,1,1,1,0.9084,0.9695,0.9817,0.9908
i_books_1_5,illumination,2139,2111,32.38,0.0906,0.9869,0.9921,0.9958,1,1,1,0.9094,0.9698,0.9819,0.9909
i_books_1_6,illumination,2151,2071,32.07,0.1119,0.9642,0.9814,0.9884,1,1,1,0.8881,0.9627,0.9776,0.9888
i_boutique_1_2,illumination,2183,2152,34.91,0.0956,0.9863,0.9931,0.9968,1,1,1,0.9044,0.9681,0.9809,0.9904
i_boutique_1_3,illumination,2159,2131,33.33,0.1287,0.9861,0.9940,0.9986,1,1,1,0.8713,0.9571,0.9743,0.9871
i_boutique_1_4,illumination,2204,2149,32.31,0.1912,0.9732,0.9859,0.9909,1,1,1,0.8088,0.9363,0.9618,0.9809
i_boutique_1_5,illumination,2164,2086,32.29,0.1886,0.9621,0.9903,0.9940,1,1,1,0.8114,0.9371,0.9623,0.9811
i_boutique_1_6,illumination,2116,2033,34.41,0.2972,0.9603,0.9820,0.9901,1,1,1,0.7028,0.9009,0.9406,0.9703
i_bridger_1_2,illumination,1565,1553,32.88,0.1804,0.9911,0.9962,0.9981,1,1,1,0.8196,0.9399,0.9639,0.9820
i_bridger_1_3,illumination,1535,1506,26.14,0.2066,0.9805,0.9909,0.9941,1,1,1,0.7934,0.9311,0.9587,0.9793
i_bridger_1_4,illumination,1542,1518,23.93,0.1402,0.9844,0.9903,0.9961,1,1,1,0.8598,0.9533,0.9720,0.9860
i_bridger_1_5,illumination,1540,1501,23.28,0.1925,0.9734,0.9896,0.9935,1,1,1,0.8075,0.9358,0.9615,0.9808
i_bridger_1_6,illumination,1197,1051,25.06,0.4964,0.8739,0.9365,0.9649,1,1,1,0.5036,0.8345,0.9007,0.9504
i_brooklyn_1_2,illumination,1547,1452,28.86,0.2779,0.9405,0.9638,0.9716,1,1,1,0.7221,0.9074,0.9444,0.9722
i_brooklyn_1_3,illumination,1564,1499,28.53,1.1159,0.9508,0.9763,0.9898,1,1,1,0.0000,0.6280,0.7768,0.8884
i_brooklyn_1_4,illumination,1514,1425,26.39,1.0721,0.9412,0.9703,0.9868,1,1,1,0.0000,0.6426,0.7856,0.8928
i_brooklyn_1_5,illumination,1515,1442,28.14,1.1444,0.9492,0.9696,0.9861,1,1,1,0.0000,0.6185,0.7711,0.8856
i_brooklyn_1_6,illumination,1527,1436,26.50,1.1585,0.9365,0.9633,0.9758,1,1,1,0.0000,0.6138,0.7683,0.8841
i_castle_1_2,illumination,1384,1361,32.05,0.3598,0.9834,0.9899,0.9942,1,1,1,0.6402,0.8801,0.9280,0.9640
i_castle_1_3,illumination,1397,1381,31.71,0.1466,0.9885,0.9921,0.9943,1,1,1,0.8534,0.9511,0.9707,0.9853
i_castle_1_4,illumination,1399,1374,32.95,0.7342,0.9786,0.9857,0.9907,1,1,1,0.2658,0.7553,0.8532,0.9266
i_castle_1_5,illumination,1358,1327,30.03,0.3818,0.9764,0.9912,0.9934,1,1,1,0.6182,0.8727,0.9236,0.9618
i_castle_1_6,illumination,1329,1273,29.94,0.4951,0.9571,0.9767,0.9857,1,1,1,0.5049,0.8350,0.9010,0.9505
i_chestnuts_1_2,illumination,2112,2018,34.46,0.1674,0.9560,0.9706,0.9825,1,1,1,0.8326,0.9442,0.9665,0.9833
i_chestnuts_1_3,illumination,2041,1980,32.37,0.2487,0.9706,0.9833,0.9907,1,1,1,0.7513,0.9171,0.9503,0.9751
i_chestnuts_1_4,illumination,2010,1950,31.91,0.1553,0.9701,0.9821,0.9896,1,1,1,0.8447,0.9482,0.9689,0.9845
i_chestnuts_1_5,illumination,1983,1919,31.68,0.1219,0.9682,0.9839,0.9919,1,1,1,0.8781,0.9594,0.9756,0.9878
i_chestnuts_1_6,illumination,2015,1967,33.20,0.1943,0.9727,0.9896,0.9935,1,1,1,0.8057,0.9352,0.9611,0.9806
i_crownday_1_2,illumination,2026,1977,35.08,0.1820,0.9758,0.9862,0.9921,1,1,1,0.8180,0.9393,0.9636,0.9818
i_crownday_1_3,illumination,2068,2042,31.93,0.1219,0.9874,0.9894,0.9913,1,1,1,0.8781,0.9594,0.9756,0.9878
i_crownday_1_4,illumination,2123,2088,32.02,0.2673,0.9835,0.9863,0.9887,1,1,1,0.7327,0.9109,0.9465,0.9733
i_crownday_1_5,illumination,2137,2084,33.98,0.1894,0.9752,0.9813,0.9874,1,1,1,0.8106,0.9369,0.9621,0.9811
i_crownday_1_6,illumination,2032,1959,32.93,0.3157,0.9636,0.9798,0.9862,1,1,1,0.6843,0.8948,0.9369,0.9684
i_dome_1_2,illumination,1717,1712,31.82,0.0512,0.9971,0.9983,1.0000,1,1,1,0.9488,0.9829,0.9898,0.9949
i_dome_1_3,illumination,1214,1087,28.88,0.5271,0.8929,0.9160,0.9316,1,1,1,0.4729,0.8243,0.8946,0.9473
i_dome_1_4,illumination,1214,1085,27.98,0.6708,0.8962,0.9102,0.9283,1,1,1,0.3292,0.7764,0.8658,0.9329
i_dome_1_5,illumination,1250,1127,27.66,0.4187,0.9016,0.9216,0.9400,1,1,1,0.5813,0.8604,0.9163,0.9581
i_dome_1_6,illumination,1596,1503,28.59,0.2029,0.9424,0.9518,0.9612,1,1,1,0.7971,0.9324,0.9594,0.9797
i_duda_1_2,illumination,1203,1203,26.68,0.1168,1.0000,1.0000,1.0000,1,1,1,0.8832,0.9611,0.9766,0.9883
i_duda_1_3,illumination,1222,1222,25.53,0.2381,1.0000,1.0000,1.0000,1,1,1,0.7619,0.9206,0.9524,0.9762
i_duda_1_4,illumination,1232,1228,24.40,0.2401,0.9968,0.9968,0.9984,1,1,1,0.7599,0.9200,0.9520,0.9760
i_duda_1_5,illumination,1220,1215,24.44,0.3149,0.9959,0.9959,0.9975,1,1,1,0.6851,0.8950,0.9370,0.9685
i_duda_1_6,illumination,1186,1172,24.39,0.2985,0.9882,0.9907,0.9958,1,1,1,0.7015,0.9005,0.9403,0.9701
i_fenis_1_2,illumination,1549,1531,26.40,0.0906,0.9884,0.9929,0.9974,1,1,1,0.9094,0.9698,0.9819,0.9909
i_fenis_1_3,illumination,1535,1520,26.68,0.1725,0.9902,0.9941,0.9961,1,1,1,0.8275,0.9425,0.9655,0.9828
i_fenis_1_4,illumination,1312,1194,27.03,0.6466,0.9024,0.9466,0.9695,1,1,1,0.3534,0.7845,0.8707,0.9353
i_fenis_1_5,illumination,1242,1092,27.30,0.7222,0.8663,0.9283,0.9614,1,1,1,0.2778,0.7593,0.8556,0.9278
i_fenis_1_6,illumination,1298,1204,27.00,0.7511,0.9168,0.9515,0.9707,1,1,1,0.2489,0.7496,0.8498,0.9249
i_fog_1_2,illumination,1557,1527,26.04,0.1804,0.9801,0.9910,0.9929,1,1,1,0.8196,0.9399,0.9639,0.9820
i_fog_1_3,illumination,1529,1499,26.53,0.1806,0.9797,0.9869,0.9895,1,1,1,0.8194,0.9398,0.9639,0.9819
i_fog_1_4,illumination,1496,1479,26.63,0.1227,0.9886,0.9933,0.9953,1,1,1,0.8773,0.9591,0.9755,0.9877
i_fog_1_5,illumination,1174,1138,23.81,0.3210,0.9685,0.9779,0.9847,1,1,1,0.6790,0.8930,0.9358,0.9679
i_fog_1_6,illumination,1180,1129,24.48,0.3238,0.9568,0.9661,0.9771,1,1,1,0.6762,0.8921,0.9352,0.9676
i_fruits_1_2,illumination,2504,2295,51.98,0.3905,0.9153,0.9297,0.9369,1,1,1,0.6095,0.8698,0.9219,0.9610
i_fruits_1_3,illumination,2455,2220,46.27,0.6916,0.9047,0.9271,0.9442,1,1,1,0.3084,0.7695,0.8617,0.9308
i_fruits_1_4,illumination,2502,2229,45.53,0.6744,0.8929,0.9125,0.9281,1,1,1,0.3256,0.7752,0.8651,0.9326
i_fruits_1_5,illumination,2438,2224,45.81,0.3777,0.9114,0.9262,0.9409,1,1,1,0.6223,0.8741,0.9245,0.9622
i_fruits_1_6,illumination,2493,2254,46.81,0.2884,0.9045,0.9242,0.9374,1,1,1,0.7116,0.9039,0.9423,0.9712
i_gonnenberg_1_2,illumination,1204,1187,26.23,0.1382,0.9859,0.9875,0.9900,1,1,1,0.8618,0.9539,0.9724,0.9862
i_gonnenberg_1_3,illumination,1226,1182,25.51,0.2873,0.9641,0.9731,0.9845,1,1,1,0.7127,0.9042,0.9425,0.9713
i_gonnenberg_1_4,illumination,1203,1177,24.39,0.3479,0.9767,0.9809,0.9867,1,1,1,0.6521,0.8840,0.9304,0.9652
i_gonnenberg_1_5,illumination,1197,1180,24.17,0.2325,0.9858,0.9883,0.9916,1,1,1,0.7675,0.9225,0.9535,0.9768
i_gonnenberg_1_6,illumination,1212,1197,24.45,0.3512,0.9876,0.9876,0.9909,1,1,1,0.6488,0.8829,0.9298,0.9649
i_greenhouse_1_2,illumination,2014,2012,33.76,0.0475,0.9995,1.0000,1.0000,1,1,1,0.9525,0.9842,0.9905,0.9952
i_greenhouse_1_3,illumination,2014,2006,30.69,0.2034,0.9960,0.9970,0.9990,1,1,1,0.7966,0.9322,0.9593,0.9797
i_greenhouse_1_4,illumination,2002,1983,30.88,0.3281,0.9900,0.9940,0.9970,1,1,1,0.6719,0.8906,0.9344,0.9672
i_greenhouse_1_5,illumination,1990,1981,29.61,0.5788,0.9940,0.9985,0.9985,1,1,1,0.4212,0.8071,0.8842,0.9421
i_greenhouse_1_6,illumination,1973,1959,29.41,0.7814,0.9919,0.9970,0.9985,1,1,1,0.2186,0.7395,0.8437,0.9219
i_greentea_1_2,illumination,1906,1878,35.09,0.2066,0.9827,0.9916,0.9948,1,1,1,0.7934,0.9311,0.9587,0.9793
i_greentea_1_3,illumination,2050,2012,33.75,0.2445,0.9805,0.9873,0.9922,1,1,1,0.7555,0.9185,0.9511,0.9755
i_greentea_1_4,illumination,2066,2050,31.82,0.1042,0.9918,0.9976,0.9990,1,1,1,0.8958,0.9653,0.9792,0.9896
i_greentea_1_5,illumination,2039,2015,31.74,0.2087,0.9882,0.9912,0.9922,1,1,1,0.7913,0.9304,0.9583,0.9791
i_greentea_1_6,illumination,2055,2008,32.05,0.2725,0.9737,0.9854,0.9908,1,1,1,0.7275,0.9092,0.9455,0.9728
i_indiana_1_2,illumination,1568,1563,23.68,0.1359,0.9968,1.0000,1.0000,1,1,1,0.8641,0.9547,0.9728,0.9864
i_indiana_1_3,illumination,1561,1554,24.30,0.1157,0.9955,1.0000,1.0000,1,1,1,0.8843,0.9614,0.9769,0.9884
i_indiana_1_4,illumination,1551,1540,22.71,0.1667,0.9929,0.9955,0.9974,1,1,1,0.8333,0.9444,0.9667,0.9833
i_indiana_1_5,illumination,1544,1532,22.78,0.1846,0.9922,0.9942,0.9981,1,1,1,0.8154,0.9385,0.9631,0.9815
i_indiana_1_6,illumination,1543,1524,22.68,0.2096,0.9864,0.9916,0.9955,1,1,1,0.7904,0.9301,0.9581,0.9790
i_kions_1_2,illumination,1607,1523,27.13,1.1992,0.9210,0.9820,0.9900,1,1,1,0.0000,0.6003,0.7602,0.8801
i_kions_1_3,illumination,1572,1459,25.22,0.2384,0.9281,0.9720,0.9911,1,1,1,0.7616,0.9205,0.9523,0.9762
i_kions_1_4,illumination,1623,1514,23.30,0.4952,0.9230,0.9612,0.9815,1,1,1,0.5048,0.8349,0.9010,0.9505
i_kions_1_5,illumination,1610,1508,23.64,0.6835,0.9193,0.9634,0.9845,1,1,1,0.3165,0.7722,0.8633,0.9317
i_kions_1_6,illumination,1469,1346,23.91,0.3475,0.9149,0.9598,0.9796,1,1,1,0.6525,0.8842,0.9305,0.9652
i_ktirio_1_2,illumination,2128,2106,35.91,0.1127,0.9892,0.9934,0.9953,1,1,1,0.8873,0.9624,0.9775,0.9887
i_ktirio_1_3,illumination,2106,2035,32.44,0.3638,0.9644,0.9872,0.9953,1,1,1,0.6362,0.8787,0.9272,0.9636
i_ktirio_1_4,illumination,1839,1731,31.68,0.3249,0.9353,0.9657,0.9788,1,1,1,0.6751,0.8917,0.9350,0.9675
i_ktirio_1_5,illumination,2173,2079,32.19,0.3584,0.9540,0.9853,0.9963,1,1,1,0.6416,0.8805,0.9283,0.9642
i_ktirio_1_6,illumination,2025,1924,31.91,0.2945,0.9462,0.9694,0.9847,1,1,1,0.7055,0.9018,0.9411,0.9706
i_kurhaus_1_2,illumination,1576,1563,27.45,0.2058,0.9918,0.9943,0.9981,1,1,1,0.7942,0.9314,0.9588,0.9794
i_kurhaus_1_3,illumination,1575,1549,25.84,0.0791,0.9835,0.9917,0.9943,1,1,1,0.9209,0.9736,0.9842,0.9921
i_kurhaus_1_4,illumination,1538,1512,24.84,0.0918,0.9831,0.9941,0.9948,1,1,1,0.9082,0.9694,0.9816,0.9908
i_kurhaus_1_5,illumination,1482,1447,24.87,0.1063,0.9771,0.9885,0.9946,1,1,1,0.8937,0.9646,0.9787,0.9894
i_kurhaus_1_6,illumination,1475,1429,24.69,0.1936,0.9695,0.9824,0.9892,1,1,1,0.8064,0.9355,0.9613,0.9806
i_leuven_1_2,illumination,1748,1688,31.12,1.2222,0.9657,0.9691,0.9777,1,1,1,0.0000,0.5926,0.7556,0.8778
i_leuven_1_3,illumination,1954,1934,31.60,1.0822,0.9893,0.9969,0.9995,1,1,1,0.0000,0.6393,0.7836,0.8918
i_leuven_1_4,illumination,1891,1845,31.19,2.2197,0.9635,0.9868,0.9926,1,1,1,0.0000,0.2601,0.5561,0.7780
i_leuven_1_5,illumination,1796,1744,28.94,1.6232,0.9666,0.9833,0.9922,1,1,1,0.0000,0.4589,0.6754,0.8377
i_leuven_1_6,illumination,1713,1642,30.38,7.1312,0.7052,0.8616,0.9270,0,0,0,0.0000,0.0000,0.0000,0.2869
i_lionday_1_2,illumination,1646,1459,32.72,0.9006,0.8761,0.9247,0.9502,1,1,1,0.0994,0.6998,0.8199,0.9099
i_lionday_1_3,illumination,1534,1425,31.84,1.2542,0.9276,0.9537,0.9609,1,1,1,0.0000,0.5819,0.7492,0.8746
i_lionday_1_4,illumination,1202,922,29.91,1.7720,0.7138,0.8153,0.8527,1,1,1,0.0000,0.4093,0.6456,0.8228
i_lionday_1_5,illumination,1433,1241,37.05,1.4470,0.8276,0.9093,0.9358,1,1,1,0.0000,0.5177,0.7106,0.8553
i_lionday_1_6,illumination,1526,1398,36.52,1.7949,0.9155,0.9430,0.9528,1,1,1,0.0000,0.4017,0.6410,0.8205
i_lionnight_1_2,illumination,1785,1702,33.80,0.8626,0.9524,0.9619,0.9815,1,1,1,0.1374,0.7125,0.8275,0.9137
i_lionnight_1_3,illumination,1539,1452,31.50,1.5920,0.9318,0.9591,0.9682,1,1,1,0.0000,0.4693,0.6816,0.8408
i_lionnight_1_4,illumination,2001,1891,33.01,0.6742,0.9425,0.9590,0.9810,1,1,1,0.3258,0.7753,0.8652,0.9326
i_lionnight_1_5,illumination,1919,1754,35.63,1.1584,0.9083,0.9286,0.9547,1,1,1,0.0000,0.6139,0.7683,0.8842
i_lionnight_1_6,illumination,1892,1767,34.85,0.9418,0.9260,0.9456,0.9604,1,1,1,0.0582,0.6861,0.8116,0.9058
i_londonbridge_1_2,illumination,1353,1333,28.10,1.1746,0.9874,0.9963,0.9970,1,1,1,0.0000,0.6085,0.7651,0.8825
i_londonbridge_1_3,illumination,1309,1299,26.23,1.1345,0.9878,0.9939,0.9962,1,1,1,0.0000,0.6218,0.7731,0.8866
i_londonbridge_1_4,illumination,1230,1159,24.12,1.9194,0.9301,0.9902,0.9967,1,1,1,0.0000,0.3602,0.6161,0.8081
i_londonbridge_1_5,illumination,1038,867,23.87,1.5842,0.7929,0.8825,0.9566,1,1,1,0.0000,0.4719,0.6832,0.8416
i_londonbridge_1_6,illumination,1264,1242,24.11,0.7640,0.9826,0.9866,0.9929,1,1,1,0.2360,0.7453,0.8472,0.9236
i_melon_1_2,illumination,2113,2015,34.85,0.2779,0.9508,0.9692,0.9796,1,1,1,0.7221,0.9074,0.9444,0.9722
i_melon_1_3,illumination,2019,1799,34.08,0.6052,0.8881,0.9321,0.9604,1,1,1,0.3948,0.7983,0.8790,0.9395
i_melon_1_4,illumination,1470,1272,32.83,0.7827,0.8646,0.9102,0.9408,1,1,1,0.2173,0.7391,0.8435,0.9217
i_melon_1_5,illumination,2000,1889,34.05,0.5019,0.9405,0.9700,0.9845,1,1,1,0.4981,0.8327,0.8996,0.9498
i_melon_1_6,illumination,2029,1847,31.81,0.3831,0.9073,0.9483,0.9660,1,1,1,0.6169,0.8723,0.9234,0.9617
i_miniature_1_2,illumination,2136,2072,34.80,0.3033,0.9682,0.9808,0.9911,1,1,1,0.6967,0.8989,0.9393,0.9697
i_miniature_1_3,illumination,2018,1946,32.79,0.3465,0.9613,0.9718,0.9822,1,1,1,0.6535,0.8845,0.9307,0.9654
i_miniature_1_4,illumination,1983,1841,31.84,0.5718,0.9274,0.9486,0.9576,1,1,1,0.4282,0.8094,0.8856,0.9428
i_miniature_1_5,illumination,1804,1608,31.34,0.3572,0.8919,0.9435,0.9673,1,1,1,0.6428,0.8809,0.9286,0.9643
i_miniature_1_6,illumination,2000,1925,31.61,0.2219,0.9630,0.9790,0.9835,1,1,1,0.7781,0.9260,0.9556,0.9778
i_nescafe_1_2,illumination,2083,1997,34.25,0.2710,0.9563,0.9861,0.9933,1,1,1,0.7290,0.9097,0.9458,0.9729
i_nescafe_1_3,illumination,2095,2045,33.56,0.3098,0.9752,0.9890,0.9909,1,1,1,0.6902,0.8967,0.9380,0.9690
i_nescafe_1_4,illumination,2134,2057,32.87,0.1695,0.9620,0.9799,0.9911,1,1,1,0.8305,0.9435,0.9661,0.9830
i_nescafe_1_5,illumination,2104,2030,31.93,0.0341,0.9648,0.9767,0.9943,1,1,1,0.9659,0.9886,0.9932,0.9966
i_nescafe_1_6,illumination,2047,1934,33.80,0.3331,0.9409,0.9751,0.9912,1,1,1,0.6669,0.8890,0.9334,0.9667
i_nijmegen_1_2,illumination,2095,2031,39.04,1.1662,0.9523,0.9761,0.9871,1,1,1,0.0000,0.6113,0.7668,0.8834
i_nijmegen_1_3,illumination,2130,2076,41.20,0.7564,0.9606,0.9892,0.9967,1,1,1,0.2436,0.7479,0.8487,0.9244
i_nijmegen_1_4,illumination,2045,1969,36.50,0.3841,0.9609,0.9800,0.9892,1,1,1,0.6159,0.8720,0.9232,0.9616
i_nijmegen_1_5,illumination,2104,2029,36.43,0.6302,0.9472,0.9762,0.9900,1,1,1,0.3698,0.7899,0.8740,0.9370
i_nijmegen_1_6,illumination,2108,2029,35.95,0.6378,0.9473,0.9744,0.9872,1,1,1,0.3622,0.7874,0.8724,0.9362
i_nuts_1_2,illumination,2677,2173,55.46,1.1655,0.8013,0.8461,0.8741,1,1,1,0.0000,0.6115,0.7669,0.8834
i_nuts_1_3,illumination,2326,1920,51.99,0.6035,0.8237,0.8650,0.8942,1,1,1,0.3965,0.7988,0.8793,0.9397
i_nuts_1_4,illumination,1811,1507,52.10,0.3614,0.8299,0.8708,0.8879,1,1,1,0.6386,0.8795,0.9277,0.9639
i_nuts_1_5,illumination,1572,1292,47.99,0.6320,0.8193,0.8696,0.9046,1,1,1,0.3680,0.7893,0.8736,0.9368
i_nuts_1_6,illumination,1531,1194,43.77,1.0745,0.7603,0.8387,0.8635,1,1,1,0.0000,0.6418,0.7851,0.8925
i_objects_1_2,illumination,1760,1706,28.02,0.6068,0.9688,0.9818,0.9949,1,1,1,0.3932,0.7977,0.8786,0.9393
i_objects_1_3,illumination,1727,1664,26.47,0.7141,0.9566,0.9768,0.9884,1,1,1,0.2859,0.7620,0.8572,0.9286
i_objects_1_4,illumination,1680,1573,25.49,0.7373,0.9286,0.9625,0.9762,1,1,1,0.2627,0.7542,0.8525,0.9263
i_objects_1_5,illumination,1652,1529,25.26,0.6530,0.9195,0.9619,0.9843,1,1,1,0.3470,0.7823,0.8694,0.9347
i_objects_1_6,illumination,1779,1758,25.51,0.2066,0.9876,0.9933,0.9989,1,1,1,0.7934,0.9311,0.9587,0.9793
i_parking_1_2,illumination,1737,1668,26.99,0.2379,0.9597,0.9712,0.9833,1,1,1,0.7621,0.9207,0.9524,0.9762
i_parking_1_3,illumination,1661,1579,26.38,0.4710,0.9488,0.9741,0.9862,1,1,1,0.5290,0.8430,0.9058,0.9529
i_parking_1_4,illumination,1603,1450,25.23,1.0812,0.8933,0.9389,0.9701,1,1,1,0.0000,0.6396,0.7838,0.8919
i_parking_1_5,illumination,1509,1354,25.28,1.0887,0.8754,0.9344,0.9636,1,1,1,0.0000,0.6371,0.7823,0.8911
i_parking_1_6,illumination,1634,1516,25.18,0.7656,0.9149,0.9590,0.9798,1,1,1,0.2344,0.7448,0.8469,0.9234
i_partyfood_1_2,illumination,998,996,25.01,0.1042,0.9980,1.0000,1.0000,1,1,1,0.8958,0.9653,0.9792,0.9896
i_partyfood_1_3,illumination,1054,1051,24.67,0.2434,0.9972,0.9972,1.0000,1,1,1,0.7566,0.9189,0.9513,0.9757
i_partyfood_1_4,illumination,1066,1063,23.69,0.4721,0.9962,1.0000,1.0000,1,1,1,0.5279,0.8426,0.9056,0.9528
i_partyfood_1_5,illumination,1042,1032,24.71,0.3799,0.9894,0.9933,0.9971,1,1,1,0.6201,0.8734,0.9240,0.9620
i_partyfood_1_6,illumination,1004,982,23.88,0.4850,0.9771,0.9930,0.9980,1,1,1,0.5150,0.8383,0.9030,0.9515
i_pinard_1_2,illumination,2022,1941,33.98,0.4048,0.9580,0.9738,0.9817,1,1,1,0.5952,0.8651,0.9190,0.9595
i_pinard_1_3,illumination,1915,1750,32.70,0.4474,0.9133,0.9426,0.9598,1,1,1,0.5526,0.8509,0.9105,0.9553
i_pinard_1_4,illumination,1931,1803,32.84,0.3972,0.9316,0.9555,0.9669,1,1,1,0.6028,0.8676,0.9206,0.9603
i_pinard_1_5,illumination,1958,1853,31.57,0.2555,0.9454,0.9632,0.9801,1,1,1,0.7445,0.9148,0.9489,0.9745
i_pinard_1_6,illumination,2002,1908,31.85,0.4033,0.9436,0.9770,0.9885,1,1,1,0.5967,0.8656,0.9193,0.9597
i_pool_1_2,illumination,1020,908,28.99,0.3988,0.8853,0.9402,0.9539,1,1,1,0.6012,0.8671,0.9202,0.9601
i_pool_1_3,illumination,355,272,24.35,1.0998,0.7521,0.8366,0.8620,1,1,1,0.0000,0.6334,0.7800,0.8900
i_pool_1_4,illumination,371,299,22.39,1.2211,0.8059,0.8760,0.8895,1,1,1,0.0000,0.5930,0.7558,0.8779
i_pool_1_5,illumination,577,475,22.70,0.5434,0.8198,0.8700,0.8891,1,1,1,0.4566,0.8189,0.8913,0.9457
i_pool_1_6,illumination,509,420,22.64,0.4387,0.8094,0.8684,0.9018,1,1,1,0.5613,0.8538,0.9123,0.9561
i_porta_1_2,illumination,1786,1300,32.20,0.5321,0.7156,0.8410,0.9037,1,1,1,0.4679,0.8226,0.8936,0.9468
i_porta_1_3,illumination,1803,1295,30.05,0.4708,0.7105,0.8491,0.9229,1,1,1,0.5292,0.8431,0.9058,0.9529
i_porta_1_4,illumination,1659,1160,29.54,0.2941,0.6944,0.8571,0.9259,1,1,1,0.7059,0.9020,0.9412,0.9706
i_porta_1_5,illumination,1585,1161,28.88,0.6498,0.7205,0.8543,0.9117,1,1,1,0.3502,0.7834,0.8700,0.9350
i_porta_1_6,illumination,1166,816,27.97,0.2836,0.6973,0.8173,0.8714,1,1,1,0.7164,0.9055,0.9433,0.9716
i_resort_1_2,illumination,1851,1848,31.88,0.1620,0.9984,1.0000,1.0000,1,1,1,0.8380,0.9460,0.9676,0.9838
i_resort_1_3,illumination,1864,1864,29.83,0.0376,1.0000,1.0000,1.0000,1,1,1,0.9624,0.9875,0.9925,0.9962
i_resort_1_4,illumination,1858,1857,28.88,0.0472,0.9995,0.9995,0.9995,1,1,1,0.9528,0.9843,0.9906,0.9953
i_resort_1_5,illumination,1854,1847,28.95,0.2165,0.9962,0.9962,0.9989,1,1,1,0.7835,0.9278,0.9567,0.9784
i_resort_1_6,illumination,1857,1852,28.91,0.7242,0.9973,0.9984,1.0000,1,1,1,0.2758,0.7586,0.8552,0.9276
i_salon_1_2,illumination,2222,2211,35.27,0.2027,0.9946,0.9968,0.9968,1,1,1,0.7973,0.9324,0.9595,0.9797
i_salon_1_3,illumination,2214,2161,32.47,0.1972,0.9743,0.9869,0.9968,1,1,1,0.8028,0.9343,0.9606,0.9803
i_salon_1_4,illumination,2200,2149,32.15,0.3382,0.9755,0.9909,0.9955,1,1,1,0.6618,0.8873,0.9324,0.9662
i_salon_1_5,illumination,2215,2179,32.18,0.2550,0.9801,0.9928,0.9991,1,1,1,0.7450,0.9150,0.9490,0.9745
i_salon_1_6,illumination,2179,2121,32.12,0.2617,0.9702,0.9908,0.9945,1,1,1,0.7383,0.9128,0.9477,0.9738
i_santuario_1_2,illumination,1774,1723,26.87,0.9865,0.9667,0.9825,0.9927,1,1,1,0.0135,0.6712,0.8027,0.9013
i_santuario_1_3,illumination,1780,1722,26.78,1.0653,0.9624,0.9843,0.9899,1,1,1,0.0000,0.6449,0.7869,0.8935
i_santuario_1_4,illumination,1725,1645,25.32,1.4596,0.9397,0.9675,0.9820,1,1,1,0.0000,0.5135,0.7081,0.8540
i_santuario_1_5,illumination,1778,1715,25.83,0.2877,0.9657,0.9820,0.9966,1,1,1,0.7123,0.9041,0.9425,0.9712
i_santuario_1_6,illumination,1739,1661,25.58,0.7599,0.9500,0.9770,0.9925,1,1,1,0.2401,0.7467,0.8480,0.9240
i_school_1_2,illumination,2030,1905,34.17,0.2196,0.9379,0.9562,0.9704,1,1,1,0.7804,0.9268,0.9561,0.9780
i_school_1_3,illumination,2011,1895,32.36,0.3250,0.9423,0.9642,0.9736,1,1,1,0.6750,0.8917,0.9350,0.9675
i_school_1_4,illumination,1887,1738,31.59,0.5857,0.9194,0.9470,0.9624,1,1,1,0.4143,0.8048,0.8829,0.9414
i_school_1_5,illumination,1981,1849,31.80,0.8766,0.9324,0.9551,0.9732,1,1,1,0.1234,0.7078,0.8247,0.9123
i_school_1_6,illumination,1701,1509,31.59,1.0484,0.8748,0.9271,0.9512,1,1,1,0.0000,0.6505,0.7903,0.8952
i_ski_1_2,illumination,1601,1600,33.17,0.1133,0.9994,0.9994,0.9994,1,1,1,0.8867,0.9622,0.9773,0.9887
i_ski_1_3,illumination,1619,1605,34.53,0.1485,0.9914,0.9951,0.9963,1,1,1,0.8515,0.9505,0.9703,0.9851
i_ski_1_4,illumination,1595,1573,36.03,0.4830,0.9856,0.9900,0.9931,1,1,1,0.5170,0.8390,0.9034,0.9517
i_ski_1_5,illumination,1593,1573,31.19,0.5311,0.9874,0.9931,0.9950,1,1,1,0.4689,0.8230,0.8938,0.9469
i_ski_1_6,illumination,1620,1588,30.68,0.4687,0.9796,0.9895,0.9920,1,1,1,0.5313,0.8438,0.9063,0.9531
i_smurf_1_2,illumination,2175,2145,34.65,0.1955,0.9867,0.9890,0.9903,1,1,1,0.8045,0.9348,0.9609,0.9804
i_smurf_1_3,illumination,2140,2102,32.96,0.1182,0.9822,0.9846,0.9883,1,1,1,0.8818,0.9606,0.9764,0.9882
i_smurf_1_4,illumination,2133,2093,32.03,0.1646,0.9817,0.9841,0.9887,1,1,1,0.8354,0.9451,0.9671,0.9835
i_smurf_1_5,illumination,2123,2087,31.96,0.1782,0.9830,0.9854,0.9887,1,1,1,0.8218,0.9406,0.9644,0.9822
i_smurf_1_6,illumination,2013,1923,31.77,0.2760,0.9498,0.9642,0.9747,1,1,1,0.7240,0.9080,0.9448,0.9724
i_steps_1_2,illumination,1625,1611,26.89,0.2271,0.9902,0.9938,0.9945,1,1,1,0.7729,0.9243,0.9546,0.9773
i_steps_1_3,illumination,1587,1539,25.75,0.5943,0.9691,0.9836,0.9893,1,1,1,0.4057,0.8019,0.8811,0.9406
i_steps_1_4,illumination,1614,1594,24.95,0.3820,0.9876,0.9907,0.9919,1,1,1,0.6180,0.8727,0.9236,0.9618
i_steps_1_5,illumination,1525,1504,24.68,0.6241,0.9856,0.9908,0.9948,1,1,1,0.3759,0.7920,0.8752,0.9376
i_steps_1_6,illumination,1567,1556,24.90,0.5262,0.9930,0.9962,0.9987,1,1,1,0.4738,0.8246,0.8948,0.9474
i_table_1_2,illumination,1760,1706,27.92,0.6068,0.9688,0.9818,0.9949,1,1,1,0.3932,0.7977,0.8786,0.9393
i_table_1_3,illumination,1727,1664,26.37,0.7141,0.9566,0.9768,0.9884,1,1,1,0.2859,0.7620,0.8572,0.9286
i_table_1_4,illumination,1680,1573,25.44,0.7373,0.9286,0.9625,0.9762,1,1,1,0.2627,0.7542,0.8525,0.9263
i_table_1_5,illumination,1652,1529,25.30,0.6530,0.9195,0.9619,0.9843,1,1,1,0.3470,0.7823,0.8694,0.9347
i_table_1_6,illumination,1779,1758,25.36,0.2066,0.9876,0.9933,0.9989,1,1,1,0.7934,0.9311,0.9587,0.9793
i_tools_1_2,illumination,1215,808,26.10,1.4192,0.6321,0.7358,0.8066,1,1,1,0.0000,0.5269,0.7162,0.8581
i_tools_1_3,illumination,1494,1240,26.37,0.9201,0.8220,0.9163,0.9598,1,1,1,0.0799,0.6933,0.8160,0.9080
i_tools_1_4,illumination,1328,938,24.58,1.8227,0.6950,0.8012,0.8599,1,1,1,0.0000,0.3924,0.6355,0.8177
i_tools_1_5,illumination,1282,1139,24.55,0.8650,0.8713,0.9314,0.9470,1,1,1,0.1350,0.7117,0.8270,0.9135
i_tools_1_6,illumination,1271,597,24.95,3.6647,0.3501,0.5460,0.7002,0,1,1,0.0000,0.0000,0.2671,0.6335
i_toy_1_2,illumination,3125,3080,50.75,0.1484,0.9856,0.9898,0.9933,1,1,1,0.8516,0.9505,0.9703,0.9852
i_toy_1_3,illumination,3090,3033,48.57,0.1438,0.9819,0.9864,0.9890,1,1,1,0.8562,0.9521,0.9712,0.9856
i_toy_1_4,illumination,2983,2856,46.67,0.1895,0.9571,0.9725,0.9806,1,1,1,0.8105,0.9368,0.9621,0.9811
i_toy_1_5,illumination,2708,2397,46.28,0.2563,0.8837,0.9210,0.9479,1,1,1,0.7437,0.9146,0.9487,0.9744
i_toy_1_6,illumination,2052,1530,45.32,1.3049,0.7388,0.7992,0.8509,1,1,1,0.0000,0.5650,0.7390,0.8695
i_troulos_1_2,illumination,853,812,23.06,0.5662,0.9508,0.9648,0.9754,1,1,1,0.4338,0.8113,0.8868,0.9434
i_troulos_1_3,illumination,811,746,27.34,2.5514,0.5943,0.9494,0.9618,1,1,1,0.0000,0.1495,0.4897,0.7449
i_troulos_1_4,illumination,845,828,21.45,0.2078,0.9799,0.9870,0.9893,1,1,1,0.7922,0.9307,0.9584,0.9792
i_troulos_1_5,illumination,850,804,21.69,1.2471,0.9482,0.9659,0.9776,1,1,1,0.0000,0.5843,0.7506,0.8753
i_troulos_1_6,illumination,837,803,21.41,0.9384,0.9582,0.9701,0.9809,1,1,1,0.0616,0.6872,0.8123,0.9062
i_veggies_1_2,illumination,2148,2108,34.37,0.1506,0.9800,0.9893,0.9949,1,1,1,0.8494,0.9498,0.9699,0.9849
i_veggies_1_3,illumination,2145,2086,33.25,0.2381,0.9730,0.9837,0.9907,1,1,1,0.7619,0.9206,0.9524,0.9762
i_veggies_1_4,illumination,2032,1982,32.10,0.2432,0.9734,0.9828,0.9877,1,1,1,0.7568,0.9189,0.9514,0.9757
i_veggies_1_5,illumination,1925,1851,31.44,0.2717,0.9616,0.9756,0.9855,1,1,1,0.7283,0.9094,0.9457,0.9728
i_veggies_1_6,illumination,1887,1813,31.57,0.2667,0.9608,0.9740,0.9862,1,1,1,0.7333,0.9111,0.9467,0.9733
i_village_1_2,illumination,2474,2447,43.07,0.1785,0.9891,0.9976,0.9976,1,1,1,0.8215,0.9405,0.9643,0.9821
i_village_1_3,illumination,2477,2457,38.41,0.3237,0.9915,0.9968,0.9984,1,1,1,0.6763,0.8921,0.9353,0.9676
i_village_1_4,illumination,2448,2423,38.03,0.2191,0.9894,0.9967,0.9988,1,1,1,0.7809,0.9270,0.9562,0.9781
i_village_1_5,illumination,2498,2490,38.10,0.1639,0.9972,0.9988,1.0000,1,1,1,0.8361,0.9454,0.9672,0.9836
i_village_1_6,illumination,2465,2426,38.08,0.4282,0.9801,0.9895,0.9943,1,1,1,0.5718,0.8573,0.9144,0.9572
i_yellowtent_1_2,illumination,2118,2077,34.12,0.0850,0.9806,0.9891,0.9910,1,1,1,0.9150,0.9717,0.9830,0.9915
i_yellowtent_1_3,illumination,2127,2081,32.91,0.2555,0.9779,0.9873,0.9925,1,1,1,0.7445,0.9148,0.9489,0.9744
i_yellowtent_1_4,illumination,2139,2059,32.05,0.2478,0.9617,0.9757,0.9869,1,1,1,0.7522,0.9174,0.9504,0.9752
i_yellowtent_1_5,illumination,2099,1977,31.85,0.1507,0.9419,0.9652,0.9776,1,1,1,0.8493,0.9498,0.9699,0.9849
i_yellowtent_1_6,illumination,1975,1923,31.77,0.2651,0.9722,0.9853,0.9919,1,1,1,0.7349,0.9116,0.9470,0.9735
i_zion_1_2,illumination,1704,1702,31.31,0.1258,0.9988,0.9994,1.0000,1,1,1,0.8742,0.9581,0.9748,0.9874
i_zion_1_3,illumination,1678,1662,29.68,0.6068,0.9899,0.9952,0.9976,1,1,1,0.3932,0.7977,0.8786,0.9393
i_zion_1_4,illumination,1611,1584,28.43,0.5211,0.9839,0.9901,0.9932,1,1,1,0.4789,0.8263,0.8958,0.9479
i_zion_1_5,illumination,1530,1494,28.26,0.4684,0.9752,0.9837,0.9876,1,1,1,0.5316,0.8439,0.9063,0.9532
i_zion_1_6,illumination,1555,1518,28.55,0.5695,0.9730,0.9833,0.9884,1,1,1,0.4305,0.8102,0.8861,0.9431
v_abstract_1_2,viewpoint,1795,1794,33.70,0.2426,0.9994,0.9994,0.9994,1,1,1,0.7574,0.9191,0.9515,0.9757
v_abstract_1_3,viewpoint,1702,1693,31.49,0.4605,0.9941,0.9971,0.9982,1,1,1,0.5395,0.8465,0.9079,0.9540
v_abstract_1_4,viewpoint,1096,1050,29.72,0.8960,0.9608,0.9799,0.9872,1,1,1,0.1040,0.7013,0.8208,0.9104
v_abstract_1_5,viewpoint,1384,1372,30.20,0.5967,0.9906,0.9928,0.9942,1,1,1,0.4033,0.8011,0.8807,0.9403
v_abstract_1_6,viewpoint,844,802,28.88,1.2514,0.9431,0.9621,0.9680,1,1,1,0.0000,0.5829,0.7497,0.8749
v_adam_1_2,viewpoint,1364,1364,34.53,0.5354,1.0000,1.0000,1.0000,1,1,1,0.4646,0.8215,0.8929,0.9465
v_adam_1_3,viewpoint,1143,1143,30.98,1.0824,1.0000,1.0000,1.0000,1,1,1,0.0000,0.6392,0.7835,0.8918
v_adam_1_4,viewpoint,732,731,28.52,1.0293,0.9986,0.9986,0.9986,1,1,1,0.0000,0.6569,0.7941,0.8971
v_adam_1_5,viewpoint,991,991,29.26,0.7910,1.0000,1.0000,1.0000,1,1,1,0.2090,0.7363,0.8418,0.9209
v_adam_1_6,viewpoint,984,984,29.14,1.1435,1.0000,1.0000,1.0000,1,1,1,0.0000,0.6188,0.7713,0.8857
v_apprentices_1_2,viewpoint,1836,1808,37.29,0.1186,0.9847,0.9907,0.9967,1,1,1,0.8814,0.9605,0.9763,0.9881
v_apprentices_1_3,viewpoint,1524,1510,31.35,0.5373,0.9915,0.9948,0.9967,1,1,1,0.4627,0.8209,0.8925,0.9463
v_apprentices_1_4,viewpoint,1267,1254,30.49,0.9736,0.9897,0.9913,0.9929,1,1,1,0.0264,0.6755,0.8053,0.9026
v_apprentices_1_5,viewpoint,999,982,29.82,0.8269,0.9840,0.9890,0.9920,1,1,1,0.1731,0.7244,0.8346,0.9173
v_apprentices_1_6,viewpoint,794,752,29.38,0.6495,0.9433,0.9710,0.9811,1,1,1,0.3505,0.7835,0.8701,0.9351
v_azzola_1_2,viewpoint,1427,1422,32.61,0.5882,0.9944,0.9986,0.9986,1,1,1,0.4118,0.8039,0.8824,0.9412
v_azzola_1_3,viewpoint,1166,1091,29.04,1.0175,0.9074,0.9897,0.9957,1,1,1,0.0000,0.6608,0.7965,0.8982
v_azzola_1_4,viewpoint,1408,1408,28.46,0.5264,0.9986,1.0000,1.0000,1,1,1,0.4736,0.8245,0.8947,0.9474
v_azzola_1_5,viewpoint,963,909,27.46,0.9285,0.9242,0.9865,0.9969,1,1,1,0.0715,0.6905,0.8143,0.9072
v_azzola_1_6,viewpoint,487,414,26.41,1.0306,0.8172,0.9240,0.9487,1,1,1,0.0000,0.6565,0.7939,0.8969
v_bark_1_2,viewpoint,1088,1081,28.68,0.5483,0.9926,0.9936,0.9945,1,1,1,0.4517,0.8172,0.8903,0.9452
v_bark_1_3,viewpoint,120,6,27.56,1446.9545,0.0000,0.0000,0.0000,0,0,0,0.0000,0.0000,0.0000,0.0000
v_bark_1_4,viewpoint,67,5,25.50,232.8600,0.0000,0.0000,0.0000,0,0,0,0.0000,0.0000,0.0000,0.0000
v_bark_1_5,viewpoint,198,136,25.36,0.6338,0.6869,0.6869,0.7020,1,1,1,0.3662,0.7887,0.8732,0.9366
v_bark_1_6,viewpoint,96,7,25.35,92.0059,0.0000,0.0000,0.0000,0,0,0,0.0000,0.0000,0.0000,0.0000
v_bees_1_2,viewpoint,1833,1831,34.19,0.3114,0.9989,0.9989,0.9989,1,1,1,0.6886,0.8962,0.9377,0.9689
v_bees_1_3,viewpoint,1903,1903,32.41,0.6589,1.0000,1.0000,1.0000,1,1,1,0.3411,0.7804,0.8682,0.9341
v_bees_1_4,viewpoint,1683,1683,30.93,0.7199,1.0000,1.0000,1.0000,1,1,1,0.2801,0.7600,0.8560,0.9280
v_bees_1_5,viewpoint,1362,1336,30.02,0.9746,0.9780,0.9868,0.9905,1,1,1,0.0254,0.6751,0.8051,0.9025
v_bees_1_6,viewpoint,1245,1194,30.75,0.3999,0.9606,0.9871,0.9968,1,1,1,0.6001,0.8667,0.9200,0.9600
v_beyus_1_2,viewpoint,618,597,32.66,0.3210,0.9612,0.9741,0.9790,1,1,1,0.6790,0.8930,0.9358,0.9679
v_beyus_1_3,viewpoint,475,357,27.34,1.7809,0.7432,0.8168,0.8758,1,1,1,0.0000,0.4064,0.6438,0.8219
v_beyus_1_4,viewpoint,860,841,27.73,0.1374,0.9779,0.9791,0.9814,1,1,1,0.8626,0.9542,0.9725,0.9863
v_beyus_1_5,viewpoint,478,410,29.09,0.8121,0.8515,0.8912,0.9289,1,1,1,0.1879,0.7293,0.8376,0.9188
v_beyus_1_6,viewpoint,745,661,27.65,0.7263,0.8899,0.9154,0.9584,1,1,1,0.2737,0.7579,0.8547,0.9274
v_bip_1_2,viewpoint,1028,1013,32.04,0.1532,0.9854,0.9854,0.9854,1,1,1,0.8468,0.9489,0.9694,0.9847
v_bip_1_3,viewpoint,905,889,34.87,0.1957,0.9823,0.9823,0.9823,1,1,1,0.8043,0.9348,0.9609,0.9804
v_bip_1_4,viewpoint,965,951,34.58,0.3053,0.9855,0.9855,0.9855,1,1,1,0.6947,0.8982,0.9389,0.9695
v_bip_1_5,viewpoint,157,35,28.22,1.4231,0.2357,0.2611,0.3057,1,1,1,0.0000,0.5256,0.7154,0.8577
v_bip_1_6,viewpoint,105,7,28.34,2021.5923,0.0381,0.0667,0.0857,0,0,0,0.0000,0.0000,0.0000,0.0000
v_bird_1_2,viewpoint,1204,1166,38.85,76.6260,0.0000,0.0000,0.0000,0,0,0,0.0000,0.0000,0.0000,0.0000
v_bird_1_3,viewpoint,1122,1078,35.27,84.4166,0.0000,0.0000,0.0000,0,0,0,0.0000,0.0000,0.0000,0.0000
v_bird_1_4,viewpoint,1073,985,34.82,99.6404,0.0000,0.0000,0.0000,0,0,0,0.0000,0.0000,0.0000,0.0000
v_bird_1_5,viewpoint,863,754,34.63,85.3051,0.0000,0.0000,0.0023,0,0,0,0.0000,0.0000,0.0000,0.0000
v_bird_1_6,viewpoint,347,232,33.58,185.7158,0.0029,0.0029,0.0029,0,0,0,0.0000,0.0000,0.0000,0.0000
v_birdwoman_1_2,viewpoint,350,327,30.57,44.6510,0.0000,0.0000,0.0000,0,0,0,0.0000,0.0000,0.0000,0.0000
v_birdwoman_1_3,viewpoint,400,359,29.41,54.8457,0.0000,0.0000,0.0000,0,0,0,0.0000,0.0000,0.0000,0.0000
v_birdwoman_1_4,viewpoint,893,862,28.88,50.5307,0.0000,0.0000,0.0000,0,0,0,0.0000,0.0000,0.0000,0.0000
v_birdwoman_1_5,viewpoint,1583,1556,30.61,52.8176,0.0000,0.0000,0.0013,0,0,0,0.0000,0.0000,0.0000,0.0000
v_birdwoman_1_6,viewpoint,907,891,28.98,51.5014,0.0000,0.0000,0.0000,0,0,0,0.0000,0.0000,0.0000,0.0000
v_blueprint_1_2,viewpoint,1402,1401,30.94,0.3138,0.9993,0.9993,0.9993,1,1,1,0.6862,0.8954,0.9372,0.9686
v_blueprint_1_3,viewpoint,1140,1140,28.14,0.5378,1.0000,1.0000,1.0000,1,1,1,0.4622,0.8207,0.8924,0.9462
v_blueprint_1_4,viewpoint,1254,1252,28.13,0.2618,0.9984,0.9984,0.9984,1,1,1,0.7382,0.9127,0.9476,0.9738
v_blueprint_1_5,viewpoint,923,918,27.34,0.5396,0.9946,0.9957,0.9967,1,1,1,0.4604,0.8201,0.8921,0.9460
v_blueprint_1_6,viewpoint,727,706,26.94,1.1084,0.9697,0.9752,0.9780,1,1,1,0.0000,0.6305,0.7783,0.8892
v_boat_1_2,viewpoint,1808,1777,38.48,0.4172,0.9823,0.9945,0.9983,1,1,1,0.5828,0.8609,0.9166,0.9583
v_boat_1_3,viewpoint,1232,1211,32.95,0.2768,0.9830,0.9878,0.9943,1,1,1,0.7232,0.9077,0.9446,0.9723
v_boat_1_4,viewpoint,57,6,30.67,164.8411,0.0351,0.0526,0.0526,0,0,0,0.0000,0.0000,0.0000,0.0000
v_boat_1_5,viewpoint,49,7,30.50,199.4243,0.0204,0.0408,0.0408,0,0,0,0.0000,0.0000,0.0000,0.0000
v_boat_1_6,viewpoint,432,417,31.05,0.4495,0.9630,0.9722,0.9722,1,1,1,0.5505,0.8502,0.9101,0.9550
v_bricks_1_2,viewpoint,1780,1779,31.58,33.4512,0.0000,0.0079,0.0298,0,0,0,0.0000,0.0000,0.0000,0.0000
v_bricks_1_3,viewpoint,1642,1642,28.93,32.3669,0.0000,0.0055,0.0225,0,0,0,0.0000,0.0000,0.0000,0.0000
v_bricks_1_4,viewpoint,1366,1366,27.96,31.1756,0.0000,0.0000,0.0066,0,0,0,0.0000,0.0000,0.0000,0.0000
v_bricks_1_5,viewpoint,1130,1126,27.47,28.0622,0.0000,0.0009,0.0142,0,0,0,0.0000,0.0000,0.0000,0.0000
v_bricks_1_6,viewpoint,734,702,26.18,27.8310,0.0000,0.0014,0.0027,0,0,0,0.0000,0.0000,0.0000,0.0000
v_busstop_1_2,viewpoint,1580,1579,33.01,0.3921,0.9994,0.9994,0.9994,1,1,1,0.6079,0.8693,0.9216,0.9608
v_busstop_1_3,viewpoint,1274,1259,35.73,0.5475,0.9890,0.9890,0.9890,1,1,1,0.4525,0.8175,0.8905,0.9452
v_busstop_1_4,viewpoint,1336,1331,30.13,0.7031,0.9963,0.9963,0.9963,1,1,1,0.2969,0.7656,0.8594,0.9297
v_busstop_1_5,viewpoint,1223,1223,29.76,0.4302,1.0000,1.0000,1.0000,1,1,1,0.5698,0.8566,0.9140,0.9570
v_busstop_1_6,viewpoint,1567,1567,30.63,0.3987,1.0000,1.0000,1.0000,1,1,1,0.6013,0.8671,0.9203,0.9601
v_calder_1_2,viewpoint,1145,1135,32.05,0.1866,0.9921,0.9939,0.9965,1,1,1,0.8134,0.9378,0.9627,0.9813
v_calder_1_3,viewpoint,1503,1494,31.90,0.0915,0.9940,0.9980,0.9980,1,1,1,0.9085,0.9695,0.9817,0.9909
v_calder_1_4,viewpoint,728,705,29.14,0.1391,0.9684,0.9766,0.9821,1,1,1,0.8609,0.9536,0.9722,0.9861
v_calder_1_5,viewpoint,549,513,28.91,0.3628,0.9362,0.9508,0.9599,1,1,1,0.6372,0.8791,0.9274,0.9637
v_calder_1_6,viewpoint,232,158,28.35,1.3032,0.6810,0.7198,0.7457,1,1,1,0.0000,0.5656,0.7394,0.8697
v_cartooncity_1_2,viewpoint,1338,1335,25.84,62.2146,0.0000,0.0000,0.0000,0,0,0,0.0000,0.0000,0.0000,0.0000
v_cartooncity_1_3,viewpoint,737,702,24.36,66.7927,0.0000,0.0000,0.0000,0,0,0,0.0000,0.0000,0.0000,0.0000
v_cartooncity_1_4,viewpoint,1197,1196,24.00,74.8249,0.0000,0.0000,0.0017,0,0,0,0.0000,0.0000,0.0000,0.0000
v_cartooncity_1_5,viewpoint,741,703,23.02,76.0562,0.0000,0.0000,0.0000,0,0,0,0.0000,0.0000,0.0000,0.0000
v_cartooncity_1_6,viewpoint,709,662,22.85,70.8715,0.0000,0.0000,0.0000,0,0,0,0.0000,0.0000,0.0000,0.0000
v_charing_1_2,viewpoint,594,423,31.45,3.6454,0.7071,0.7862,0.8148,0,1,1,0.0000,0.0000,0.2709,0.6355
v_charing_1_3,viewpoint,322,221,29.26,41.2599,0.6708,0.7391,0.7795,0,0,0,0.0000,0.0000,0.0000,0.0000
v_charing_1_4,viewpoint,608,441,29.34,7.6360,0.7220,0.7632,0.7911,0,0,0,0.0000,0.0000,0.0000,0.2364
v_charing_1_5,viewpoint,553,409,28.81,135.4770,0.7324,0.7812,0.8083,0,0,0,0.0000,0.0000,0.0000,0.0000
v_charing_1_6,viewpoint,539,404,28.74,201.5852,0.7403,0.7922,0.8219,0,0,0,0.0000,0.0000,0.0000,0.0000
v_churchill_1_2,viewpoint,1161,1136,32.07,1.0292,0.9785,0.9811,0.9871,1,1,1,0.0000,0.6569,0.7942,0.8971
v_churchill_1_3,viewpoint,929,859,30.80,1.3496,0.9193,0.9429,0.9559,1,1,1,0.0000,0.5501,0.7301,0.8650
v_churchill_1_4,viewpoint,953,841,29.84,1.1889,0.8825,0.9161,0.9423,1,1,1,0.0000,0.6037,0.7622,0.8811
v_churchill_1_5,viewpoint,1651,1597,31.46,0.2980,0.9679,0.9818,0.9867,1,1,1,0.7020,0.9007,0.9404,0.9702
v_churchill_1_6,viewpoint,699,559,29.20,1.0715,0.7969,0.8598,0.8970,1,1,1,0.0000,0.6428,0.7857,0.8928
v_circus_1_2,viewpoint,1222,1160,33.66,0.1790,0.9484,0.9771,0.9894,1,1,1,0.8210,0.9403,0.9642,0.9821
v_circus_1_3,viewpoint,1028,846,33.58,0.9851,0.8210,0.9115,0.9426,1,1,1,0.0149,0.6716,0.8030,0.9015
v_circus_1_4,viewpoint,664,448,29.64,1.8355,0.6777,0.8117,0.8795,1,1,1,0.0000,0.3882,0.6329,0.8164
v_circus_1_5,viewpoint,1157,1072,30.39,0.8135,0.9231,0.9628,0.9732,1,1,1,0.1865,0.7288,0.8373,0.9186
v_circus_1_6,viewpoint,778,665,29.63,0.7242,0.8470,0.9344,0.9512,1,1,1,0.2758,0.7586,0.8552,0.9276
v_coffeehouse_1_2,viewpoint,1130,1106,25.57,0.6898,0.9752,0.9858,0.9912,1,1,1,0.3102,0.7701,0.8620,0.9310
v_coffeehouse_1_3,viewpoint,1129,1097,25.07,0.2598,0.9717,0.9814,0.9876,1,1,1,0.7402,0.9134,0.9480,0.9740
v_coffeehouse_1_4,viewpoint,975,954,28.28,1.3287,0.9764,0.9908,0.9959,1,1,1,0.0000,0.5571,0.7343,0.8671
v_coffeehouse_1_5,viewpoint,929,907,23.32,0.6351,0.9752,0.9817,0.9839,1,1,1,0.3649,0.7883,0.8730,0.9365
v_coffeehouse_1_6,viewpoint,722,684,23.15,1.1734,0.9474,0.9571,0.9640,1,1,1,0.0000,0.6089,0.7653,0.8827
v_colors_1_2,viewpoint,492,361,29.09,0.8274,0.7276,0.8354,0.8577,1,1,1,0.1726,0.7242,0.8345,0.9173
v_colors_1_3,viewpoint,326,212,27.37,0.8789,0.6411,0.8067,0.8681,1,1,1,0.1211,0.7070,0.8242,0.9121
v_colors_1_4,viewpoint,64,12,25.49,192.6185,0.1719,0.2344,0.2812,0,0,0,0.0000,0.0000,0.0000,0.0000
v_colors_1_5,viewpoint,26,6,25.16,485.9825,0.0000,0.0385,0.0385,0,0,0,0.0000,0.0000,0.0000,0.0000
v_colors_1_6,viewpoint,20,7,24.94,626.8767,0.1000,0.1000,0.1000,0,0,0,0.0000,0.0000,0.0000,0.0000
v_courses_1_2,viewpoint,1673,1629,33.65,0.6336,0.9719,0.9863,0.9910,1,1,1,0.3664,0.7888,0.8733,0.9366
v_courses_1_3,viewpoint,1266,1226,30.32,1.3814,0.9581,0.9858,0.9897,1,1,1,0.0000,0.5395,0.7237,0.8619
v_courses_1_4,viewpoint,1284,1245,29.93,0.6988,0.9735,0.9844,0.9899,1,1,1,0.3012,0.7671,0.8602,0.9301
v_courses_1_5,viewpoint,969,897,29.28,2.5287,0.8937,0.9546,0.9680,1,1,1,0.0000,0.1571,0.4943,0.7471
v_courses_1_6,viewpoint,781,688,28.71,3.7023,0.8284,0.9398,0.9565,0,1,1,0.0000,0.0000,0.2595,0.6298
v_dirtywall_1_2,viewpoint,1190,1185,27.46,0.2340,0.9958,0.9992,1.0000,1,1,1,0.7660,0.9220,0.9532,0.9766
v_dirtywall_1_3,viewpoint,1170,1154,25.22,0.4401,0.9838,0.9906,0.9949,1,1,1,0.5599,0.8533,0.9120,0.9560
v_dirtywall_1_4,viewpoint,954,928,23.75,0.2761,0.9717,0.9811,0.9853,1,1,1,0.7239,0.9080,0.9448,0.9724
v_dirtywall_1_5,viewpoint,983,970,23.77,0.4335,0.9868,0.9868,0.9908,1,1,1,0.5665,0.8555,0.9133,0.9567
v_dirtywall_1_6,viewpoint,632,604,22.88,0.4102,0.9541,0.9636,0.9715,1,1,1,0.5898,0.8633,0.9180,0.9590
v_dogman_1_2,viewpoint,1228,1181,25.63,0.9586,0.9601,0.9748,0.9772,1,1,1,0.0414,0.6805,0.8083,0.9041
v_dogman_1_3,viewpoint,1283,1205,26.30,0.8709,0.9376,0.9447,0.9501,1,1,1,0.1291,0.7097,0.8258,0.9129
v_dogman_1_4,viewpoint,659,620,22.80,3.3138,0.9196,0.9590,0.9727,0,1,1,0.0000,0.0000,0.3372,0.6686
v_dogman_1_5,viewpoint,1015,972,24.74,1.4504,0.9557,0.9675,0.9773,1,1,1,0.0000,0.5165,0.7099,0.8550
v_dogman_1_6,viewpoint,497,423,25.59,19.6051,0.8270,0.8712,0.9074,0,0,0,0.0000,0.0000,0.0000,0.0000
v_eastsouth_1_2,viewpoint,1726,1725,40.80,0.2569,0.9994,0.9994,0.9994,1,1,1,0.7431,0.9144,0.9486,0.9743
v_eastsouth_1_3,viewpoint,1155,1148,36.21,0.4915,0.9931,0.9948,0.9965,1,1,1,0.5085,0.8362,0.9017,0.9508
v_eastsouth_1_4,viewpoint,95,6,34.60,230.3503,0.0000,0.0211,0.0211,0,0,0,0.0000,0.0000,0.0000,0.0000
v_eastsouth_1_5,viewpoint,446,395,34.98,0.4728,0.8879,0.9238,0.9462,1,1,1,0.5272,0.8424,0.9054,0.9527
v_eastsouth_1_6,viewpoint,357,305,34.30,0.3668,0.8515,0.8824,0.9104,1,1,1,0.6332,0.8777,0.9266,0.9633
v_feast_1_2,viewpoint,1041,1037,35.20,0.1273,0.9962,0.9962,0.9962,1,1,1,0.8727,0.9576,0.9745,0.9873
v_feast_1_3,viewpoint,1465,1455,35.03,0.2139,0.9925,0.9986,0.9986,1,1,1,0.7861,0.9287,0.9572,0.9786
v_feast_1_4,viewpoint,850,839,29.28,0.5868,0.9776,0.9965,0.9965,1,1,1,0.4132,0.8044,0.8826,0.9413
v_feast_1_5,viewpoint,1314,1302,30.10,0.7093,0.9848,0.9962,0.9985,1,1,1,0.2907,0.7636,0.8581,0.9291
v_feast_1_6,viewpoint,1017,994,34.67,0.4126,0.9676,0.9931,0.9980,1,1,1,0.5874,0.8625,0.9175,0.9587
v_fest_1_2,viewpoint,1481,1481,31.15,0.4165,1.0000,1.0000,1.0000,1,1,1,0.5835,0.8612,0.9167,0.9583
v_fest_1_3,viewpoint,1093,1076,28.71,1.2828,0.9863,0.9881,0.9927,1,1,1,0.0000,0.5724,0.7434,0.8717
v_fest_1_4,viewpoint,1104,1102,27.78,0.6047,0.9982,0.9991,0.9991,1,1,1,0.3953,0.7984,0.8791,0.9395
v_fest_1_5,viewpoint,1091,1079,27.75,1.0538,0.9881,0.9936,0.9945,1,1,1,0.0000,0.6487,0.7892,0.8946
v_fest_1_6,viewpoint,907,861,27.58,1.5252,0.9515,0.9625,0.9702,1,1,1,0.0000,0.4916,0.6950,0.8475
v_gardens_1_2,viewpoint,1228,1198,31.14,0.4044,0.9756,0.9780,0.9821,1,1,1,0.5956,0.8652,0.9191,0.9596
v_gardens_1_3,viewpoint,534,479,26.89,1.6447,0.8839,0.9326,0.9457,1,1,1,0.0000,0.4518,0.6711,0.8355
v_gardens_1_4,viewpoint,1475,1467,29.63,0.4998,0.9939,0.9953,0.9966,1,1,1,0.5002,0.8334,0.9000,0.9500
v_gardens_1_5,viewpoint,862,825,27.29,1.1073,0.9559,0.9733,0.9803,1,1,1,0.0000,0.6309,0.7785,0.8893
v_gardens_1_6,viewpoint,1371,1364,28.76,0.3559,0.9942,0.9964,0.9964,1,1,1,0.6441,0.8814,0.9288,0.9644
v_grace_1_2,viewpoint,1560,1544,31.16,0.2077,0.9897,0.9923,0.9949,1,1,1,0.7923,0.9308,0.9585,0.9792
v_grace_1_3,viewpoint,1364,1321,28.25,0.4132,0.9670,0.9809,0.9868,1,1,1,0.5868,0.8623,0.9174,0.9587
v_grace_1_4,viewpoint,1108,963,27.39,1.1727,0.8700,0.9260,0.9603,1,1,1,0.0000,0.6091,0.7655,0.8827
v_grace_1_5,viewpoint,627,482,26.09,1.4149,0.7656,0.8357,0.8756,1,1,1,0.0000,0.5284,0.7170,0.8585
v_grace_1_6,viewpoint,286,144,25.72,4.6698,0.5000,0.5559,0.5804,0,1,1,0.0000,0.0000,0.0660,0.5330
v_graffiti_1_2,viewpoint,1566,1553,36.21,0.3404,0.9917,0.9923,0.9930,1,1,1,0.6596,0.8865,0.9319,0.9660
v_graffiti_1_3,viewpoint,1286,1257,33.30,1.2781,0.9759,0.9852,0.9868,1,1,1,0.0000,0.5740,0.7444,0.8722
v_graffiti_1_4,viewpoint,1075,951,32.38,0.6040,0.8884,0.9600,0.9702,1,1,1,0.3960,0.7987,0.8792,0.9396
v_graffiti_1_5,viewpoint,695,597,31.46,0.8293,0.8374,0.9223,0.9410,1,1,1,0.1707,0.7236,0.8341,0.9171
v_graffiti_1_6,viewpoint,312,149,31.18,2.9186,0.4135,0.5224,0.6763,1,1,1,0.0000,0.0271,0.4163,0.7081
v_home_1_2,viewpoint,973,969,29.20,0.7116,0.9959,0.9979,0.9979,1,1,1,0.2884,0.7628,0.8577,0.9288
v_home_1_3,viewpoint,878,862,30.99,1.2656,0.9795,0.9841,0.9852,1,1,1,0.0000,0.5781,0.7469,0.8734
v_home_1_4,viewpoint,952,947,30.51,0.6681,0.9937,0.9958,0.9968,1,1,1,0.3319,0.7773,0.8664,0.9332
v_home_1_5,viewpoint,747,729,29.96,4.8379,0.9371,0.9786,0.9866,0,1,1,0.0000,0.0000,0.0324,0.5162
v_home_1_6,viewpoint,907,899,30.62,0.2725,0.9912,0.9912,0.9945,1,1,1,0.7275,0.9092,0.9455,0.9728
v_laptop_1_2,viewpoint,1514,1471,36.43,0.4546,0.9703,0.9815,0.9894,1,1,1,0.5454,0.8485,0.9091,0.9545
v_laptop_1_3,viewpoint,916,894,32.79,0.4070,0.9760,0.9803,0.9858,1,1,1,0.5930,0.8643,0.9186,0.9593
v_laptop_1_4,viewpoint,99,9,31.42,820.6371,0.1111,0.1818,0.2323,0,0,0,0.0000,0.0000,0.0000,0.0000
v_laptop_1_5,viewpoint,67,8,31.48,365.3216,0.0299,0.0299,0.0299,0,0,0,0.0000,0.0000,0.0000,0.0000
v_laptop_1_6,viewpoint,62,7,36.57,220.2944,0.0000,0.0323,0.0484,0,0,0,0.0000,0.0000,0.0000,0.0000
v_london_1_2,viewpoint,1336,1323,29.14,0.1172,0.9903,0.9903,0.9903,1,1,1,0.8828,0.9609,0.9766,0.9883
v_london_1_3,viewpoint,1188,1186,27.12,0.2547,0.9983,0.9983,0.9983,1,1,1,0.7453,0.9151,0.9491,0.9745
v_london_1_4,viewpoint,1069,1055,26.24,0.4301,0.9869,0.9925,0.9972,1,1,1,0.5699,0.8566,0.9140,0.9570
v_london_1_5,viewpoint,1339,1337,27.10,0.1332,0.9985,0.9985,0.9985,1,1,1,0.8668,0.9556,0.9734,0.9867
v_london_1_6,viewpoint,1473,1469,27.02,0.1653,0.9973,0.9973,0.9973,1,1,1,0.8347,0.9449,0.9669,0.9835
v_machines_1_2,viewpoint,1487,1445,33.96,0.7291,0.9711,0.9852,0.9906,1,1,1,0.2709,0.7570,0.8542,0.9271
v_machines_1_3,viewpoint,913,815,32.02,2.4072,0.8543,0.9540,0.9759,1,1,1,0.0000,0.1976,0.5186,0.7593
v_machines_1_4,viewpoint,1083,1071,31.75,0.6195,0.9880,0.9945,0.9963,1,1,1,0.3805,0.7935,0.8761,0.9381
v_machines_1_5,viewpoint,753,721,31.23,1.2893,0.9535,0.9761,0.9814,1,1,1,0.0000,0.5702,0.7421,0.8711
v_machines_1_6,viewpoint,991,980,31.51,0.3164,0.9889,0.9919,0.9939,1,1,1,0.6836,0.8945,0.9367,0.9684
v_man_1_2,viewpoint,1465,1389,36.58,1.7711,0.9420,0.9741,0.9863,1,1,1,0.0000,0.4096,0.6458,0.8229
v_man_1_3,viewpoint,1021,968,33.52,4.0105,0.8864,0.9647,0.9824,0,1,1,0.0000,0.0000,0.1979,0.5990
v_man_1_4,viewpoint,988,851,33.11,1.7493,0.8259,0.9180,0.9474,1,1,1,0.0000,0.4169,0.6501,0.8251
v_man_1_5,viewpoint,1438,1356,33.73,1.6836,0.9374,0.9708,0.9847,1,1,1,0.0000,0.4388,0.6633,0.8316
v_man_1_6,viewpoint,1359,1285,34.88,2.3465,0.9389,0.9750,0.9875,1,1,1,0.0000,0.2178,0.5307,0.7654
v_maskedman_1_2,viewpoint,1115,1040,28.06,0.8465,0.9318,0.9516,0.9650,1,1,1,0.1535,0.7178,0.8307,0.9153
v_maskedman_1_3,viewpoint,871,811,26.37,0.8809,0.9219,0.9495,0.9621,1,1,1,0.1191,0.7064,0.8238,0.9119
v_maskedman_1_4,viewpoint,1046,1027,26.08,2.6129,0.9828,0.9876,0.9943,1,1,1,0.0000,0.1290,0.4774,0.7387
v_maskedman_1_5,viewpoint,1149,1140,26.26,2.1110,0.9843,0.9939,0.9956,1,1,1,0.0000,0.2963,0.5778,0.7889
v_maskedman_1_6,viewpoint,273,244,24.61,3.1454,0.8791,0.9231,0.9414,0,1,1,0.0000,0.0000,0.3709,0.6855
v_pomegranate_1_2,viewpoint,1775,1760,37.25,0.1908,0.9915,0.9949,0.9972,1,1,1,0.8092,0.9364,0.9618,0.9809
v_pomegranate_1_3,viewpoint,1595,1493,35.19,0.9620,0.9273,0.9605,0.9743,1,1,1,0.0380,0.6793,0.8076,0.9038
v_pomegranate_1_4,viewpoint,1318,1283,34.57,0.3622,0.9734,0.9765,0.9879,1,1,1,0.6378,0.8793,0.9276,0.9638
v_pomegranate_1_5,viewpoint,1586,1511,35.03,0.9546,0.9533,0.9729,0.9830,1,1,1,0.0454,0.6818,0.8091,0.9045
v_pomegranate_1_6,viewpoint,1520,1486,34.33,0.4115,0.9783,0.9862,0.9888,1,1,1,0.5885,0.8628,0.9177,0.9588
v_posters_1_2,viewpoint,1209,1203,48.54,115.2529,0.0000,0.0000,0.0000,0,0,0,0.0000,0.0000,0.0000,0.0000
v_posters_1_3,viewpoint,1600,1593,46.93,120.7873,0.0000,0.0000,0.0000,0,0,0,0.0000,0.0000,0.0000,0.0000
v_posters_1_4,viewpoint,1449,1446,49.91,112.4163,0.0000,0.0000,0.0000,0,0,0,0.0000,0.0000,0.0000,0.0000
v_posters_1_5,viewpoint,1124,1075,44.40,124.8050,0.0000,0.0000,0.0000,0,0,0,0.0000,0.0000,0.0000,0.0000
v_posters_1_6,viewpoint,1160,1061,44.77,147.6638,0.0000,0.0000,0.0000,0,0,0,0.0000,0.0000,0.0000,0.0000
v_samples_1_2,viewpoint,1607,1601,47.74,68.0359,0.0000,0.0000,0.0000,0,0,0,0.0000,0.0000,0.0000,0.0000
v_samples_1_3,viewpoint,1738,1723,46.08,72.6748,0.0000,0.0000,0.0000,0,0,0,0.0000,0.0000,0.0000,0.0000
v_samples_1_4,viewpoint,1627,1622,46.10,71.8184,0.0000,0.0000,0.0000,0,0,0,0.0000,0.0000,0.0000,0.0000
v_samples_1_5,viewpoint,1532,1527,45.67,80.7553,0.0000,0.0000,0.0000,0,0,0,0.0000,0.0000,0.0000,0.0000
v_samples_1_6,viewpoint,1527,1518,45.59,67.0686,0.0000,0.0000,0.0020,0,0,0,0.0000,0.0000,0.0000,0.0000
v_soldiers_1_2,viewpoint,1352,1301,35.33,0.7976,0.9608,0.9741,0.9786,1,1,1,0.2024,0.7341,0.8405,0.9202
v_soldiers_1_3,viewpoint,1028,929,33.45,1.7909,0.8988,0.9309,0.9514,1,1,1,0.0000,0.4030,0.6418,0.8209
v_soldiers_1_4,viewpoint,709,607,33.66,1.7338,0.8547,0.8858,0.9083,1,1,1,0.0000,0.4221,0.6532,0.8266
v_soldiers_1_5,viewpoint,531,432,32.51,3.6850,0.8136,0.8663,0.8757,0,1,1,0.0000,0.0000,0.2630,0.6315
v_soldiers_1_6,viewpoint,1107,1003,33.62,96.4449,0.0000,0.0000,0.0000,0,0,0,0.0000,0.0000,0.0000,0.0000
v_strand_1_2,viewpoint,2045,1980,38.84,0.1934,0.9677,0.9839,0.9888,1,1,1,0.8066,0.9355,0.9613,0.9807
v_strand_1_3,viewpoint,1502,1409,38.92,0.8518,0.9055,0.9734,0.9874,1,1,1,0.1482,0.7161,0.8296,0.9148
v_strand_1_4,viewpoint,1537,1396,39.28,2.6201,0.9011,0.9440,0.9649,1,1,1,0.0000,0.1266,0.4760,0.7380
v_strand_1_5,viewpoint,1420,1327,36.48,2.9954,0.9134,0.9620,0.9838,1,1,1,0.0000,0.0015,0.4009,0.7005
v_strand_1_6,viewpoint,1173,1047,35.02,4.6760,0.8048,0.9190,0.9531,0,1,1,0.0000,0.0000,0.0648,0.5324
v_sunseason_1_2,viewpoint,1692,1644,34.46,0.0673,0.9716,0.9722,0.9728,1,1,1,0.9327,0.9776,0.9865,0.9933
v_sunseason_1_3,viewpoint,1496,1483,31.67,0.1271,0.9913,0.9920,0.9920,1,1,1,0.8729,0.9576,0.9746,0.9873
v_sunseason_1_4,viewpoint,864,762,30.49,0.2741,0.8819,0.8935,0.8981,1,1,1,0.7259,0.9086,0.9452,0.9726
v_sunseason_1_5,viewpoint,694,574,29.89,1.4166,0.8271,0.8516,0.8545,1,1,1,0.0000,0.5278,0.7167,0.8583
v_sunseason_1_6,viewpoint,563,410,29.56,3.9217,0.7282,0.7567,0.7744,0,1,1,0.0000,0.0000,0.2157,0.6078
v_tabletop_1_2,viewpoint,1245,1236,36.50,0.6986,0.9928,0.9928,0.9928,1,1,1,0.3014,0.7671,0.8603,0.9301
v_tabletop_1_3,viewpoint,814,807,35.04,0.5094,0.9914,0.9914,0.9914,1,1,1,0.4906,0.8302,0.8981,0.9491
v_tabletop_1_4,viewpoint,794,774,30.49,0.5750,0.9748,0.9773,0.9798,1,1,1,0.4250,0.8083,0.8850,0.9425
v_tabletop_1_5,viewpoint,817,800,30.84,0.6748,0.9780,0.9829,0.9841,1,1,1,0.3252,0.7751,0.8650,0.9325
v_tabletop_1_6,viewpoint,858,848,30.40,0.8620,0.9883,0.9895,0.9907,1,1,1,0.1380,0.7127,0.8276,0.9138
v_tempera_1_2,viewpoint,1068,1068,34.10,0.1355,1.0000,1.0000,1.0000,1,1,1,0.8645,0.9548,0.9729,0.9865
v_tempera_1_3,viewpoint,1264,1263,35.61,0.1837,0.9992,1.0000,1.0000,1,1,1,0.8163,0.9388,0.9633,0.9816
v_tempera_1_4,viewpoint,946,946,34.18,0.3534,1.0000,1.0000,1.0000,1,1,1,0.6466,0.8822,0.9293,0.9647
v_tempera_1_5,viewpoint,952,947,33.49,0.6174,0.9947,0.9958,0.9958,1,1,1,0.3826,0.7942,0.8765,0.9383
v_tempera_1_6,viewpoint,618,583,32.58,1.0489,0.9401,0.9644,0.9806,1,1,1,0.0000,0.6504,0.7902,0.8951
v_there_1_2,viewpoint,1411,1362,34.80,0.5926,0.9646,0.9759,0.9816,1,1,1,0.4074,0.8025,0.8815,0.9407
v_there_1_3,viewpoint,398,272,30.81,1.5203,0.6709,0.7563,0.8166,1,1,1,0.0000,0.4932,0.6959,0.8480
v_there_1_4,viewpoint,105,23,29.11,2.4131,0.2286,0.2571,0.2667,1,1,1,0.0000,0.1956,0.5174,0.7587
v_there_1_5,viewpoint,41,5,28.90,2713.4127,0.0488,0.0488,0.0488,0,0,0,0.0000,0.0000,0.0000,0.0000
v_there_1_6,viewpoint,47,5,29.10,320.6284,0.0000,0.0000,0.0000,0,0,0,0.0000,0.0000,0.0000,0.0000
v_underground_1_2,viewpoint,1604,1579,34.17,0.1584,0.9844,0.9844,0.9844,1,1,1,0.8416,0.9472,0.9683,0.9842
v_underground_1_3,viewpoint,1306,1284,31.91,0.3574,0.9832,0.9832,0.9870,1,1,1,0.6426,0.8809,0.9285,0.9643
v_underground_1_4,viewpoint,994,921,31.31,0.9754,0.9256,0.9437,0.9527,1,1,1,0.0246,0.6749,0.8049,0.9025
v_underground_1_5,viewpoint,777,645,30.43,0.8790,0.8301,0.8610,0.8842,1,1,1,0.1210,0.7070,0.8242,0.9121
v_underground_1_6,viewpoint,450,312,30.15,3.2777,0.6911,0.7556,0.8044,0,1,1,0.0000,0.0000,0.3445,0.6722
v_vitro_1_2,viewpoint,1631,1629,35.81,0.1461,0.9988,0.9988,0.9988,1,1,1,0.8539,0.9513,0.9708,0.9854
v_vitro_1_3,viewpoint,1429,1416,33.66,0.2759,0.9902,0.9916,0.9916,1,1,1,0.7241,0.9080,0.9448,0.9724
v_vitro_1_4,viewpoint,1211,1117,33.21,0.5710,0.9125,0.9554,0.9587,1,1,1,0.4290,0.8097,0.8858,0.9429
v_vitro_1_5,viewpoint,1555,1541,33.56,0.5083,0.9904,0.9916,0.9916,1,1,1,0.4917,0.8306,0.8983,0.9492
v_vitro_1_6,viewpoint,1340,1272,33.27,0.6808,0.9440,0.9806,0.9806,1,1,1,0.3192,0.7731,0.8638,0.9319
v_wall_1_2,viewpoint,1429,1416,28.68,0.2662,0.9902,0.9930,0.9944,1,1,1,0.7338,0.9113,0.9468,0.9734
v_wall_1_3,viewpoint,1264,1251,27.44,0.4501,0.9905,0.9968,0.9992,1,1,1,0.5499,0.8500,0.9100,0.9550
v_wall_1_4,viewpoint,1371,1357,27.51,0.3919,0.9898,0.9927,0.9956,1,1,1,0.6081,0.8694,0.9216,0.9608
v_wall_1_5,viewpoint,1114,1081,26.82,0.9163,0.9659,0.9820,0.9847,1,1,1,0.0837,0.6946,0.8167,0.9084
v_wall_1_6,viewpoint,1050,1012,31.35,3.4797,0.9629,0.9800,0.9857,0,1,1,0.0000,0.0000,0.3041,0.6520
v_wapping_1_2,viewpoint,1697,1621,38.04,0.3403,0.9540,0.9711,0.9823,1,1,1,0.6597,0.8866,0.9319,0.9660
v_wapping_1_3,viewpoint,976,797,34.90,1.1792,0.8145,0.8627,0.9088,1,1,1,0.0000,0.6069,0.7642,0.8821
v_wapping_1_4,viewpoint,1109,911,35.11,1.3440,0.8188,0.8855,0.9161,1,1,1,0.0000,0.5520,0.7312,0.8656
v_wapping_1_5,viewpoint,622,490,32.91,2.4953,0.7830,0.8585,0.9180,1,1,1,0.0000,0.1682,0.5009,0.7505
v_wapping_1_6,viewpoint,295,191,32.39,5.2017,0.6271,0.7220,0.7661,0,0,1,0.0000,0.0000,0.0000,0.4798
v_war_1_2,viewpoint,1052,1036,33.45,0.8067,0.9857,0.9895,0.9924,1,1,1,0.1933,0.7311,0.8387,0.9193
v_war_1_3,viewpoint,821,795,31.38,1.4551,0.9513,0.9756,0.9817,1,1,1,0.0000,0.5150,0.7090,0.8545
v_war_1_4,viewpoint,1249,1246,32.31,0.4800,0.9976,0.9984,1.0000,1,1,1,0.5200,0.8400,0.9040,0.9520
v_war_1_5,viewpoint,1231,1225,32.01,0.6578,0.9951,0.9968,0.9984,1,1,1,0.3422,0.7807,0.8684,0.9342
v_war_1_6,viewpoint,736,671,31.03,1.9742,0.8886,0.9484,0.9620,1,1,1,0.0000,0.3419,0.6052,0.8026
v_weapons_1_2,viewpoint,1385,1363,36.55,0.5558,0.9827,0.9906,0.9935,1,1,1,0.4442,0.8147,0.8888,0.9444
v_weapons_1_3,viewpoint,1170,1134,34.17,0.5185,0.9709,0.9915,0.9940,1,1,1,0.4815,0.8272,0.8963,0.9482
v_weapons_1_4,viewpoint,1234,1227,34.70,0.3937,0.9943,0.9976,0.9984,1,1,1,0.6063,0.8688,0.9213,0.9606
v_weapons_1_5,viewpoint,1443,1423,35.65,0.9731,0.9848,0.9924,0.9938,1,1,1,0.0269,0.6756,0.8054,0.9027
v_weapons_1_6,viewpoint,1265,1240,34.27,1.0827,0.9826,0.9913,0.9929,1,1,1,0.0000,0.6391,0.7835,0.8917
v_woman_1_2,viewpoint,846,816,34.44,46.1527,0.0000,0.0000,0.0000,0,0,0,0.0000,0.0000,0.0000,0.0000
v_woman_1_3,viewpoint,1110,1058,33.77,49.5941,0.0000,0.0000,0.0000,0,0,0,0.0000,0.0000,0.0000,0.0000
v_woman_1_4,viewpoint,957,860,33.54,50.1337,0.0000,0.0000,0.0000,0,0,0,0.0000,0.0000,0.0000,0.0000
v_woman_1_5,viewpoint,632,589,32.50,44.4346,0.0000,0.0000,0.0000,0,0,0,0.0000,0.0000,0.0000,0.0000
v_woman_1_6,viewpoint,805,676,33.77,49.2950,0.0000,0.0000,0.0000,0,0,0,0.0000,0.0000,0.0000,0.0000
v_wormhole_1_2,viewpoint,1057,1056,26.64,0.8290,0.9991,1.0000,1.0000,1,1,1,0.1710,0.7237,0.8342,0.9171
v_wormhole_1_3,viewpoint,1302,1300,26.94,0.4579,0.9985,1.0000,1.0000,1,1,1,0.5421,0.8474,0.9084,0.9542
v_wormhole_1_4,viewpoint,1325,1325,26.62,0.6035,1.0000,1.0000,1.0000,1,1,1,0.3965,0.7988,0.8793,0.9396
v_wormhole_1_5,viewpoint,908,849,25.85,3.1593,0.9284,0.9515,0.9604,0,1,1,0.0000,0.0000,0.3681,0.6841
v_wormhole_1_6,viewpoint,499,416,25.37,4.6017,0.7976,0.8918,0.9198,0,1,1,0.0000,0.0000,0.0797,0.5398
v_wounded_1_2,viewpoint,1369,1221,36.79,2.5489,0.8751,0.9226,0.9511,1,1,1,0.0000,0.1504,0.4902,0.7451
v_wounded_1_3,viewpoint,985,761,34.39,1.8623,0.7695,0.8091,0.8284,1,1,1,0.0000,0.3792,0.6275,0.8138
v_wounded_1_4,viewpoint,393,242,37.43,13.8306,0.6056,0.7023,0.7354,0,0,0,0.0000,0.0000,0.0000,0.0000
v_wounded_1_5,viewpoint,854,630,33.86,2.5816,0.7412,0.8068,0.8337,1,1,1,0.0000,0.1395,0.4837,0.7418
v_wounded_1_6,viewpoint,426,268,32.01,5.2418,0.6432,0.7254,0.7864,0,0,1,0.0000,0.0000,0.0000,0.4758
v_yard_1_2,viewpoint,1481,1478,33.83,0.6506,0.9980,0.9986,1.0000,1,1,1,0.3494,0.7831,0.8699,0.9349
v_yard_1_3,viewpoint,884,859,31.02,1.7562,0.9672,0.9864,0.9864,1,1,1,0.0000,0.4146,0.6488,0.8244
v_yard_1_4,viewpoint,1291,1288,30.83,0.3391,0.9977,0.9992,1.0000,1,1,1,0.6609,0.8870,0.9322,0.9661
v_yard_1_5,viewpoint,1072,1056,31.21,0.5635,0.9851,0.9953,0.9981,1,1,1,0.4365,0.8122,0.8873,0.9436
v_yard_1_6,viewpoint,554,462,30.43,1.9005,0.8357,0.9152,0.9296,1,1,1,0.0000,0.3665,0.6199,0.8099
v_yuri_1_2,viewpoint,1909,1726,37.45,0.7163,0.8942,0.9450,0.9644,1,1,1,0.2837,0.7612,0.8567,0.9284
v_yuri_1_3,viewpoint,992,833,33.64,3.5906,0.8397,0.8679,0.8821,0,1,1,0.0000,0.0000,0.2819,0.6409
v_yuri_1_4,viewpoint,690,570,32.79,8.0047,0.8116,0.8609,0.8870,0,0,0,0.0000,0.0000,0.0000,0.1995
v_yuri_1_5,viewpoint,1099,1004,34.64,1.5375,0.9136,0.9527,0.9691,1,1,1,0.0000,0.4875,0.6925,0.8462
v_yuri_1_6,viewpoint,704,585,32.77,3.4887,0.8267,0.8651,0.8835,0,1,1,0.0000,0.0000,0.3023,0.6511
