PairName,SeqType,NumMatches,Inliers,TimeMS,H_Error,MMA@3,MMA@5,MMA@7,MHA_Acc@3,MHA_Acc@5,MHA_Acc@7,AUC@1,AUC@3,AUC@5,AUC@10
i_ajuntament_1_2,illumination,963,957,303.83,0.3131,0.9917,1.0000,1.0000,1,1,1,0.6869,0.8956,0.9374,0.9687
i_ajuntament_1_3,illumination,665,662,70.60,0.7995,0.9895,1.0000,1.0000,1,1,1,0.2005,0.7335,0.8401,0.9201
i_ajuntament_1_4,illumination,464,455,65.09,0.8424,0.9763,0.9935,0.9978,1,1,1,0.1576,0.7192,0.8315,0.9158
i_ajuntament_1_5,illumination,477,466,62.57,0.7231,0.9665,0.9937,0.9979,1,1,1,0.2769,0.7590,0.8554,0.9277
i_ajuntament_1_6,illumination,480,473,64.10,1.2738,0.9771,0.9938,0.9979,1,1,1,0.0000,0.5754,0.7452,0.8726
i_autannes_1_2,illumination,436,431,58.74,0.3301,0.9885,0.9931,0.9954,1,1,1,0.6699,0.8900,0.9340,0.9670
i_autannes_1_3,illumination,379,376,52.61,0.4678,0.9921,0.9974,1.0000,1,1,1,0.5322,0.8441,0.9064,0.9532
i_autannes_1_4,illumination,316,309,54.84,1.2280,0.9462,0.9968,1.0000,1,1,1,0.0000,0.5907,0.7544,0.8772
i_autannes_1_5,illumination,331,325,54.51,0.8688,0.9789,0.9940,1.0000,1,1,1,0.1312,0.7104,0.8262,0.9131
i_autannes_1_6,illumination,367,361,53.53,0.2671,0.9809,1.0000,1.0000,1,1,1,0.7329,0.9110,0.9466,0.9733
i_bologna_1_2,illumination,611,610,56.29,0.1061,0.9984,1.0000,1.0000,1,1,1,0.8939,0.9646,0.9788,0.9894
i_bologna_1_3,illumination,558,558,53.19,0.2162,1.0000,1.0000,1.0000,1,1,1,0.7838,0.9279,0.9568,0.9784
i_bologna_1_4,illumination,542,541,51.11,0.3254,0.9982,0.9982,0.9982,1,1,1,0.6746,0.8915,0.9349,0.9675
i_bologna_1_5,illumination,506,502,52.90,0.2118,0.9921,0.9960,0.9980,1,1,1,0.7882,0.9294,0.9576,0.9788
i_bologna_1_6,illumination,494,489,57.50,0.2106,0.9899,1.0000,1.0000,1,1,1,0.7894,0.9298,0.9579,0.9789
i_books_1_2,illumination,812,810,69.16,0.0971,0.9975,1.0000,1.0000,1,1,1,0.9029,0.9676,0.9806,0.9903
i_books_1_3,illumination,792,785,67.06,0.2396,0.9886,0.9937,0.9987,1,1,1,0.7604,0.9201,0.9521,0.9760
i_books_1_4,illumination,821,814,64.96,0.1898,0.9915,0.9988,1.0000,1,1,1,0.8102,0.9367,0.9620,0.9810
i_books_1_5,illumination,838,834,61.05,0.2329,0.9952,1.0000,1.0000,1,1,1,0.7671,0.9224,0.9534,0.9767
i_books_1_6,illumination,794,789,63.65,0.2472,0.9937,0.9987,1.0000,1,1,1,0.7528,0.9176,0.9506,0.9753
i_boutique_1_2,illumination,1213,1207,74.99,0.1265,0.9951,1.0000,1.0000,1,1,1,0.8735,0.9578,0.9747,0.9873
i_boutique_1_3,illumination,1278,1269,75.45,0.1516,0.9937,1.0000,1.0000,1,1,1,0.8484,0.9495,0.9697,0.9848
i_boutique_1_4,illumination,1235,1226,74.18,0.2048,0.9927,1.0000,1.0000,1,1,1,0.7952,0.9317,0.9590,0.9795
i_boutique_1_5,illumination,990,983,77.11,0.2644,0.9899,1.0000,1.0000,1,1,1,0.7356,0.9119,0.9471,0.9736
i_boutique_1_6,illumination,975,967,73.43,0.4131,0.9897,1.0000,1.0000,1,1,1,0.5869,0.8623,0.9174,0.9587
i_bridger_1_2,illumination,872,867,56.17,0.3855,0.9931,1.0000,1.0000,1,1,1,0.6145,0.8715,0.9229,0.9615
i_bridger_1_3,illumination,811,803,53.87,0.3588,0.9877,1.0000,1.0000,1,1,1,0.6412,0.8804,0.9282,0.9641
i_bridger_1_4,illumination,821,820,51.17,0.3119,0.9963,1.0000,1.0000,1,1,1,0.6881,0.8960,0.9376,0.9688
i_bridger_1_5,illumination,748,736,52.76,0.2882,0.9853,0.9973,1.0000,1,1,1,0.7118,0.9039,0.9424,0.9712
i_bridger_1_6,illumination,576,567,57.30,0.5463,0.9792,1.0000,1.0000,1,1,1,0.4537,0.8179,0.8907,0.9454
i_brooklyn_1_2,illumination,986,982,66.46,0.3486,0.9959,0.9990,1.0000,1,1,1,0.6514,0.8838,0.9303,0.9651
i_brooklyn_1_3,illumination,1147,1140,70.33,1.2134,0.9852,0.9991,1.0000,1,1,1,0.0000,0.5955,0.7573,0.8787
i_brooklyn_1_4,illumination,916,901,60.21,0.9488,0.9836,1.0000,1.0000,1,1,1,0.0512,0.6837,0.8102,0.9051
i_brooklyn_1_5,illumination,1124,1122,61.46,1.4642,0.9742,0.9991,0.9991,1,1,1,0.0000,0.5119,0.7072,0.8536
i_brooklyn_1_6,illumination,980,978,67.47,1.4527,0.9776,1.0000,1.0000,1,1,1,0.0000,0.5158,0.7095,0.8547
i_castle_1_2,illumination,629,626,70.68,0.6389,0.9841,1.0000,1.0000,1,1,1,0.3611,0.7870,0.8722,0.9361
i_castle_1_3,illumination,727,725,61.55,0.5433,0.9959,1.0000,1.0000,1,1,1,0.4567,0.8189,0.8913,0.9457
i_castle_1_4,illumination,656,648,62.35,0.8019,0.9863,1.0000,1.0000,1,1,1,0.1981,0.7327,0.8396,0.9198
i_castle_1_5,illumination,628,624,63.18,0.4715,0.9936,1.0000,1.0000,1,1,1,0.5285,0.8428,0.9057,0.9529
i_castle_1_6,illumination,622,621,63.48,0.3472,0.9984,1.0000,1.0000,1,1,1,0.6528,0.8843,0.9306,0.9653
i_chestnuts_1_2,illumination,943,931,68.45,0.2281,0.9873,1.0000,1.0000,1,1,1,0.7719,0.9240,0.9544,0.9772
i_chestnuts_1_3,illumination,917,909,64.66,0.1880,0.9913,0.9989,1.0000,1,1,1,0.8120,0.9373,0.9624,0.9812
i_chestnuts_1_4,illumination,920,909,64.16,0.1655,0.9859,0.9989,1.0000,1,1,1,0.8345,0.9448,0.9669,0.9834
i_chestnuts_1_5,illumination,897,883,65.83,0.2489,0.9822,0.9978,0.9989,1,1,1,0.7511,0.9170,0.9502,0.9751
i_chestnuts_1_6,illumination,795,792,65.28,0.2774,0.9950,1.0000,1.0000,1,1,1,0.7226,0.9075,0.9445,0.9723
i_crownday_1_2,illumination,627,624,68.76,0.2226,0.9952,0.9984,1.0000,1,1,1,0.7774,0.9258,0.9555,0.9777
i_crownday_1_3,illumination,712,709,68.89,0.2335,0.9958,1.0000,1.0000,1,1,1,0.7665,0.9222,0.9533,0.9766
i_crownday_1_4,illumination,714,707,61.24,0.1722,0.9902,1.0000,1.0000,1,1,1,0.8278,0.9426,0.9656,0.9828
i_crownday_1_5,illumination,782,781,62.47,0.3247,0.9974,1.0000,1.0000,1,1,1,0.6753,0.8918,0.9351,0.9675
i_crownday_1_6,illumination,590,585,63.85,0.3279,0.9881,1.0000,1.0000,1,1,1,0.6721,0.8907,0.9344,0.9672
i_dome_1_2,illumination,1333,1327,71.40,0.1300,0.9955,0.9992,1.0000,1,1,1,0.8700,0.9567,0.9740,0.9870
i_dome_1_3,illumination,710,650,64.16,1.7264,0.9127,0.9352,0.9521,1,1,1,0.0000,0.4245,0.6547,0.8274
i_dome_1_4,illumination,720,694,65.58,1.3386,0.9569,0.9764,0.9889,1,1,1,0.0000,0.5538,0.7323,0.8661
i_dome_1_5,illumination,718,637,64.73,0.9126,0.8858,0.9109,0.9220,1,1,1,0.0874,0.6958,0.8175,0.9087
i_dome_1_6,illumination,1018,1012,67.91,0.2353,0.9951,0.9990,1.0000,1,1,1,0.7647,0.9216,0.9529,0.9765
i_duda_1_2,illumination,716,715,56.03,0.1353,0.9986,1.0000,1.0000,1,1,1,0.8647,0.9549,0.9729,0.9865
i_duda_1_3,illumination,670,669,53.17,0.1561,0.9985,1.0000,1.0000,1,1,1,0.8439,0.9480,0.9688,0.9844
i_duda_1_4,illumination,628,628,51.34,0.1967,1.0000,1.0000,1.0000,1,1,1,0.8033,0.9344,0.9607,0.9803
i_duda_1_5,illumination,593,593,53.38,0.2647,1.0000,1.0000,1.0000,1,1,1,0.7353,0.9118,0.9471,0.9735
i_duda_1_6,illumination,546,546,53.63,0.2418,1.0000,1.0000,1.0000,1,1,1,0.7582,0.9194,0.9516,0.9758
i_fenis_1_2,illumination,719,707,56.04,0.2435,0.9847,1.0000,1.0000,1,1,1,0.7565,0.9188,0.9513,0.9757
i_fenis_1_3,illumination,593,586,54.90,0.1687,0.9882,1.0000,1.0000,1,1,1,0.8313,0.9438,0.9663,0.9831
i_fenis_1_4,illumination,439,429,58.73,0.7678,0.9636,0.9954,1.0000,1,1,1,0.2322,0.7441,0.8464,0.9232
i_fenis_1_5,illumination,405,397,53.17,0.6470,0.9778,0.9951,1.0000,1,1,1,0.3530,0.7843,0.8706,0.9353
i_fenis_1_6,illumination,388,383,53.63,0.5104,0.9820,0.9948,0.9974,1,1,1,0.4896,0.8299,0.8979,0.9490
i_fog_1_2,illumination,488,486,51.99,0.3923,0.9898,1.0000,1.0000,1,1,1,0.6077,0.8692,0.9215,0.9608
i_fog_1_3,illumination,405,401,45.91,0.1895,0.9877,0.9975,1.0000,1,1,1,0.8105,0.9368,0.9621,0.9811
i_fog_1_4,illumination,313,309,47.46,0.4641,0.9872,0.9968,1.0000,1,1,1,0.5359,0.8453,0.9072,0.9536
i_fog_1_5,illumination,351,342,55.36,1.0351,0.9630,0.9915,1.0000,1,1,1,0.0000,0.6550,0.7930,0.8965
i_fog_1_6,illumination,338,331,50.53,1.3159,0.9704,0.9970,0.9970,1,1,1,0.0000,0.5614,0.7368,0.8684
i_fruits_1_2,illumination,1107,1076,90.42,0.2372,0.9711,0.9919,0.9937,1,1,1,0.7628,0.9209,0.9526,0.9763
i_fruits_1_3,illumination,1006,972,84.58,0.1613,0.9662,0.9930,0.9970,1,1,1,0.8387,0.9462,0.9677,0.9839
i_fruits_1_4,illumination,1043,1010,96.52,0.2931,0.9664,0.9933,0.9971,1,1,1,0.7069,0.9023,0.9414,0.9707
i_fruits_1_5,illumination,1016,973,85.74,0.2830,0.9547,0.9921,0.9961,1,1,1,0.7170,0.9057,0.9434,0.9717
i_fruits_1_6,illumination,1028,978,90.11,0.3640,0.9504,0.9922,0.9990,1,1,1,0.6360,0.8787,0.9272,0.9636
i_gonnenberg_1_2,illumination,595,589,53.38,0.4629,0.9882,1.0000,1.0000,1,1,1,0.5371,0.8457,0.9074,0.9537
i_gonnenberg_1_3,illumination,584,575,56.06,0.3695,0.9846,1.0000,1.0000,1,1,1,0.6305,0.8768,0.9261,0.9630
i_gonnenberg_1_4,illumination,533,523,48.93,0.3219,0.9831,0.9944,0.9962,1,1,1,0.6781,0.8927,0.9356,0.9678
i_gonnenberg_1_5,illumination,555,554,49.56,0.2512,0.9982,0.9982,1.0000,1,1,1,0.7488,0.9163,0.9498,0.9749
i_gonnenberg_1_6,illumination,569,565,49.01,0.3245,0.9912,1.0000,1.0000,1,1,1,0.6755,0.8918,0.9351,0.9675
i_greenhouse_1_2,illumination,1095,1073,68.97,0.1295,0.9817,1.0000,1.0000,1,1,1,0.8705,0.9568,0.9741,0.9871
i_greenhouse_1_3,illumination,1016,1001,65.02,0.4109,0.9833,0.9902,0.9990,1,1,1,0.5891,0.8630,0.9178,0.9589
i_greenhouse_1_4,illumination,982,975,66.78,0.3822,0.9929,0.9990,1.0000,1,1,1,0.6178,0.8726,0.9236,0.9618
i_greenhouse_1_5,illumination,934,924,65.89,0.5981,0.9882,0.9989,1.0000,1,1,1,0.4019,0.8006,0.8804,0.9402
i_greenhouse_1_6,illumination,908,885,65.64,0.6285,0.9714,0.9967,1.0000,1,1,1,0.3715,0.7905,0.8743,0.9372
i_greentea_1_2,illumination,861,854,68.00,0.4287,0.9907,0.9977,1.0000,1,1,1,0.5713,0.8571,0.9143,0.9571
i_greentea_1_3,illumination,1045,1041,66.69,0.1170,0.9962,0.9971,0.9990,1,1,1,0.8830,0.9610,0.9766,0.9883
i_greentea_1_4,illumination,1093,1088,65.34,0.0984,0.9954,0.9954,0.9963,1,1,1,0.9016,0.9672,0.9803,0.9902
i_greentea_1_5,illumination,1072,1070,70.03,0.1794,0.9981,0.9981,0.9991,1,1,1,0.8206,0.9402,0.9641,0.9821
i_greentea_1_6,illumination,1027,1020,65.46,0.1134,0.9932,0.9971,1.0000,1,1,1,0.8866,0.9622,0.9773,0.9887
i_indiana_1_2,illumination,776,769,55.16,0.1852,0.9897,1.0000,1.0000,1,1,1,0.8148,0.9383,0.9630,0.9815
i_indiana_1_3,illumination,725,713,51.03,0.2126,0.9821,0.9986,1.0000,1,1,1,0.7874,0.9291,0.9575,0.9787
i_indiana_1_4,illumination,722,711,56.18,0.2523,0.9861,1.0000,1.0000,1,1,1,0.7477,0.9159,0.9495,0.9748
i_indiana_1_5,illumination,715,705,51.80,0.3595,0.9818,1.0000,1.0000,1,1,1,0.6405,0.8802,0.9281,0.9641
i_indiana_1_6,illumination,672,670,53.88,0.1741,0.9970,1.0000,1.0000,1,1,1,0.8259,0.9420,0.9652,0.9826
i_kions_1_2,illumination,748,736,60.65,0.9526,0.9639,0.9987,1.0000,1,1,1,0.0474,0.6825,0.8095,0.9047
i_kions_1_3,illumination,717,711,62.55,0.5462,0.9902,1.0000,1.0000,1,1,1,0.4538,0.8179,0.8908,0.9454
i_kions_1_4,illumination,602,598,59.74,0.7409,0.9867,1.0000,1.0000,1,1,1,0.2591,0.7530,0.8518,0.9259
i_kions_1_5,illumination,611,604,57.59,0.8377,0.9804,1.0000,1.0000,1,1,1,0.1623,0.7208,0.8325,0.9162
i_kions_1_6,illumination,697,692,62.13,0.3962,0.9900,1.0000,1.0000,1,1,1,0.6038,0.8679,0.9208,0.9604
i_ktirio_1_2,illumination,1183,1176,73.29,0.1297,0.9932,0.9992,1.0000,1,1,1,0.8703,0.9568,0.9741,0.9870
i_ktirio_1_3,illumination,863,861,78.70,0.2026,0.9965,0.9988,1.0000,1,1,1,0.7974,0.9325,0.9595,0.9797
i_ktirio_1_4,illumination,799,779,71.12,0.8134,0.9637,0.9937,1.0000,1,1,1,0.1866,0.7289,0.8373,0.9187
i_ktirio_1_5,illumination,830,826,70.25,0.1676,0.9952,1.0000,1.0000,1,1,1,0.8324,0.9441,0.9665,0.9832
i_ktirio_1_6,illumination,784,772,72.56,0.2261,0.9847,0.9962,0.9987,1,1,1,0.7739,0.9246,0.9548,0.9774
i_kurhaus_1_2,illumination,897,893,58.12,0.1309,0.9978,1.0000,1.0000,1,1,1,0.8691,0.9564,0.9738,0.9869
i_kurhaus_1_3,illumination,791,775,56.35,0.2136,0.9785,0.9987,1.0000,1,1,1,0.7864,0.9288,0.9573,0.9786
i_kurhaus_1_4,illumination,736,735,66.30,0.1796,0.9973,0.9986,1.0000,1,1,1,0.8204,0.9401,0.9641,0.9820
i_kurhaus_1_5,illumination,684,678,62.40,0.2481,0.9883,0.9985,0.9985,1,1,1,0.7519,0.9173,0.9504,0.9752
i_kurhaus_1_6,illumination,640,628,57.53,0.2773,0.9844,0.9969,1.0000,1,1,1,0.7227,0.9076,0.9445,0.9723
i_leuven_1_2,illumination,1105,1105,64.72,0.7104,0.9991,1.0000,1.0000,1,1,1,0.2896,0.7632,0.8579,0.9290
i_leuven_1_3,illumination,1084,1081,60.23,1.0560,0.9963,0.9991,1.0000,1,1,1,0.0000,0.6480,0.7888,0.8944
i_leuven_1_4,illumination,1013,1007,60.09,1.6312,0.9921,1.0000,1.0000,1,1,1,0.0000,0.4563,0.6738,0.8369
i_leuven_1_5,illumination,966,961,59.87,1.1786,0.9938,1.0000,1.0000,1,1,1,0.0000,0.6071,0.7643,0.8821
i_leuven_1_6,illumination,858,854,60.02,6.6092,0.7727,0.8788,0.9499,0,0,1,0.0000,0.0000,0.0000,0.3391
i_lionday_1_2,illumination,1062,1034,79.02,1.3350,0.9614,0.9840,0.9991,1,1,1,0.0000,0.5550,0.7330,0.8665
i_lionday_1_3,illumination,969,961,74.34,0.8213,0.9886,0.9990,0.9990,1,1,1,0.1787,0.7262,0.8357,0.9179
i_lionday_1_4,illumination,819,801,72.30,1.1074,0.9438,0.9939,1.0000,1,1,1,0.0000,0.6309,0.7785,0.8893
i_lionday_1_5,illumination,893,875,73.71,1.0305,0.9664,0.9933,0.9989,1,1,1,0.0000,0.6565,0.7939,0.8970
i_lionday_1_6,illumination,1001,978,74.46,1.3658,0.9630,0.9940,1.0000,1,1,1,0.0000,0.5447,0.7268,0.8634
i_lionnight_1_2,illumination,1078,1052,78.00,0.5680,0.9731,0.9870,1.0000,1,1,1,0.4320,0.8107,0.8864,0.9432
i_lionnight_1_3,illumination,919,889,77.08,0.8934,0.9402,0.9967,1.0000,1,1,1,0.1066,0.7022,0.8213,0.9107
i_lionnight_1_4,illumination,1141,1127,74.97,0.4571,0.9833,0.9982,1.0000,1,1,1,0.5429,0.8476,0.9086,0.9543
i_lionnight_1_5,illumination,1161,1155,75.32,0.3571,0.9922,1.0000,1.0000,1,1,1,0.6429,0.8810,0.9286,0.9643
i_lionnight_1_6,illumination,1169,1159,74.99,0.3823,0.9872,1.0000,1.0000,1,1,1,0.6177,0.8726,0.9235,0.9618
i_londonbridge_1_2,illumination,1024,1020,61.75,1.0466,0.9883,1.0000,1.0000,1,1,1,0.0000,0.6511,0.7907,0.8953
i_londonbridge_1_3,illumination,960,957,57.90,0.8437,0.9938,1.0000,1.0000,1,1,1,0.1563,0.7188,0.8313,0.9156
i_londonbridge_1_4,illumination,849,828,58.24,3.1210,0.8857,0.9929,1.0000,0,1,1,0.0000,0.0000,0.3758,0.6879
i_londonbridge_1_5,illumination,675,543,60.49,4.8161,0.7141,0.8430,0.9007,0,1,1,0.0000,0.0000,0.0368,0.5184
i_londonbridge_1_6,illumination,837,834,59.01,0.5880,0.9928,1.0000,1.0000,1,1,1,0.4120,0.8040,0.8824,0.9412
i_melon_1_2,illumination,627,624,59.01,0.3062,0.9952,1.0000,1.0000,1,1,1,0.6938,0.8979,0.9388,0.9694
i_melon_1_3,illumination,511,507,57.71,0.3234,0.9902,0.9961,1.0000,1,1,1,0.6766,0.8922,0.9353,0.9677
i_melon_1_4,illumination,369,361,57.56,0.5378,0.9783,0.9864,0.9973,1,1,1,0.4622,0.8207,0.8924,0.9462
i_melon_1_5,illumination,517,515,60.55,0.5444,0.9961,1.0000,1.0000,1,1,1,0.4556,0.8185,0.8911,0.9456
i_melon_1_6,illumination,470,463,59.41,0.2589,0.9851,0.9979,1.0000,1,1,1,0.7411,0.9137,0.9482,0.9741
i_miniature_1_2,illumination,1294,1274,69.97,0.2933,0.9830,0.9985,1.0000,1,1,1,0.7067,0.9022,0.9413,0.9707
i_miniature_1_3,illumination,1100,1089,71.01,0.3464,0.9900,1.0000,1.0000,1,1,1,0.6536,0.8845,0.9307,0.9654
i_miniature_1_4,illumination,909,903,70.13,0.4215,0.9934,1.0000,1.0000,1,1,1,0.5785,0.8595,0.9157,0.9579
i_miniature_1_5,illumination,682,677,66.30,0.4167,0.9912,1.0000,1.0000,1,1,1,0.5833,0.8611,0.9167,0.9583
i_miniature_1_6,illumination,1070,1054,66.18,0.3046,0.9860,0.9991,1.0000,1,1,1,0.6954,0.8985,0.9391,0.9695
i_nescafe_1_2,illumination,921,912,68.46,0.3528,0.9891,0.9957,0.9967,1,1,1,0.6472,0.8824,0.9294,0.9647
i_nescafe_1_3,illumination,1040,1028,66.75,0.3354,0.9875,1.0000,1.0000,1,1,1,0.6646,0.8882,0.9329,0.9665
i_nescafe_1_4,illumination,1084,1078,65.63,0.1897,0.9935,0.9972,0.9991,1,1,1,0.8103,0.9368,0.9621,0.9810
i_nescafe_1_5,illumination,998,990,66.14,0.1035,0.9920,0.9980,1.0000,1,1,1,0.8965,0.9655,0.9793,0.9897
i_nescafe_1_6,illumination,938,921,66.43,0.1242,0.9819,0.9989,1.0000,1,1,1,0.8758,0.9586,0.9752,0.9876
i_nijmegen_1_2,illumination,1081,1068,72.79,0.8217,0.9843,0.9981,1.0000,1,1,1,0.1783,0.7261,0.8357,0.9178
i_nijmegen_1_3,illumination,1163,1137,73.32,0.5908,0.9751,0.9957,0.9991,1,1,1,0.4092,0.8031,0.8818,0.9409
i_nijmegen_1_4,illumination,760,758,74.65,0.4576,0.9934,1.0000,1.0000,1,1,1,0.5424,0.8475,0.9085,0.9542
i_nijmegen_1_5,illumination,1132,1105,64.98,0.5369,0.9682,0.9938,0.9982,1,1,1,0.4631,0.8210,0.8926,0.9463
i_nijmegen_1_6,illumination,1065,1051,66.05,0.4587,0.9840,0.9953,0.9991,1,1,1,0.5413,0.8471,0.9083,0.9541
i_nuts_1_2,illumination,764,701,100.17,0.4030,0.9149,0.9620,0.9751,1,1,1,0.5970,0.8657,0.9194,0.9597
i_nuts_1_3,illumination,693,627,85.96,0.4130,0.9076,0.9524,0.9812,1,1,1,0.5870,0.8623,0.9174,0.9587
i_nuts_1_4,illumination,567,541,89.75,0.6264,0.9524,0.9929,0.9965,1,1,1,0.3736,0.7912,0.8747,0.9374
i_nuts_1_5,illumination,604,564,87.19,0.7420,0.9255,0.9851,0.9901,1,1,1,0.2580,0.7527,0.8516,0.9258
i_nuts_1_6,illumination,627,557,84.98,1.2185,0.8915,0.9601,0.9825,1,1,1,0.0000,0.5938,0.7563,0.8781
i_objects_1_2,illumination,1063,1052,64.83,0.4921,0.9915,0.9991,1.0000,1,1,1,0.5079,0.8360,0.9016,0.9508
i_objects_1_3,illumination,987,962,63.80,0.9354,0.9625,0.9959,0.9959,1,1,1,0.0646,0.6882,0.8129,0.9065
i_objects_1_4,illumination,896,885,66.39,0.9716,0.9810,0.9944,1.0000,1,1,1,0.0284,0.6761,0.8057,0.9028
i_objects_1_5,illumination,855,841,65.78,0.7239,0.9766,0.9977,1.0000,1,1,1,0.2761,0.7587,0.8552,0.9276
i_objects_1_6,illumination,1327,1313,66.04,0.2875,0.9894,0.9970,1.0000,1,1,1,0.7125,0.9042,0.9425,0.9712
i_parking_1_2,illumination,1181,1176,71.65,0.1739,0.9966,1.0000,1.0000,1,1,1,0.8261,0.9420,0.9652,0.9826
i_parking_1_3,illumination,1028,1011,63.76,0.1800,0.9835,0.9903,0.9971,1,1,1,0.8200,0.9400,0.9640,0.9820
i_parking_1_4,illumination,949,947,69.56,0.6091,0.9958,1.0000,1.0000,1,1,1,0.3909,0.7970,0.8782,0.9391
i_parking_1_5,illumination,951,946,74.49,0.4481,0.9895,1.0000,1.0000,1,1,1,0.5519,0.8506,0.9104,0.9552
i_parking_1_6,illumination,969,967,70.83,0.4389,0.9979,1.0000,1.0000,1,1,1,0.5611,0.8537,0.9122,0.9561
i_partyfood_1_2,illumination,504,504,54.21,0.3481,1.0000,1.0000,1.0000,1,1,1,0.6519,0.8840,0.9304,0.9652
i_partyfood_1_3,illumination,458,458,49.64,0.4711,1.0000,1.0000,1.0000,1,1,1,0.5289,0.8430,0.9058,0.9529
i_partyfood_1_4,illumination,419,419,50.76,0.3827,1.0000,1.0000,1.0000,1,1,1,0.6173,0.8724,0.9235,0.9617
i_partyfood_1_5,illumination,403,403,50.80,0.5292,1.0000,1.0000,1.0000,1,1,1,0.4708,0.8236,0.8942,0.9471
i_partyfood_1_6,illumination,383,383,50.48,0.7590,1.0000,1.0000,1.0000,1,1,1,0.2410,0.7470,0.8482,0.9241
i_pinard_1_2,illumination,767,756,64.13,0.8780,0.9817,0.9922,0.9961,1,1,1,0.1220,0.7073,0.8244,0.9122
i_pinard_1_3,illumination,594,583,62.29,0.5548,0.9798,0.9933,0.9983,1,1,1,0.4452,0.8151,0.8890,0.9445
i_pinard_1_4,illumination,614,605,62.32,0.3441,0.9853,0.9870,0.9984,1,1,1,0.6559,0.8853,0.9312,0.9656
i_pinard_1_5,illumination,619,608,70.10,0.2696,0.9838,0.9903,0.9968,1,1,1,0.7304,0.9101,0.9461,0.9730
i_pinard_1_6,illumination,625,612,62.00,0.3399,0.9792,0.9888,1.0000,1,1,1,0.6601,0.8867,0.9320,0.9660
i_pool_1_2,illumination,614,605,64.38,0.4602,0.9821,1.0000,1.0000,1,1,1,0.5398,0.8466,0.9080,0.9540
i_pool_1_3,illumination,492,439,62.53,1.4286,0.8841,0.9634,0.9898,1,1,1,0.0000,0.5238,0.7143,0.8571
i_pool_1_4,illumination,501,455,61.93,2.0619,0.8782,0.9701,0.9940,1,1,1,0.0000,0.3127,0.5876,0.7938
i_pool_1_5,illumination,545,529,62.13,0.6943,0.9706,0.9945,1.0000,1,1,1,0.3057,0.7686,0.8611,0.9306
i_pool_1_6,illumination,544,526,67.33,0.8680,0.9669,1.0000,1.0000,1,1,1,0.1320,0.7107,0.8264,0.9132
i_porta_1_2,illumination,439,437,54.98,0.2273,0.9954,0.9954,1.0000,1,1,1,0.7727,0.9242,0.9545,0.9773
i_porta_1_3,illumination,427,423,53.90,0.3039,0.9906,1.0000,1.0000,1,1,1,0.6961,0.8987,0.9392,0.9696
i_porta_1_4,illumination,366,360,53.37,0.3126,0.9809,1.0000,1.0000,1,1,1,0.6874,0.8958,0.9375,0.9687
i_porta_1_5,illumination,374,372,55.39,0.8397,0.9947,0.9973,1.0000,1,1,1,0.1603,0.7201,0.8321,0.9160
i_porta_1_6,illumination,327,320,57.01,1.0741,0.9511,1.0000,1.0000,1,1,1,0.0000,0.6420,0.7852,0.8926
i_resort_1_2,illumination,765,765,63.63,0.2388,1.0000,1.0000,1.0000,1,1,1,0.7612,0.9204,0.9522,0.9761
i_resort_1_3,illumination,944,941,59.18,0.1643,0.9968,1.0000,1.0000,1,1,1,0.8357,0.9452,0.9671,0.9836
i_resort_1_4,illumination,917,913,57.32,0.2372,0.9956,0.9989,1.0000,1,1,1,0.7628,0.9209,0.9526,0.9763
i_resort_1_5,illumination,724,719,59.57,0.5104,0.9945,0.9986,1.0000,1,1,1,0.4896,0.8299,0.8979,0.9490
i_resort_1_6,illumination,761,750,58.27,0.7263,0.9790,0.9974,0.9987,1,1,1,0.2737,0.7579,0.8547,0.9274
i_salon_1_2,illumination,1599,1549,75.55,0.2433,0.9681,0.9950,0.9981,1,1,1,0.7567,0.9189,0.9513,0.9757
i_salon_1_3,illumination,1279,1252,70.60,0.2565,0.9773,1.0000,1.0000,1,1,1,0.7435,0.9145,0.9487,0.9744
i_salon_1_4,illumination,1072,1062,70.95,0.2336,0.9897,0.9991,1.0000,1,1,1,0.7664,0.9221,0.9533,0.9766
i_salon_1_5,illumination,1382,1362,71.49,0.2121,0.9841,0.9993,1.0000,1,1,1,0.7879,0.9293,0.9576,0.9788
i_salon_1_6,illumination,1159,1143,71.46,0.2539,0.9836,1.0000,1.0000,1,1,1,0.7461,0.9154,0.9492,0.9746
i_santuario_1_2,illumination,1220,1200,73.27,1.1492,0.9598,0.9992,1.0000,1,1,1,0.0000,0.6169,0.7702,0.8851
i_santuario_1_3,illumination,1198,1181,65.34,1.4569,0.9499,0.9983,1.0000,1,1,1,0.0000,0.5144,0.7086,0.8543
i_santuario_1_4,illumination,1086,1068,66.17,1.5483,0.9217,0.9982,1.0000,1,1,1,0.0000,0.4839,0.6903,0.8452
i_santuario_1_5,illumination,1196,1175,67.29,0.3197,0.9841,0.9992,0.9992,1,1,1,0.6803,0.8934,0.9361,0.9680
i_santuario_1_6,illumination,1045,1026,64.08,0.7783,0.9713,1.0000,1.0000,1,1,1,0.2217,0.7406,0.8443,0.9222
i_school_1_2,illumination,757,751,69.19,0.1568,0.9908,0.9974,1.0000,1,1,1,0.8432,0.9477,0.9686,0.9843
i_school_1_3,illumination,773,765,65.79,0.2890,0.9897,0.9948,1.0000,1,1,1,0.7110,0.9037,0.9422,0.9711
i_school_1_4,illumination,697,682,63.65,0.4369,0.9770,0.9943,0.9986,1,1,1,0.5631,0.8544,0.9126,0.9563
i_school_1_5,illumination,726,716,65.81,0.5764,0.9835,0.9945,0.9986,1,1,1,0.4236,0.8079,0.8847,0.9424
i_school_1_6,illumination,611,589,64.53,1.0354,0.9460,0.9853,1.0000,1,1,1,0.0000,0.6549,0.7929,0.8965
i_ski_1_2,illumination,789,784,63.72,0.2516,0.9924,1.0000,1.0000,1,1,1,0.7484,0.9161,0.9497,0.9748
i_ski_1_3,illumination,727,720,58.33,0.3578,0.9904,0.9986,1.0000,1,1,1,0.6422,0.8807,0.9284,0.9642
i_ski_1_4,illumination,655,653,61.30,0.5013,0.9954,1.0000,1.0000,1,1,1,0.4987,0.8329,0.8997,0.9499
i_ski_1_5,illumination,631,628,60.54,0.4631,0.9905,1.0000,1.0000,1,1,1,0.5369,0.8456,0.9074,0.9537
i_ski_1_6,illumination,613,605,61.13,0.4233,0.9853,1.0000,1.0000,1,1,1,0.5767,0.8589,0.9153,0.9577
i_smurf_1_2,illumination,912,902,69.03,0.2471,0.9901,0.9978,1.0000,1,1,1,0.7529,0.9176,0.9506,0.9753
i_smurf_1_3,illumination,900,889,66.33,0.2169,0.9844,0.9944,0.9967,1,1,1,0.7831,0.9277,0.9566,0.9783
i_smurf_1_4,illumination,875,853,66.07,0.2620,0.9749,0.9931,0.9989,1,1,1,0.7380,0.9127,0.9476,0.9738
i_smurf_1_5,illumination,843,821,65.83,0.1815,0.9703,0.9953,0.9988,1,1,1,0.8185,0.9395,0.9637,0.9819
i_smurf_1_6,illumination,742,735,66.26,0.4345,0.9865,0.9987,1.0000,1,1,1,0.5655,0.8552,0.9131,0.9565
i_steps_1_2,illumination,1205,1197,66.01,0.5286,0.9900,0.9992,1.0000,1,1,1,0.4714,0.8238,0.8943,0.9471
i_steps_1_3,illumination,1178,1162,62.16,0.6724,0.9881,0.9966,0.9983,1,1,1,0.3276,0.7759,0.8655,0.9328
i_steps_1_4,illumination,1171,1163,61.47,0.5957,0.9923,0.9991,1.0000,1,1,1,0.4043,0.8014,0.8809,0.9404
i_steps_1_5,illumination,963,960,60.91,0.7032,0.9958,1.0000,1.0000,1,1,1,0.2968,0.7656,0.8594,0.9297
i_steps_1_6,illumination,1052,1048,61.59,0.6606,0.9943,1.0000,1.0000,1,1,1,0.3394,0.7798,0.8679,0.9339
i_table_1_2,illumination,1063,1052,66.49,0.4921,0.9915,0.9991,1.0000,1,1,1,0.5079,0.8360,0.9016,0.9508
i_table_1_3,illumination,987,962,62.22,0.9354,0.9625,0.9959,0.9959,1,1,1,0.0646,0.6882,0.8129,0.9065
i_table_1_4,illumination,896,885,64.18,0.9716,0.9810,0.9944,1.0000,1,1,1,0.0284,0.6761,0.8057,0.9028
i_table_1_5,illumination,855,841,63.86,0.7239,0.9766,0.9977,1.0000,1,1,1,0.2761,0.7587,0.8552,0.9276
i_table_1_6,illumination,1327,1313,63.46,0.2875,0.9894,0.9970,1.0000,1,1,1,0.7125,0.9042,0.9425,0.9712
i_tools_1_2,illumination,414,365,59.03,2.0667,0.8188,0.9372,0.9831,1,1,1,0.0000,0.3111,0.5867,0.7933
i_tools_1_3,illumination,553,531,55.78,0.8237,0.9656,0.9946,1.0000,1,1,1,0.1763,0.7254,0.8353,0.9176
i_tools_1_4,illumination,435,388,55.23,1.8139,0.8391,0.9333,0.9632,1,1,1,0.0000,0.3954,0.6372,0.8186
i_tools_1_5,illumination,549,548,55.65,1.0686,0.9836,1.0000,1.0000,1,1,1,0.0000,0.6438,0.7863,0.8931
i_tools_1_6,illumination,460,327,55.58,3.8785,0.4000,0.6478,0.8174,0,1,1,0.0000,0.0000,0.2243,0.6122
i_toy_1_2,illumination,724,645,77.90,0.4404,0.8798,0.9738,0.9917,1,1,1,0.5596,0.8532,0.9119,0.9560
i_toy_1_3,illumination,594,539,75.02,0.4262,0.9007,0.9545,0.9731,1,1,1,0.5738,0.8579,0.9148,0.9574
i_toy_1_4,illumination,490,448,77.67,0.3083,0.9122,0.9857,0.9878,1,1,1,0.6917,0.8972,0.9383,0.9692
i_toy_1_5,illumination,436,381,77.14,0.6090,0.8761,0.9633,0.9885,1,1,1,0.3910,0.7970,0.8782,0.9391
i_toy_1_6,illumination,372,294,78.93,1.0995,0.7849,0.9409,0.9731,1,1,1,0.0000,0.6335,0.7801,0.8900
i_troulos_1_2,illumination,543,527,61.91,0.5714,0.9724,0.9963,1.0000,1,1,1,0.4286,0.8095,0.8857,0.9429
i_troulos_1_3,illumination,511,491,59.55,2.2358,0.6947,0.9785,0.9980,1,1,1,0.0000,0.2547,0.5528,0.7764
i_troulos_1_4,illumination,574,561,56.85,0.4414,0.9721,0.9895,0.9948,1,1,1,0.5586,0.8529,0.9117,0.9559
i_troulos_1_5,illumination,513,499,60.35,0.8606,0.9688,0.9883,1.0000,1,1,1,0.1394,0.7131,0.8279,0.9139
i_troulos_1_6,illumination,537,531,64.64,1.1246,0.9665,0.9944,1.0000,1,1,1,0.0000,0.6251,0.7751,0.8875
i_veggies_1_2,illumination,979,958,71.33,0.2882,0.9796,0.9990,1.0000,1,1,1,0.7118,0.9039,0.9424,0.9712
i_veggies_1_3,illumination,754,740,62.37,0.5777,0.9748,1.0000,1.0000,1,1,1,0.4223,0.8074,0.8845,0.9422
i_veggies_1_4,illumination,778,771,62.30,0.2061,0.9884,1.0000,1.0000,1,1,1,0.7939,0.9313,0.9588,0.9794
i_veggies_1_5,illumination,604,603,61.68,0.5239,0.9967,1.0000,1.0000,1,1,1,0.4761,0.8254,0.8952,0.9476
i_veggies_1_6,illumination,560,551,64.07,0.3457,0.9857,0.9982,1.0000,1,1,1,0.6543,0.8848,0.9309,0.9654
i_village_1_2,illumination,836,818,77.37,0.6365,0.9773,0.9976,1.0000,1,1,1,0.3635,0.7878,0.8727,0.9363
i_village_1_3,illumination,854,839,73.52,0.5314,0.9836,1.0000,1.0000,1,1,1,0.4686,0.8229,0.8937,0.9469
i_village_1_4,illumination,845,832,73.52,0.3940,0.9846,0.9976,1.0000,1,1,1,0.6060,0.8687,0.9212,0.9606
i_village_1_5,illumination,1110,1102,75.99,0.3005,0.9928,0.9991,0.9991,1,1,1,0.6995,0.8998,0.9399,0.9700
i_village_1_6,illumination,839,814,73.77,0.5479,0.9559,1.0000,1.0000,1,1,1,0.4521,0.8174,0.8904,0.9452
i_yellowtent_1_2,illumination,1366,1345,71.65,0.3020,0.9839,0.9941,0.9978,1,1,1,0.6980,0.8993,0.9396,0.9698
i_yellowtent_1_3,illumination,1161,1141,66.32,0.4414,0.9750,1.0000,1.0000,1,1,1,0.5586,0.8529,0.9117,0.9559
i_yellowtent_1_4,illumination,964,945,66.82,0.3541,0.9741,0.9990,1.0000,1,1,1,0.6459,0.8820,0.9292,0.9646
i_yellowtent_1_5,illumination,1071,1052,71.53,0.2945,0.9823,0.9888,0.9888,1,1,1,0.7055,0.9018,0.9411,0.9705
i_yellowtent_1_6,illumination,974,970,68.56,0.2988,0.9959,1.0000,1.0000,1,1,1,0.7012,0.9004,0.9402,0.9701
i_zion_1_2,illumination,544,535,55.71,0.2392,0.9871,0.9982,1.0000,1,1,1,0.7608,0.9203,0.9522,0.9761
i_zion_1_3,illumination,388,375,51.94,0.6737,0.9613,1.0000,1.0000,1,1,1,0.3263,0.7754,0.8653,0.9326
i_zion_1_4,illumination,303,298,55.44,0.4199,0.9769,0.9967,1.0000,1,1,1,0.5801,0.8600,0.9160,0.9580
i_zion_1_5,illumination,284,276,55.52,0.5269,0.9507,0.9965,1.0000,1,1,1,0.4731,0.8244,0.8946,0.9473
i_zion_1_6,illumination,285,276,54.89,0.8424,0.9579,1.0000,1.0000,1,1,1,0.1576,0.7192,0.8315,0.9158
v_abstract_1_2,viewpoint,1210,1202,72.54,0.2001,0.9934,1.0000,1.0000,1,1,1,0.7999,0.9333,0.9600,0.9800
v_abstract_1_3,viewpoint,1122,1107,68.04,0.4153,0.9866,1.0000,1.0000,1,1,1,0.5847,0.8616,0.9169,0.9585
v_abstract_1_4,viewpoint,756,748,68.29,0.8014,0.9881,0.9987,0.9987,1,1,1,0.1986,0.7329,0.8397,0.9199
v_abstract_1_5,viewpoint,997,978,66.92,0.5027,0.9779,0.9990,1.0000,1,1,1,0.4973,0.8324,0.8995,0.9497
v_abstract_1_6,viewpoint,748,730,64.57,0.8879,0.9545,0.9987,1.0000,1,1,1,0.1121,0.7040,0.8224,0.9112
v_adam_1_2,viewpoint,680,679,63.12,0.2972,0.9985,1.0000,1.0000,1,1,1,0.7028,0.9009,0.9406,0.9703
v_adam_1_3,viewpoint,600,599,58.96,0.6275,0.9950,1.0000,1.0000,1,1,1,0.3725,0.7908,0.8745,0.9373
v_adam_1_4,viewpoint,394,393,59.66,0.7268,0.9898,1.0000,1.0000,1,1,1,0.2732,0.7577,0.8546,0.9273
v_adam_1_5,viewpoint,539,537,59.79,0.4475,0.9981,1.0000,1.0000,1,1,1,0.5525,0.8508,0.9105,0.9552
v_adam_1_6,viewpoint,539,536,63.15,0.7978,0.9944,1.0000,1.0000,1,1,1,0.2022,0.7341,0.8404,0.9202
v_apprentices_1_2,viewpoint,1515,1514,80.52,0.1144,0.9993,1.0000,1.0000,1,1,1,0.8856,0.9619,0.9771,0.9886
v_apprentices_1_3,viewpoint,1303,1298,73.80,0.5066,0.9939,0.9992,1.0000,1,1,1,0.4934,0.8311,0.8987,0.9493
v_apprentices_1_4,viewpoint,1080,1074,73.92,0.6294,0.9963,1.0000,1.0000,1,1,1,0.3706,0.7902,0.8741,0.9371
v_apprentices_1_5,viewpoint,859,853,71.20,0.9720,0.9942,0.9988,1.0000,1,1,1,0.0280,0.6760,0.8056,0.9028
v_apprentices_1_6,viewpoint,754,752,68.75,0.6171,0.9960,1.0000,1.0000,1,1,1,0.3829,0.7943,0.8766,0.9383
v_azzola_1_2,viewpoint,1251,1201,73.36,0.3573,0.9536,0.9968,0.9992,1,1,1,0.6427,0.8809,0.9285,0.9643
v_azzola_1_3,viewpoint,1075,967,68.91,1.0434,0.8753,0.9944,1.0000,1,1,1,0.0000,0.6522,0.7913,0.8957
v_azzola_1_4,viewpoint,1248,1229,67.67,0.4822,0.9816,0.9984,0.9992,1,1,1,0.5178,0.8393,0.9036,0.9518
v_azzola_1_5,viewpoint,870,806,69.14,0.8163,0.9000,0.9851,1.0000,1,1,1,0.1837,0.7279,0.8367,0.9184
v_azzola_1_6,viewpoint,503,471,68.45,1.0534,0.8867,0.9901,1.0000,1,1,1,0.0000,0.6489,0.7893,0.8947
v_bark_1_2,viewpoint,488,472,54.96,0.3524,0.9652,0.9980,1.0000,1,1,1,0.6476,0.8825,0.9295,0.9648
v_bark_1_3,viewpoint,9,4,50.14,1235.3679,0.0000,0.0000,0.0000,0,0,0,0.0000,0.0000,0.0000,0.0000
v_bark_1_4,viewpoint,8,4,50.84,139.2472,0.0000,0.0000,0.0000,0,0,0,0.0000,0.0000,0.0000,0.0000
v_bark_1_5,viewpoint,118,104,67.80,1.0590,0.8729,0.9407,0.9576,1,1,1,0.0000,0.6470,0.7882,0.8941
v_bark_1_6,viewpoint,18,6,50.10,149.3249,0.0000,0.0000,0.0000,0,0,0,0.0000,0.0000,0.0000,0.0000
v_bees_1_2,viewpoint,1446,1429,75.12,0.1319,0.9869,0.9979,1.0000,1,1,1,0.8681,0.9560,0.9736,0.9868
v_bees_1_3,viewpoint,1462,1450,69.87,0.2869,0.9918,0.9993,1.0000,1,1,1,0.7131,0.9044,0.9426,0.9713
v_bees_1_4,viewpoint,1273,1262,67.69,0.5536,0.9921,1.0000,1.0000,1,1,1,0.4464,0.8155,0.8893,0.9446
v_bees_1_5,viewpoint,872,863,64.62,0.7107,0.9782,0.9989,1.0000,1,1,1,0.2893,0.7631,0.8579,0.9289
v_bees_1_6,viewpoint,1047,1013,68.24,0.8438,0.9532,0.9828,0.9981,1,1,1,0.1562,0.7187,0.8312,0.9156
v_beyus_1_2,viewpoint,404,404,66.68,0.8732,0.9950,1.0000,1.0000,1,1,1,0.1268,0.7089,0.8254,0.9127
v_beyus_1_3,viewpoint,371,355,62.85,2.8993,0.9380,0.9919,1.0000,1,1,1,0.0000,0.0336,0.4201,0.7101
v_beyus_1_4,viewpoint,476,475,63.70,0.5241,0.9979,1.0000,1.0000,1,1,1,0.4759,0.8253,0.8952,0.9476
v_beyus_1_5,viewpoint,301,297,62.01,0.6482,0.9900,1.0000,1.0000,1,1,1,0.3518,0.7839,0.8704,0.9352
v_beyus_1_6,viewpoint,382,379,62.54,0.6181,0.9895,1.0000,1.0000,1,1,1,0.3819,0.7940,0.8764,0.9382
v_bip_1_2,viewpoint,847,846,70.83,0.1913,0.9988,1.0000,1.0000,1,1,1,0.8087,0.9362,0.9617,0.9809
v_bip_1_3,viewpoint,737,735,65.53,0.2026,0.9959,1.0000,1.0000,1,1,1,0.7974,0.9325,0.9595,0.9797
v_bip_1_4,viewpoint,755,754,70.46,0.2853,0.9974,1.0000,1.0000,1,1,1,0.7147,0.9049,0.9429,0.9715
v_bip_1_5,viewpoint,388,384,64.12,0.8644,0.9639,0.9948,1.0000,1,1,1,0.1356,0.7119,0.8271,0.9136
v_bip_1_6,viewpoint,8,4,61.12,192.5022,0.3750,0.3750,0.3750,0,0,0,0.0000,0.0000,0.0000,0.0000
v_bird_1_2,viewpoint,790,787,80.55,76.6249,0.0000,0.0000,0.0000,0,0,0,0.0000,0.0000,0.0000,0.0000
v_bird_1_3,viewpoint,787,754,78.18,83.5897,0.0000,0.0000,0.0013,0,0,0,0.0000,0.0000,0.0000,0.0000
v_bird_1_4,viewpoint,781,772,78.54,99.4993,0.0000,0.0000,0.0000,0,0,0,0.0000,0.0000,0.0000,0.0000
v_bird_1_5,viewpoint,723,706,80.28,87.6899,0.0000,0.0000,0.0014,0,0,0,0.0000,0.0000,0.0000,0.0000
v_bird_1_6,viewpoint,447,405,78.62,187.1937,0.0000,0.0000,0.0000,0,0,0,0.0000,0.0000,0.0000,0.0000
v_birdwoman_1_2,viewpoint,302,296,68.94,44.8989,0.0000,0.0000,0.0000,0,0,0,0.0000,0.0000,0.0000,0.0000
v_birdwoman_1_3,viewpoint,356,336,63.19,53.2336,0.0000,0.0000,0.0000,0,0,0,0.0000,0.0000,0.0000,0.0000
v_birdwoman_1_4,viewpoint,408,400,61.03,50.7015,0.0000,0.0000,0.0000,0,0,0,0.0000,0.0000,0.0000,0.0000
v_birdwoman_1_5,viewpoint,748,730,62.69,52.9805,0.0000,0.0000,0.0013,0,0,0,0.0000,0.0000,0.0000,0.0000
v_birdwoman_1_6,viewpoint,550,539,61.98,51.0352,0.0000,0.0000,0.0000,0,0,0,0.0000,0.0000,0.0000,0.0000
v_blueprint_1_2,viewpoint,1018,1014,67.92,0.2650,0.9951,1.0000,1.0000,1,1,1,0.7350,0.9117,0.9470,0.9735
v_blueprint_1_3,viewpoint,804,800,73.03,0.3403,0.9950,1.0000,1.0000,1,1,1,0.6597,0.8866,0.9319,0.9660
v_blueprint_1_4,viewpoint,993,980,68.96,0.6108,0.9839,0.9990,1.0000,1,1,1,0.3892,0.7964,0.8778,0.9389
v_blueprint_1_5,viewpoint,684,679,61.72,0.5786,0.9898,1.0000,1.0000,1,1,1,0.4214,0.8071,0.8843,0.9421
v_blueprint_1_6,viewpoint,545,536,61.20,1.1582,0.9780,0.9982,1.0000,1,1,1,0.0000,0.6139,0.7684,0.8842
v_boat_1_2,viewpoint,1017,1008,71.80,0.3983,0.9921,0.9980,1.0000,1,1,1,0.6017,0.8672,0.9203,0.9602
v_boat_1_3,viewpoint,739,731,68.60,0.2428,0.9878,0.9946,1.0000,1,1,1,0.7572,0.9191,0.9514,0.9757
v_boat_1_4,viewpoint,38,25,67.82,2.3809,0.6579,0.7105,0.7368,1,1,1,0.0000,0.2064,0.5238,0.7619
v_boat_1_5,viewpoint,7,4,61.76,304.7149,0.0000,0.0000,0.0000,0,0,0,0.0000,0.0000,0.0000,0.0000
v_boat_1_6,viewpoint,276,274,64.17,0.4056,0.9928,0.9964,0.9964,1,1,1,0.5944,0.8648,0.9189,0.9594
v_bricks_1_2,viewpoint,1089,1083,64.26,33.5093,0.0028,0.0147,0.0441,0,0,0,0.0000,0.0000,0.0000,0.0000
v_bricks_1_3,viewpoint,1048,1018,60.92,32.0400,0.0010,0.0143,0.0420,0,0,0,0.0000,0.0000,0.0000,0.0000
v_bricks_1_4,viewpoint,856,837,59.37,30.8779,0.0000,0.0035,0.0210,0,0,0,0.0000,0.0000,0.0000,0.0000
v_bricks_1_5,viewpoint,728,703,59.38,27.9036,0.0000,0.0110,0.0288,0,0,0,0.0000,0.0000,0.0000,0.0000
v_bricks_1_6,viewpoint,533,524,57.27,27.6310,0.0000,0.0000,0.0000,0,0,0,0.0000,0.0000,0.0000,0.0000
v_busstop_1_2,viewpoint,1034,1002,66.91,0.1898,0.9691,0.9942,1.0000,1,1,1,0.8102,0.9367,0.9620,0.9810
v_busstop_1_3,viewpoint,891,854,73.12,0.3297,0.9585,0.9933,0.9978,1,1,1,0.6703,0.8901,0.9341,0.9670
v_busstop_1_4,viewpoint,793,767,63.94,0.3570,0.9622,0.9975,1.0000,1,1,1,0.6430,0.8810,0.9286,0.9643
v_busstop_1_5,viewpoint,746,728,64.61,0.4421,0.9718,0.9973,1.0000,1,1,1,0.5579,0.8526,0.9116,0.9558
v_busstop_1_6,viewpoint,932,907,61.14,0.4091,0.9721,0.9957,0.9979,1,1,1,0.5909,0.8636,0.9182,0.9591
v_calder_1_2,viewpoint,826,824,73.84,0.4621,0.9964,1.0000,1.0000,1,1,1,0.5379,0.8460,0.9076,0.9538
v_calder_1_3,viewpoint,1103,1099,72.61,0.1187,0.9955,0.9991,1.0000,1,1,1,0.8813,0.9604,0.9763,0.9881
v_calder_1_4,viewpoint,593,586,63.65,0.4782,0.9882,0.9983,1.0000,1,1,1,0.5218,0.8406,0.9044,0.9522
v_calder_1_5,viewpoint,503,496,62.75,0.2213,0.9861,0.9960,1.0000,1,1,1,0.7787,0.9262,0.9557,0.9779
v_calder_1_6,viewpoint,395,393,64.90,0.2814,0.9949,1.0000,1.0000,1,1,1,0.7186,0.9062,0.9437,0.9719
v_cartooncity_1_2,viewpoint,1399,1376,67.00,62.1809,0.0000,0.0000,0.0029,0,0,0,0.0000,0.0000,0.0000,0.0000
v_cartooncity_1_3,viewpoint,744,725,62.77,67.4027,0.0000,0.0000,0.0000,0,0,0,0.0000,0.0000,0.0000,0.0000
v_cartooncity_1_4,viewpoint,1269,1241,73.44,74.6171,0.0000,0.0008,0.0039,0,0,0,0.0000,0.0000,0.0000,0.0000
v_cartooncity_1_5,viewpoint,899,885,73.18,76.1652,0.0000,0.0000,0.0000,0,0,0,0.0000,0.0000,0.0000,0.0000
v_cartooncity_1_6,viewpoint,683,659,67.63,69.8990,0.0000,0.0000,0.0000,0,0,0,0.0000,0.0000,0.0000,0.0000
v_charing_1_2,viewpoint,381,366,70.62,2.3655,0.9554,0.9738,0.9816,1,1,1,0.0000,0.2115,0.5269,0.7635
v_charing_1_3,viewpoint,293,268,65.65,22.8669,0.8942,0.9659,0.9693,0,0,0,0.0000,0.0000,0.0000,0.0000
v_charing_1_4,viewpoint,320,309,69.63,0.7746,0.9625,0.9844,0.9906,1,1,1,0.2254,0.7418,0.8451,0.9225
v_charing_1_5,viewpoint,303,291,58.88,51.9415,0.9439,0.9934,0.9967,0,0,0,0.0000,0.0000,0.0000,0.0000
v_charing_1_6,viewpoint,299,285,60.30,177.8518,0.9365,1.0000,1.0000,0,0,0,0.0000,0.0000,0.0000,0.0000
v_churchill_1_2,viewpoint,780,771,67.19,0.9679,0.9859,0.9974,1.0000,1,1,1,0.0321,0.6774,0.8064,0.9032
v_churchill_1_3,viewpoint,652,648,68.38,2.0127,0.9939,1.0000,1.0000,1,1,1,0.0000,0.3291,0.5975,0.7987
v_churchill_1_4,viewpoint,628,612,63.84,1.0013,0.9745,0.9936,1.0000,1,1,1,0.0000,0.6662,0.7997,0.8999
v_churchill_1_5,viewpoint,898,897,62.31,0.1439,0.9978,1.0000,1.0000,1,1,1,0.8561,0.9520,0.9712,0.9856
v_churchill_1_6,viewpoint,485,474,64.03,2.1710,0.9649,0.9918,0.9959,1,1,1,0.0000,0.2763,0.5658,0.7829
v_circus_1_2,viewpoint,710,704,67.73,0.2345,0.9915,1.0000,1.0000,1,1,1,0.7655,0.9218,0.9531,0.9765
v_circus_1_3,viewpoint,631,618,64.96,1.5064,0.9683,1.0000,1.0000,1,1,1,0.0000,0.4979,0.6987,0.8494
v_circus_1_4,viewpoint,522,487,67.62,2.0184,0.9004,0.9904,0.9981,1,1,1,0.0000,0.3272,0.5963,0.7982
v_circus_1_5,viewpoint,723,715,67.74,0.2816,0.9889,1.0000,1.0000,1,1,1,0.7184,0.9061,0.9437,0.9718
v_circus_1_6,viewpoint,588,577,70.79,1.1589,0.9592,1.0000,1.0000,1,1,1,0.0000,0.6137,0.7682,0.8841
v_coffeehouse_1_2,viewpoint,946,935,67.98,0.5058,0.9873,1.0000,1.0000,1,1,1,0.4942,0.8314,0.8988,0.9494
v_coffeehouse_1_3,viewpoint,1012,990,64.69,0.6873,0.9763,0.9862,0.9931,1,1,1,0.3127,0.7709,0.8625,0.9313
v_coffeehouse_1_4,viewpoint,902,897,67.15,0.9929,0.9933,1.0000,1.0000,1,1,1,0.0071,0.6690,0.8014,0.9007
v_coffeehouse_1_5,viewpoint,848,842,61.72,0.4370,0.9929,0.9988,1.0000,1,1,1,0.5630,0.8543,0.9126,0.9563
v_coffeehouse_1_6,viewpoint,677,666,62.55,0.3598,0.9808,1.0000,1.0000,1,1,1,0.6402,0.8801,0.9280,0.9640
v_colors_1_2,viewpoint,543,530,57.53,0.3758,0.9650,0.9945,1.0000,1,1,1,0.6242,0.8747,0.9248,0.9624
v_colors_1_3,viewpoint,552,535,63.53,0.6523,0.9710,0.9928,1.0000,1,1,1,0.3477,0.7826,0.8695,0.9348
v_colors_1_4,viewpoint,306,269,61.14,4.1963,0.8758,0.9575,0.9837,0,1,1,0.0000,0.0000,0.1607,0.5804
v_colors_1_5,viewpoint,284,244,58.61,11.4777,0.8275,0.9542,0.9824,0,0,0,0.0000,0.0000,0.0000,0.0000
v_colors_1_6,viewpoint,146,112,57.66,9.3137,0.7808,0.8904,0.9315,0,0,0,0.0000,0.0000,0.0000,0.0686
v_courses_1_2,viewpoint,1289,1285,74.25,0.5613,0.9946,1.0000,1.0000,1,1,1,0.4387,0.8129,0.8877,0.9439
v_courses_1_3,viewpoint,1045,1030,75.53,0.8043,0.9856,0.9990,1.0000,1,1,1,0.1957,0.7319,0.8391,0.9196
v_courses_1_4,viewpoint,1072,1056,71.35,0.8655,0.9832,1.0000,1.0000,1,1,1,0.1345,0.7115,0.8269,0.9134
v_courses_1_5,viewpoint,853,823,76.92,1.6083,0.9508,0.9941,0.9988,1,1,1,0.0000,0.4639,0.6783,0.8392
v_courses_1_6,viewpoint,726,697,77.69,2.8764,0.9284,0.9931,0.9972,1,1,1,0.0000,0.0412,0.4247,0.7124
v_dirtywall_1_2,viewpoint,1029,1007,71.25,0.2865,0.9757,0.9922,0.9990,1,1,1,0.7135,0.9045,0.9427,0.9713
v_dirtywall_1_3,viewpoint,951,930,67.75,0.1904,0.9769,0.9979,1.0000,1,1,1,0.8096,0.9365,0.9619,0.9810
v_dirtywall_1_4,viewpoint,725,699,67.53,0.5431,0.9655,0.9903,0.9931,1,1,1,0.4569,0.8190,0.8914,0.9457
v_dirtywall_1_5,viewpoint,825,805,68.99,0.6047,0.9745,0.9939,0.9964,1,1,1,0.3953,0.7984,0.8791,0.9395
v_dirtywall_1_6,viewpoint,543,528,66.72,0.5800,0.9705,0.9890,0.9945,1,1,1,0.4200,0.8067,0.8840,0.9420
v_dogman_1_2,viewpoint,965,929,69.83,0.9579,0.9637,0.9855,0.9886,1,1,1,0.0421,0.6807,0.8084,0.9042
v_dogman_1_3,viewpoint,1046,1001,69.28,0.4088,0.9579,0.9656,0.9685,1,1,1,0.5912,0.8637,0.9182,0.9591
v_dogman_1_4,viewpoint,562,536,70.43,3.4409,0.9093,0.9822,0.9947,0,1,1,0.0000,0.0000,0.3118,0.6559
v_dogman_1_5,viewpoint,775,755,71.00,1.1913,0.9716,0.9961,1.0000,1,1,1,0.0000,0.6029,0.7617,0.8809
v_dogman_1_6,viewpoint,400,375,67.85,10.0092,0.9075,0.9700,0.9850,0,0,0,0.0000,0.0000,0.0000,0.0000
v_eastsouth_1_2,viewpoint,718,715,67.76,0.2606,0.9958,0.9986,1.0000,1,1,1,0.7394,0.9131,0.9479,0.9739
v_eastsouth_1_3,viewpoint,506,505,59.43,0.2833,0.9960,1.0000,1.0000,1,1,1,0.7167,0.9056,0.9433,0.9717
v_eastsouth_1_4,viewpoint,19,6,57.09,186.9514,0.0000,0.0000,0.0000,0,0,0,0.0000,0.0000,0.0000,0.0000
v_eastsouth_1_5,viewpoint,268,266,65.27,0.4258,0.9925,0.9963,0.9963,1,1,1,0.5742,0.8581,0.9148,0.9574
v_eastsouth_1_6,viewpoint,155,153,62.05,0.5614,0.9871,1.0000,1.0000,1,1,1,0.4386,0.8129,0.8877,0.9439
v_feast_1_2,viewpoint,829,813,69.40,0.3955,0.9807,0.9952,1.0000,1,1,1,0.6045,0.8682,0.9209,0.9605
v_feast_1_3,viewpoint,1200,1155,68.96,0.3759,0.9533,0.9950,0.9992,1,1,1,0.6241,0.8747,0.9248,0.9624
v_feast_1_4,viewpoint,585,574,65.97,0.7377,0.9607,1.0000,1.0000,1,1,1,0.2623,0.7541,0.8525,0.9262
v_feast_1_5,viewpoint,991,965,71.13,0.4062,0.9647,0.9980,1.0000,1,1,1,0.5938,0.8646,0.9188,0.9594
v_feast_1_6,viewpoint,747,734,64.59,0.5821,0.9598,1.0000,1.0000,1,1,1,0.4179,0.8060,0.8836,0.9418
v_fest_1_2,viewpoint,1262,1236,71.77,0.3111,0.9778,0.9929,0.9992,1,1,1,0.6889,0.8963,0.9378,0.9689
v_fest_1_3,viewpoint,984,950,68.63,0.9521,0.9644,0.9929,0.9980,1,1,1,0.0479,0.6826,0.8096,0.9048
v_fest_1_4,viewpoint,1012,977,65.09,0.4298,0.9644,0.9951,0.9980,1,1,1,0.5702,0.8567,0.9140,0.9570
v_fest_1_5,viewpoint,985,958,68.31,0.9650,0.9685,0.9970,0.9990,1,1,1,0.0350,0.6783,0.8070,0.9035
v_fest_1_6,viewpoint,770,742,70.64,1.4785,0.9662,0.9935,0.9987,1,1,1,0.0000,0.5072,0.7043,0.8522
v_gardens_1_2,viewpoint,1046,1030,72.16,0.7084,0.9847,0.9990,1.0000,1,1,1,0.2916,0.7639,0.8583,0.9292
v_gardens_1_3,viewpoint,622,597,66.75,3.4965,0.9389,0.9904,0.9952,0,1,1,0.0000,0.0000,0.3007,0.6503
v_gardens_1_4,viewpoint,1278,1267,69.78,0.7857,0.9890,0.9992,1.0000,1,1,1,0.2143,0.7381,0.8429,0.9214
v_gardens_1_5,viewpoint,694,690,69.28,1.5242,0.9942,1.0000,1.0000,1,1,1,0.0000,0.4919,0.6952,0.8476
v_gardens_1_6,viewpoint,1131,1110,67.83,0.5641,0.9805,0.9965,0.9973,1,1,1,0.4359,0.8120,0.8872,0.9436
v_grace_1_2,viewpoint,757,752,58.08,0.4453,0.9934,0.9987,1.0000,1,1,1,0.5547,0.8516,0.9109,0.9555
v_grace_1_3,viewpoint,696,691,58.91,0.6250,0.9885,0.9986,0.9986,1,1,1,0.3750,0.7917,0.8750,0.9375
v_grace_1_4,viewpoint,596,586,58.35,1.2765,0.9748,0.9966,0.9966,1,1,1,0.0000,0.5745,0.7447,0.8724
v_grace_1_5,viewpoint,466,462,59.93,1.1584,0.9871,1.0000,1.0000,1,1,1,0.0000,0.6139,0.7683,0.8842
v_grace_1_6,viewpoint,343,310,59.54,1.5610,0.9038,0.9825,0.9883,1,1,1,0.0000,0.4797,0.6878,0.8439
v_graffiti_1_2,viewpoint,993,985,73.29,0.2289,0.9930,0.9990,1.0000,1,1,1,0.7711,0.9237,0.9542,0.9771
v_graffiti_1_3,viewpoint,816,807,70.04,1.2100,0.9816,0.9975,1.0000,1,1,1,0.0000,0.5967,0.7580,0.8790
v_graffiti_1_4,viewpoint,732,682,79.69,1.0243,0.8907,0.9809,1.0000,1,1,1,0.0000,0.6586,0.7951,0.8976
v_graffiti_1_5,viewpoint,518,465,79.25,1.2768,0.8880,0.9614,0.9942,1,1,1,0.0000,0.5744,0.7446,0.8723
v_graffiti_1_6,viewpoint,402,310,80.35,2.8405,0.7214,0.8507,0.9527,1,1,1,0.0000,0.0532,0.4319,0.7160
v_home_1_2,viewpoint,614,613,69.45,0.4363,0.9967,1.0000,1.0000,1,1,1,0.5637,0.8546,0.9127,0.9564
v_home_1_3,viewpoint,549,547,67.82,1.2317,0.9927,1.0000,1.0000,1,1,1,0.0000,0.5894,0.7537,0.8768
v_home_1_4,viewpoint,607,605,62.06,0.3601,0.9967,1.0000,1.0000,1,1,1,0.6399,0.8800,0.9280,0.9640
v_home_1_5,viewpoint,514,512,64.06,3.6332,0.9572,0.9942,1.0000,0,1,1,0.0000,0.0000,0.2734,0.6367
v_home_1_6,viewpoint,553,550,62.36,0.5302,0.9964,1.0000,1.0000,1,1,1,0.4698,0.8233,0.8940,0.9470
v_laptop_1_2,viewpoint,866,851,65.19,0.2205,0.9838,0.9954,1.0000,1,1,1,0.7795,0.9265,0.9559,0.9780
v_laptop_1_3,viewpoint,570,560,62.29,0.5426,0.9825,0.9895,0.9982,1,1,1,0.4574,0.8191,0.8915,0.9457
v_laptop_1_4,viewpoint,205,182,63.36,6.7710,0.8683,0.9073,0.9610,0,0,1,0.0000,0.0000,0.0000,0.3229
v_laptop_1_5,viewpoint,9,6,57.11,325.4818,0.0000,0.0000,0.0000,0,0,0,0.0000,0.0000,0.0000,0.0000
v_laptop_1_6,viewpoint,28,11,64.17,365.0585,0.0000,0.0000,0.0000,0,0,0,0.0000,0.0000,0.0000,0.0000
v_london_1_2,viewpoint,1149,1107,71.19,0.1677,0.9643,0.9922,0.9974,1,1,1,0.8323,0.9441,0.9665,0.9832
v_london_1_3,viewpoint,995,981,65.06,0.2625,0.9849,0.9980,1.0000,1,1,1,0.7375,0.9125,0.9475,0.9738
v_london_1_4,viewpoint,887,872,67.19,0.6180,0.9820,0.9955,1.0000,1,1,1,0.3820,0.7940,0.8764,0.9382
v_london_1_5,viewpoint,1142,1117,66.98,0.2688,0.9772,0.9982,0.9991,1,1,1,0.7312,0.9104,0.9462,0.9731
v_london_1_6,viewpoint,1179,1159,66.08,0.2019,0.9830,0.9983,1.0000,1,1,1,0.7981,0.9327,0.9596,0.9798
v_machines_1_2,viewpoint,1201,1181,86.53,0.7831,0.9808,0.9975,0.9992,1,1,1,0.2169,0.7390,0.8434,0.9217
v_machines_1_3,viewpoint,870,817,79.69,3.3766,0.8839,0.9885,1.0000,0,1,1,0.0000,0.0000,0.3247,0.6623
v_machines_1_4,viewpoint,1010,1001,73.71,0.3510,0.9901,0.9990,1.0000,1,1,1,0.6490,0.8830,0.9298,0.9649
v_machines_1_5,viewpoint,757,748,73.66,1.6188,0.9723,0.9987,1.0000,1,1,1,0.0000,0.4604,0.6762,0.8381
v_machines_1_6,viewpoint,900,900,72.57,0.1786,1.0000,1.0000,1.0000,1,1,1,0.8214,0.9405,0.9643,0.9821
v_man_1_2,viewpoint,882,857,73.33,1.8328,0.9728,1.0000,1.0000,1,1,1,0.0000,0.3891,0.6334,0.8167
v_man_1_3,viewpoint,664,634,71.16,3.8678,0.8840,0.9864,0.9985,0,1,1,0.0000,0.0000,0.2264,0.6132
v_man_1_4,viewpoint,609,586,68.09,3.5050,0.8916,0.9688,0.9951,0,1,1,0.0000,0.0000,0.2990,0.6495
v_man_1_5,viewpoint,822,808,70.62,1.9546,0.9720,0.9988,1.0000,1,1,1,0.0000,0.3485,0.6091,0.8045
v_man_1_6,viewpoint,826,804,74.52,1.5131,0.9734,1.0000,1.0000,1,1,1,0.0000,0.4956,0.6974,0.8487
v_maskedman_1_2,viewpoint,605,594,65.97,0.6195,0.9851,0.9983,1.0000,1,1,1,0.3805,0.7935,0.8761,0.9381
v_maskedman_1_3,viewpoint,531,521,61.41,1.5528,0.9642,0.9906,1.0000,1,1,1,0.0000,0.4824,0.6894,0.8447
v_maskedman_1_4,viewpoint,593,589,55.81,2.6371,0.9916,0.9983,1.0000,1,1,1,0.0000,0.1210,0.4726,0.7363
v_maskedman_1_5,viewpoint,632,625,56.57,2.0134,0.9794,0.9921,0.9984,1,1,1,0.0000,0.3289,0.5973,0.7987
v_maskedman_1_6,viewpoint,247,233,60.62,3.0581,0.8907,0.9838,1.0000,0,1,1,0.0000,0.0000,0.3884,0.6942
v_pomegranate_1_2,viewpoint,958,947,67.42,0.5266,0.9854,0.9979,1.0000,1,1,1,0.4734,0.8245,0.8947,0.9473
v_pomegranate_1_3,viewpoint,861,842,62.70,1.4219,0.9663,0.9930,0.9988,1,1,1,0.0000,0.5260,0.7156,0.8578
v_pomegranate_1_4,viewpoint,746,738,60.87,0.5550,0.9826,1.0000,1.0000,1,1,1,0.4450,0.8150,0.8890,0.9445
v_pomegranate_1_5,viewpoint,853,841,65.82,0.6381,0.9836,1.0000,1.0000,1,1,1,0.3619,0.7873,0.8724,0.9362
v_pomegranate_1_6,viewpoint,885,874,64.27,0.1550,0.9853,0.9989,1.0000,1,1,1,0.8450,0.9483,0.9690,0.9845
v_posters_1_2,viewpoint,783,771,87.67,115.2066,0.0000,0.0000,0.0000,0,0,0,0.0000,0.0000,0.0000,0.0000
v_posters_1_3,viewpoint,996,982,87.32,120.7963,0.0000,0.0000,0.0000,0,0,0,0.0000,0.0000,0.0000,0.0000
v_posters_1_4,viewpoint,927,924,85.76,112.4302,0.0000,0.0000,0.0000,0,0,0,0.0000,0.0000,0.0000,0.0000
v_posters_1_5,viewpoint,801,784,86.74,124.5356,0.0000,0.0000,0.0000,0,0,0,0.0000,0.0000,0.0000,0.0000
v_posters_1_6,viewpoint,746,721,88.52,147.6329,0.0000,0.0000,0.0000,0,0,0,0.0000,0.0000,0.0000,0.0000
v_samples_1_2,viewpoint,1130,1122,100.20,67.9795,0.0000,0.0000,0.0000,0,0,0,0.0000,0.0000,0.0000,0.0000
v_samples_1_3,viewpoint,1206,1195,104.87,72.4170,0.0000,0.0000,0.0008,0,0,0,0.0000,0.0000,0.0000,0.0000
v_samples_1_4,viewpoint,1045,1042,96.97,71.9468,0.0000,0.0000,0.0067,0,0,0,0.0000,0.0000,0.0000,0.0000
v_samples_1_5,viewpoint,1111,1104,96.52,80.6232,0.0000,0.0000,0.0000,0,0,0,0.0000,0.0000,0.0000,0.0000
v_samples_1_6,viewpoint,974,969,95.29,67.2294,0.0000,0.0031,0.0133,0,0,0,0.0000,0.0000,0.0000,0.0000
v_soldiers_1_2,viewpoint,770,754,67.22,0.5226,0.9727,0.9935,1.0000,1,1,1,0.4774,0.8258,0.8955,0.9477
v_soldiers_1_3,viewpoint,552,544,64.57,1.3057,0.9764,0.9964,0.9982,1,1,1,0.0000,0.5648,0.7389,0.8694
v_soldiers_1_4,viewpoint,424,422,62.96,0.4752,0.9953,1.0000,1.0000,1,1,1,0.5248,0.8416,0.9050,0.9525
v_soldiers_1_5,viewpoint,385,373,63.58,1.2492,0.9662,0.9974,1.0000,1,1,1,0.0000,0.5836,0.7502,0.8751
v_soldiers_1_6,viewpoint,635,623,64.91,97.2115,0.0000,0.0000,0.0000,0,0,0,0.0000,0.0000,0.0000,0.0000
v_strand_1_2,viewpoint,1111,1109,73.43,0.1203,0.9991,1.0000,1.0000,1,1,1,0.8797,0.9599,0.9759,0.9880
v_strand_1_3,viewpoint,856,815,65.05,0.7394,0.9159,0.9953,0.9988,1,1,1,0.2606,0.7535,0.8521,0.9261
v_strand_1_4,viewpoint,855,826,68.32,2.4002,0.9485,0.9930,0.9942,1,1,1,0.0000,0.1999,0.5200,0.7600
v_strand_1_5,viewpoint,839,828,71.74,2.2614,0.9511,1.0000,1.0000,1,1,1,0.0000,0.2462,0.5477,0.7739
v_strand_1_6,viewpoint,708,663,77.35,4.3013,0.8489,0.9633,0.9859,0,1,1,0.0000,0.0000,0.1397,0.5699
v_sunseason_1_2,viewpoint,1546,1528,72.50,0.1763,0.9884,0.9987,1.0000,1,1,1,0.8237,0.9412,0.9647,0.9824
v_sunseason_1_3,viewpoint,1289,1276,64.49,0.1882,0.9907,0.9984,1.0000,1,1,1,0.8118,0.9373,0.9624,0.9812
v_sunseason_1_4,viewpoint,855,841,62.30,0.2381,0.9860,0.9977,1.0000,1,1,1,0.7619,0.9206,0.9524,0.9762
v_sunseason_1_5,viewpoint,743,732,69.98,0.8175,0.9812,0.9973,1.0000,1,1,1,0.1825,0.7275,0.8365,0.9183
v_sunseason_1_6,viewpoint,565,548,71.01,1.2900,0.9681,0.9947,1.0000,1,1,1,0.0000,0.5700,0.7420,0.8710
v_tabletop_1_2,viewpoint,1097,1076,70.88,0.2972,0.9790,0.9973,1.0000,1,1,1,0.7028,0.9009,0.9406,0.9703
v_tabletop_1_3,viewpoint,752,741,69.46,0.5378,0.9787,1.0000,1.0000,1,1,1,0.4622,0.8207,0.8924,0.9462
v_tabletop_1_4,viewpoint,691,677,68.65,0.4551,0.9768,0.9942,1.0000,1,1,1,0.5449,0.8483,0.9090,0.9545
v_tabletop_1_5,viewpoint,730,717,74.32,0.2689,0.9781,1.0000,1.0000,1,1,1,0.7311,0.9104,0.9462,0.9731
v_tabletop_1_6,viewpoint,738,716,74.78,0.3059,0.9702,1.0000,1.0000,1,1,1,0.6941,0.8980,0.9388,0.9694
v_tempera_1_2,viewpoint,806,803,71.58,0.1689,0.9950,1.0000,1.0000,1,1,1,0.8311,0.9437,0.9662,0.9831
v_tempera_1_3,viewpoint,848,846,71.14,0.4245,0.9976,1.0000,1.0000,1,1,1,0.5755,0.8585,0.9151,0.9576
v_tempera_1_4,viewpoint,681,680,76.47,0.4435,0.9985,1.0000,1.0000,1,1,1,0.5565,0.8522,0.9113,0.9557
v_tempera_1_5,viewpoint,613,613,70.37,0.4984,1.0000,1.0000,1.0000,1,1,1,0.5016,0.8339,0.9003,0.9502
v_tempera_1_6,viewpoint,415,408,64.89,0.6246,0.9855,1.0000,1.0000,1,1,1,0.3754,0.7918,0.8751,0.9375
v_there_1_2,viewpoint,492,492,56.49,0.2460,1.0000,1.0000,1.0000,1,1,1,0.7540,0.9180,0.9508,0.9754
v_there_1_3,viewpoint,206,203,59.43,0.5319,0.9854,0.9951,1.0000,1,1,1,0.4681,0.8227,0.8936,0.9468
v_there_1_4,viewpoint,140,135,55.46,1.0293,0.9571,1.0000,1.0000,1,1,1,0.0000,0.6569,0.7941,0.8971
v_there_1_5,viewpoint,15,6,57.20,302.7286,0.0000,0.0000,0.0000,0,0,0,0.0000,0.0000,0.0000,0.0000
v_there_1_6,viewpoint,7,4,50.86,205.1734,0.0000,0.0000,0.0000,0,0,0,0.0000,0.0000,0.0000,0.0000
v_underground_1_2,viewpoint,1287,1273,70.11,0.0877,0.9891,1.0000,1.0000,1,1,1,0.9123,0.9708,0.9825,0.9912
v_underground_1_3,viewpoint,1062,1051,63.44,0.1927,0.9887,1.0000,1.0000,1,1,1,0.8073,0.9358,0.9615,0.9807
v_underground_1_4,viewpoint,807,802,66.12,0.2718,0.9888,0.9988,1.0000,1,1,1,0.7282,0.9094,0.9456,0.9728
v_underground_1_5,viewpoint,609,591,59.08,1.3542,0.9672,0.9885,0.9984,1,1,1,0.0000,0.5486,0.7292,0.8646
v_underground_1_6,viewpoint,390,354,60.98,4.7388,0.8974,0.9795,0.9897,0,1,1,0.0000,0.0000,0.0522,0.5261
v_vitro_1_2,viewpoint,1166,1157,74.08,0.1231,0.9906,1.0000,1.0000,1,1,1,0.8769,0.9590,0.9754,0.9877
v_vitro_1_3,viewpoint,1033,1025,68.30,0.3264,0.9903,0.9990,1.0000,1,1,1,0.6736,0.8912,0.9347,0.9674
v_vitro_1_4,viewpoint,842,840,79.72,0.2338,0.9952,1.0000,1.0000,1,1,1,0.7662,0.9221,0.9532,0.9766
v_vitro_1_5,viewpoint,1062,1044,69.12,0.2644,0.9812,0.9991,1.0000,1,1,1,0.7356,0.9119,0.9471,0.9736
v_vitro_1_6,viewpoint,913,907,68.31,0.3945,0.9923,1.0000,1.0000,1,1,1,0.6055,0.8685,0.9211,0.9605
v_wall_1_2,viewpoint,1158,1143,68.84,0.3363,0.9853,0.9983,1.0000,1,1,1,0.6637,0.8879,0.9327,0.9664
v_wall_1_3,viewpoint,984,943,60.44,1.1195,0.9553,0.9888,0.9980,1,1,1,0.0000,0.6268,0.7761,0.8881
v_wall_1_4,viewpoint,1129,1094,59.20,0.3575,0.9655,0.9876,0.9885,1,1,1,0.6425,0.8808,0.9285,0.9642
v_wall_1_5,viewpoint,872,828,59.81,1.1217,0.9438,0.9748,0.9851,1,1,1,0.0000,0.6261,0.7757,0.8878
v_wall_1_6,viewpoint,849,792,60.45,2.9198,0.9187,0.9800,0.9965,1,1,1,0.0000,0.0267,0.4160,0.7080
v_wapping_1_2,viewpoint,845,839,69.40,0.3751,0.9941,1.0000,1.0000,1,1,1,0.6249,0.8750,0.9250,0.9625
v_wapping_1_3,viewpoint,584,575,64.38,0.8720,0.9812,1.0000,1.0000,1,1,1,0.1280,0.7093,0.8256,0.9128
v_wapping_1_4,viewpoint,635,627,66.16,1.1113,0.9858,1.0000,1.0000,1,1,1,0.0000,0.6296,0.7777,0.8889
v_wapping_1_5,viewpoint,408,398,63.84,1.4850,0.9755,0.9951,0.9975,1,1,1,0.0000,0.5050,0.7030,0.8515
v_wapping_1_6,viewpoint,275,259,64.15,3.6990,0.8800,0.9527,0.9818,0,1,1,0.0000,0.0000,0.2602,0.6301
v_war_1_2,viewpoint,895,869,73.70,1.2197,0.9575,0.9989,1.0000,1,1,1,0.0000,0.5934,0.7561,0.8780
v_war_1_3,viewpoint,701,680,69.15,1.9441,0.9287,0.9986,1.0000,1,1,1,0.0000,0.3520,0.6112,0.8056
v_war_1_4,viewpoint,1114,1105,72.19,0.3055,0.9901,0.9982,1.0000,1,1,1,0.6945,0.8982,0.9389,0.9694
v_war_1_5,viewpoint,1123,1115,71.75,0.4282,0.9911,1.0000,1.0000,1,1,1,0.5718,0.8573,0.9144,0.9572
v_war_1_6,viewpoint,704,679,75.76,1.4369,0.9276,0.9986,1.0000,1,1,1,0.0000,0.5210,0.7126,0.8563
v_weapons_1_2,viewpoint,1058,1053,75.39,0.4629,0.9943,0.9991,1.0000,1,1,1,0.5371,0.8457,0.9074,0.9537
v_weapons_1_3,viewpoint,838,834,72.72,0.7236,0.9952,1.0000,1.0000,1,1,1,0.2764,0.7588,0.8553,0.9276
v_weapons_1_4,viewpoint,929,921,67.87,0.5943,0.9882,0.9989,1.0000,1,1,1,0.4057,0.8019,0.8811,0.9406
v_weapons_1_5,viewpoint,1055,1050,72.40,1.0765,0.9962,0.9991,1.0000,1,1,1,0.0000,0.6412,0.7847,0.8924
v_weapons_1_6,viewpoint,962,961,78.48,0.9640,0.9938,1.0000,1.0000,1,1,1,0.0360,0.6787,0.8072,0.9036
v_woman_1_2,viewpoint,507,502,74.09,46.2569,0.0000,0.0000,0.0000,0,0,0,0.0000,0.0000,0.0000,0.0000
v_woman_1_3,viewpoint,649,634,72.37,49.4084,0.0000,0.0000,0.0000,0,0,0,0.0000,0.0000,0.0000,0.0000
v_woman_1_4,viewpoint,549,541,70.97,49.8505,0.0000,0.0000,0.0000,0,0,0,0.0000,0.0000,0.0000,0.0000
v_woman_1_5,viewpoint,382,378,69.76,44.4240,0.0000,0.0000,0.0000,0,0,0,0.0000,0.0000,0.0000,0.0000
v_woman_1_6,viewpoint,467,452,71.88,49.3887,0.0000,0.0000,0.0000,0,0,0,0.0000,0.0000,0.0000,0.0000
v_wormhole_1_2,viewpoint,789,781,69.52,0.3646,0.9911,1.0000,1.0000,1,1,1,0.6354,0.8785,0.9271,0.9635
v_wormhole_1_3,viewpoint,996,990,66.90,0.4213,0.9920,1.0000,1.0000,1,1,1,0.5787,0.8596,0.9157,0.9579
v_wormhole_1_4,viewpoint,998,985,66.72,0.3845,0.9870,0.9980,1.0000,1,1,1,0.6155,0.8718,0.9231,0.9616
v_wormhole_1_5,viewpoint,686,666,67.89,3.0938,0.9606,0.9927,0.9971,0,1,1,0.0000,0.0000,0.3812,0.6906
v_wormhole_1_6,viewpoint,412,389,67.52,1.4625,0.9369,0.9903,0.9951,1,1,1,0.0000,0.5125,0.7075,0.8537
v_wounded_1_2,viewpoint,574,569,69.15,0.5634,0.9895,0.9965,0.9965,1,1,1,0.4366,0.8122,0.8873,0.9437
v_wounded_1_3,viewpoint,410,394,66.75,9.5131,0.9439,0.9707,0.9732,0,0,0,0.0000,0.0000,0.0000,0.0487
v_wounded_1_4,viewpoint,230,219,64.41,27.3301,0.9348,0.9826,0.9870,0,0,0,0.0000,0.0000,0.0000,0.0000
v_wounded_1_5,viewpoint,407,386,67.41,1.6108,0.9337,0.9754,0.9951,1,1,1,0.0000,0.4631,0.6778,0.8389
v_wounded_1_6,viewpoint,303,276,62.42,3.7394,0.9109,0.9670,0.9769,0,1,1,0.0000,0.0000,0.2521,0.6261
v_yard_1_2,viewpoint,1230,1214,77.60,0.2544,0.9870,0.9984,1.0000,1,1,1,0.7456,0.9152,0.9491,0.9746
v_yard_1_3,viewpoint,725,676,71.07,1.2739,0.9048,0.9890,0.9986,1,1,1,0.0000,0.5754,0.7452,0.8726
v_yard_1_4,viewpoint,1038,1027,75.30,0.4343,0.9894,0.9990,1.0000,1,1,1,0.5657,0.8552,0.9131,0.9566
v_yard_1_5,viewpoint,850,821,75.32,0.6985,0.9671,1.0000,1.0000,1,1,1,0.3015,0.7672,0.8603,0.9302
v_yard_1_6,viewpoint,652,581,79.80,1.1387,0.8850,0.9893,0.9985,1,1,1,0.0000,0.6204,0.7723,0.8861
v_yuri_1_2,viewpoint,596,594,70.54,0.5539,0.9950,0.9983,1.0000,1,1,1,0.4461,0.8154,0.8892,0.9446
v_yuri_1_3,viewpoint,482,472,70.55,2.1812,0.9751,0.9938,0.9938,1,1,1,0.0000,0.2729,0.5638,0.7819
v_yuri_1_4,viewpoint,399,377,71.07,54.3922,0.8847,0.9724,0.9950,0,0,0,0.0000,0.0000,0.0000,0.0000
v_yuri_1_5,viewpoint,521,516,71.48,1.2643,0.9846,1.0000,1.0000,1,1,1,0.0000,0.5786,0.7471,0.8736
v_yuri_1_6,viewpoint,428,416,70.39,8.6478,0.9533,0.9907,1.0000,0,0,0,0.0000,0.0000,0.0000,0.1352
