PairName,SeqType,NumMatches,Inliers,TimeMS,H_Error,MMA@3,MMA@5,MMA@7,MHA_Acc@3,MHA_Acc@5,MHA_Acc@7,AUC@1,AUC@3,AUC@5,AUC@10
i_ajuntament_1_2,illumination,70,66,178.98,0.5143,0.9429,0.9429,0.9714,1,1,1,0.4857,0.8286,0.8971,0.9486
i_ajuntament_1_3,illumination,13,4,36.54,315.6082,0.3077,0.3077,0.3077,0,0,0,0.0000,0.0000,0.0000,0.0000
i_ajuntament_1_4,illumination,4,0,32.87,inf,0.2500,0.2500,0.2500,0,0,0,0.0000,0.0000,0.0000,0.0000
i_ajuntament_1_5,illumination,6,4,31.94,307.2767,0.1667,0.1667,0.1667,0,0,0,0.0000,0.0000,0.0000,0.0000
i_ajuntament_1_6,illumination,9,4,29.40,435.4901,0.1111,0.1111,0.1111,0,0,0,0.0000,0.0000,0.0000,0.0000
i_autannes_1_2,illumination,26,25,29.62,1.1610,0.9615,1.0000,1.0000,1,1,1,0.0000,0.6130,0.7678,0.8839
i_autannes_1_3,illumination,21,15,29.64,6.1668,0.7143,0.7143,0.7143,0,0,1,0.0000,0.0000,0.0000,0.3833
i_autannes_1_4,illumination,11,5,30.93,5.6466,0.3636,0.4545,0.4545,0,0,1,0.0000,0.0000,0.0000,0.4353
i_autannes_1_5,illumination,7,4,30.65,349.0529,0.4286,0.4286,0.4286,0,0,0,0.0000,0.0000,0.0000,0.0000
i_autannes_1_6,illumination,13,10,28.28,3.7617,0.7692,0.7692,0.7692,0,1,1,0.0000,0.0000,0.2477,0.6238
i_bologna_1_2,illumination,17,15,23.04,2.3518,0.8824,0.8824,0.8824,1,1,1,0.0000,0.2161,0.5296,0.7648
i_bologna_1_3,illumination,18,15,23.80,1.1037,0.8333,0.8333,0.8333,1,1,1,0.0000,0.6321,0.7793,0.8896
i_bologna_1_4,illumination,15,11,23.98,1.3911,0.7333,0.7333,0.7333,1,1,1,0.0000,0.5363,0.7218,0.8609
i_bologna_1_5,illumination,11,9,25.23,4.3951,0.8182,0.8182,0.8182,0,1,1,0.0000,0.0000,0.1210,0.5605
i_bologna_1_6,illumination,17,9,27.33,13.2368,0.5294,0.5294,0.5294,0,0,0,0.0000,0.0000,0.0000,0.0000
i_books_1_2,illumination,46,45,29.57,0.1862,0.9783,0.9783,0.9783,1,1,1,0.8138,0.9379,0.9628,0.9814
i_books_1_3,illumination,74,66,34.60,0.7178,0.8919,0.9054,0.9189,1,1,1,0.2822,0.7607,0.8564,0.9282
i_books_1_4,illumination,82,72,31.68,0.1396,0.8780,0.8902,0.8902,1,1,1,0.8604,0.9535,0.9721,0.9860
i_books_1_5,illumination,85,77,31.02,0.1179,0.9059,0.9059,0.9059,1,1,1,0.8821,0.9607,0.9764,0.9882
i_books_1_6,illumination,69,63,30.08,0.3699,0.9130,0.9130,0.9130,1,1,1,0.6301,0.8767,0.9260,0.9630
i_boutique_1_2,illumination,158,141,59.86,0.3816,0.8861,0.8924,0.8987,1,1,1,0.6184,0.8728,0.9237,0.9618
i_boutique_1_3,illumination,76,49,69.32,0.7311,0.6447,0.6447,0.6711,1,1,1,0.2689,0.7563,0.8538,0.9269
i_boutique_1_4,illumination,73,52,59.91,0.6933,0.7123,0.7260,0.7397,1,1,1,0.3067,0.7689,0.8613,0.9307
i_boutique_1_5,illumination,37,5,64.51,433.8800,0.1622,0.1622,0.1622,0,0,0,0.0000,0.0000,0.0000,0.0000
i_boutique_1_6,illumination,41,7,62.31,1.1672,0.1707,0.1707,0.1707,1,1,1,0.0000,0.6109,0.7666,0.8833
i_bridger_1_2,illumination,50,39,33.28,0.9836,0.7600,0.8000,0.8200,1,1,1,0.0164,0.6721,0.8033,0.9016
i_bridger_1_3,illumination,44,35,30.57,1.0691,0.7955,0.7955,0.7955,1,1,1,0.0000,0.6436,0.7862,0.8931
i_bridger_1_4,illumination,40,22,32.12,1.3325,0.5500,0.5500,0.5500,1,1,1,0.0000,0.5558,0.7335,0.8667
i_bridger_1_5,illumination,22,15,23.80,1.0671,0.6818,0.6818,0.6818,1,1,1,0.0000,0.6443,0.7866,0.8933
i_bridger_1_6,illumination,2,0,21.72,inf,0.5000,0.5000,0.5000,0,0,0,0.0000,0.0000,0.0000,0.0000
i_brooklyn_1_2,illumination,61,45,39.18,0.6395,0.7377,0.7377,0.7541,1,1,1,0.3605,0.7868,0.8721,0.9361
i_brooklyn_1_3,illumination,79,70,39.14,1.3865,0.8987,0.8987,0.8987,1,1,1,0.0000,0.5378,0.7227,0.8613
i_brooklyn_1_4,illumination,29,14,33.27,0.9505,0.4483,0.4828,0.5172,1,1,1,0.0495,0.6832,0.8099,0.9050
i_brooklyn_1_5,illumination,81,64,37.56,1.5770,0.7778,0.8025,0.8272,1,1,1,0.0000,0.4743,0.6846,0.8423
i_brooklyn_1_6,illumination,55,32,36.10,1.4853,0.5636,0.6182,0.6364,1,1,1,0.0000,0.5049,0.7029,0.8515
i_castle_1_2,illumination,27,6,40.68,34.4673,0.2222,0.2222,0.2222,0,0,0,0.0000,0.0000,0.0000,0.0000
i_castle_1_3,illumination,44,26,37.37,1.8132,0.5682,0.5909,0.5909,1,1,1,0.0000,0.3956,0.6374,0.8187
i_castle_1_4,illumination,27,12,33.10,0.5829,0.4444,0.4444,0.4444,1,1,1,0.4171,0.8057,0.8834,0.9417
i_castle_1_5,illumination,22,5,32.95,10.9757,0.1818,0.1818,0.1818,0,0,0,0.0000,0.0000,0.0000,0.0000
i_castle_1_6,illumination,19,4,36.75,239.6485,0.1579,0.2105,0.2105,0,0,0,0.0000,0.0000,0.0000,0.0000
i_chestnuts_1_2,illumination,110,104,44.93,0.4159,0.9455,0.9455,0.9455,1,1,1,0.5841,0.8614,0.9168,0.9584
i_chestnuts_1_3,illumination,129,122,44.36,0.1836,0.9457,0.9457,0.9457,1,1,1,0.8164,0.9388,0.9633,0.9816
i_chestnuts_1_4,illumination,122,114,47.99,0.3895,0.9344,0.9344,0.9426,1,1,1,0.6105,0.8702,0.9221,0.9611
i_chestnuts_1_5,illumination,110,99,42.33,0.1528,0.9000,0.9000,0.9000,1,1,1,0.8472,0.9491,0.9694,0.9847
i_chestnuts_1_6,illumination,64,58,41.01,0.5429,0.9062,0.9062,0.9062,1,1,1,0.4571,0.8190,0.8914,0.9457
i_crownday_1_2,illumination,18,7,37.23,28.8190,0.3333,0.3333,0.3889,0,0,0,0.0000,0.0000,0.0000,0.0000
i_crownday_1_3,illumination,29,18,35.00,4.6437,0.5517,0.6207,0.6552,0,1,1,0.0000,0.0000,0.0713,0.5356
i_crownday_1_4,illumination,33,25,33.70,1.7857,0.7576,0.7576,0.7879,1,1,1,0.0000,0.4048,0.6429,0.8214
i_crownday_1_5,illumination,43,42,52.28,0.5016,0.9767,0.9767,1.0000,1,1,1,0.4984,0.8328,0.8997,0.9498
i_crownday_1_6,illumination,12,4,33.12,79.0383,0.2500,0.2500,0.3333,0,0,0,0.0000,0.0000,0.0000,0.0000
i_dome_1_2,illumination,77,66,34.68,0.1460,0.8571,0.8571,0.8571,1,1,1,0.8540,0.9513,0.9708,0.9854
i_dome_1_3,illumination,28,10,36.94,3.9939,0.3571,0.3571,0.3571,0,1,1,0.0000,0.0000,0.2012,0.6006
i_dome_1_4,illumination,21,6,36.70,225.3217,0.2381,0.2381,0.2381,0,0,0,0.0000,0.0000,0.0000,0.0000
i_dome_1_5,illumination,26,10,36.79,1.9218,0.3846,0.3846,0.3846,1,1,1,0.0000,0.3594,0.6156,0.8078
i_dome_1_6,illumination,34,21,35.87,1.3092,0.6176,0.6176,0.6176,1,1,1,0.0000,0.5636,0.7382,0.8691
i_duda_1_2,illumination,67,61,28.40,0.4180,0.9254,0.9254,0.9254,1,1,1,0.5820,0.8607,0.9164,0.9582
i_duda_1_3,illumination,47,42,27.14,0.6179,0.8936,0.8936,0.8936,1,1,1,0.3821,0.7940,0.8764,0.9382
i_duda_1_4,illumination,32,25,26.38,1.2973,0.7812,0.8125,0.8125,1,1,1,0.0000,0.5676,0.7405,0.8703
i_duda_1_5,illumination,27,21,25.99,0.5225,0.7778,0.8519,0.8519,1,1,1,0.4775,0.8258,0.8955,0.9477
i_duda_1_6,illumination,12,6,25.24,3.8603,0.5000,0.5833,0.5833,0,1,1,0.0000,0.0000,0.2279,0.6140
i_fenis_1_2,illumination,74,63,36.02,0.5358,0.8514,0.8514,0.8514,1,1,1,0.4642,0.8214,0.8928,0.9464
i_fenis_1_3,illumination,46,24,32.52,0.4147,0.5217,0.5217,0.5435,1,1,1,0.5853,0.8618,0.9171,0.9585
i_fenis_1_4,illumination,23,8,31.02,539.3239,0.3043,0.3043,0.3478,0,0,0,0.0000,0.0000,0.0000,0.0000
i_fenis_1_5,illumination,23,7,28.44,118.3753,0.2609,0.2609,0.2609,0,0,0,0.0000,0.0000,0.0000,0.0000
i_fenis_1_6,illumination,20,8,28.37,183.6562,0.3000,0.3500,0.3500,0,0,0,0.0000,0.0000,0.0000,0.0000
i_fog_1_2,illumination,62,52,28.66,0.3069,0.8387,0.8548,0.8548,1,1,1,0.6931,0.8977,0.9386,0.9693
i_fog_1_3,illumination,37,28,25.99,0.2146,0.7568,0.7568,0.7838,1,1,1,0.7854,0.9285,0.9571,0.9785
i_fog_1_4,illumination,34,29,25.00,0.1270,0.8529,0.8824,0.8824,1,1,1,0.8730,0.9577,0.9746,0.9873
i_fog_1_5,illumination,27,21,24.31,1.0964,0.7778,0.7778,0.7778,1,1,1,0.0000,0.6345,0.7807,0.8904
i_fog_1_6,illumination,28,20,23.97,1.3806,0.7143,0.7143,0.7143,1,1,1,0.0000,0.5398,0.7239,0.8619
i_fruits_1_2,illumination,100,99,40.94,0.3601,0.9900,1.0000,1.0000,1,1,1,0.6399,0.8800,0.9280,0.9640
i_fruits_1_3,illumination,82,75,39.84,0.3248,0.9146,0.9146,0.9146,1,1,1,0.6752,0.8917,0.9350,0.9675
i_fruits_1_4,illumination,73,65,39.70,0.2706,0.8904,0.9041,0.9041,1,1,1,0.7294,0.9098,0.9459,0.9729
i_fruits_1_5,illumination,65,58,41.26,0.3356,0.8769,0.9077,0.9077,1,1,1,0.6644,0.8881,0.9329,0.9664
i_fruits_1_6,illumination,72,62,52.55,0.3786,0.8472,0.9167,0.9167,1,1,1,0.6214,0.8738,0.9243,0.9621
i_gonnenberg_1_2,illumination,123,116,33.27,1.0861,0.9431,0.9512,0.9512,1,1,1,0.0000,0.6380,0.7828,0.8914
i_gonnenberg_1_3,illumination,111,106,33.36,0.3578,0.9550,0.9550,0.9550,1,1,1,0.6422,0.8807,0.9284,0.9642
i_gonnenberg_1_4,illumination,90,82,32.51,0.6607,0.9111,0.9111,0.9111,1,1,1,0.3393,0.7798,0.8679,0.9339
i_gonnenberg_1_5,illumination,87,85,29.97,0.3427,0.9770,0.9770,0.9770,1,1,1,0.6573,0.8858,0.9315,0.9657
i_gonnenberg_1_6,illumination,119,110,32.56,0.3279,0.9244,0.9244,0.9328,1,1,1,0.6721,0.8907,0.9344,0.9672
i_greenhouse_1_2,illumination,59,44,55.46,0.3263,0.7458,0.7627,0.7627,1,1,1,0.6737,0.8912,0.9347,0.9674
i_greenhouse_1_3,illumination,94,74,62.78,0.3262,0.7872,0.7872,0.7872,1,1,1,0.6738,0.8913,0.9348,0.9674
i_greenhouse_1_4,illumination,85,58,64.43,0.5369,0.6824,0.6941,0.6941,1,1,1,0.4631,0.8210,0.8926,0.9463
i_greenhouse_1_5,illumination,66,46,64.16,0.5791,0.6970,0.6970,0.6970,1,1,1,0.4209,0.8070,0.8842,0.9421
i_greenhouse_1_6,illumination,65,44,67.55,1.5147,0.6462,0.6769,0.7077,1,1,1,0.0000,0.4951,0.6971,0.8485
i_greentea_1_2,illumination,130,118,44.09,0.0959,0.9077,0.9077,0.9077,1,1,1,0.9041,0.9680,0.9808,0.9904
i_greentea_1_3,illumination,157,147,51.24,0.2415,0.9363,0.9363,0.9363,1,1,1,0.7585,0.9195,0.9517,0.9759
i_greentea_1_4,illumination,178,169,49.98,0.0736,0.9494,0.9494,0.9494,1,1,1,0.9264,0.9755,0.9853,0.9926
i_greentea_1_5,illumination,175,165,45.02,0.2101,0.9429,0.9429,0.9429,1,1,1,0.7899,0.9300,0.9580,0.9790
i_greentea_1_6,illumination,118,108,40.02,0.3187,0.9153,0.9237,0.9237,1,1,1,0.6813,0.8938,0.9363,0.9681
i_indiana_1_2,illumination,47,36,30.95,0.5210,0.7660,0.7872,0.7872,1,1,1,0.4790,0.8263,0.8958,0.9479
i_indiana_1_3,illumination,41,24,30.37,0.5181,0.5854,0.6341,0.6585,1,1,1,0.4819,0.8273,0.8964,0.9482
i_indiana_1_4,illumination,31,9,33.00,10.4534,0.2903,0.3226,0.3226,0,0,0,0.0000,0.0000,0.0000,0.0000
i_indiana_1_5,illumination,25,8,33.18,4.7259,0.3200,0.3200,0.3200,0,1,1,0.0000,0.0000,0.0548,0.5274
i_indiana_1_6,illumination,26,9,33.87,0.9429,0.3462,0.3462,0.3462,1,1,1,0.0571,0.6857,0.8114,0.9057
i_kions_1_2,illumination,36,16,42.19,2.4301,0.4167,0.4722,0.4722,1,1,1,0.0000,0.1900,0.5140,0.7570
i_kions_1_3,illumination,23,5,40.55,59.4350,0.1739,0.2174,0.2174,0,0,0,0.0000,0.0000,0.0000,0.0000
i_kions_1_4,illumination,20,6,32.80,23.3913,0.3000,0.3000,0.3000,0,0,0,0.0000,0.0000,0.0000,0.0000
i_kions_1_5,illumination,21,5,32.11,360.4506,0.1905,0.1905,0.1905,0,0,0,0.0000,0.0000,0.0000,0.0000
i_kions_1_6,illumination,29,9,40.25,9.1341,0.2759,0.2759,0.3103,0,0,0,0.0000,0.0000,0.0000,0.0866
i_ktirio_1_2,illumination,99,89,38.85,0.4748,0.8990,0.9091,0.9091,1,1,1,0.5252,0.8417,0.9050,0.9525
i_ktirio_1_3,illumination,29,14,38.06,0.5800,0.4828,0.4828,0.4828,1,1,1,0.4200,0.8067,0.8840,0.9420
i_ktirio_1_4,illumination,19,6,35.42,155.0551,0.3158,0.3158,0.3684,0,0,0,0.0000,0.0000,0.0000,0.0000
i_ktirio_1_5,illumination,34,17,37.00,0.5202,0.5000,0.5000,0.5000,1,1,1,0.4798,0.8266,0.8960,0.9480
i_ktirio_1_6,illumination,20,5,36.36,44.1214,0.1500,0.1500,0.1500,0,0,0,0.0000,0.0000,0.0000,0.0000
i_kurhaus_1_2,illumination,127,120,38.77,0.1619,0.9449,0.9449,0.9528,1,1,1,0.8381,0.9460,0.9676,0.9838
i_kurhaus_1_3,illumination,107,93,39.08,0.3883,0.8692,0.8972,0.9065,1,1,1,0.6117,0.8706,0.9223,0.9612
i_kurhaus_1_4,illumination,84,71,37.10,0.4330,0.8452,0.8452,0.8452,1,1,1,0.5670,0.8557,0.9134,0.9567
i_kurhaus_1_5,illumination,68,54,37.67,1.4335,0.8088,0.8088,0.8088,1,1,1,0.0000,0.5222,0.7133,0.8566
i_kurhaus_1_6,illumination,64,44,38.04,0.6609,0.6875,0.6875,0.6875,1,1,1,0.3391,0.7797,0.8678,0.9339
i_leuven_1_2,illumination,73,69,32.76,1.0329,0.9452,0.9452,0.9589,1,1,1,0.0000,0.6557,0.7934,0.8967
i_leuven_1_3,illumination,61,53,30.17,0.9267,0.8689,0.8852,0.9016,1,1,1,0.0733,0.6911,0.8147,0.9073
i_leuven_1_4,illumination,48,43,30.95,1.9331,0.8958,0.8958,0.8958,1,1,1,0.0000,0.3556,0.6134,0.8067
i_leuven_1_5,illumination,32,27,35.33,2.4289,0.8125,0.8438,0.8438,1,1,1,0.0000,0.1904,0.5142,0.7571
i_leuven_1_6,illumination,25,16,36.03,5.6739,0.5600,0.6400,0.6400,0,0,1,0.0000,0.0000,0.0000,0.4326
i_lionday_1_2,illumination,18,5,36.45,654.8269,0.2778,0.2778,0.3333,0,0,0,0.0000,0.0000,0.0000,0.0000
i_lionday_1_3,illumination,27,13,38.31,2.1010,0.4815,0.5185,0.5185,1,1,1,0.0000,0.2997,0.5798,0.7899
i_lionday_1_4,illumination,11,5,32.86,476.3660,0.1818,0.2727,0.2727,0,0,0,0.0000,0.0000,0.0000,0.0000
i_lionday_1_5,illumination,18,6,52.45,12.0237,0.3333,0.3333,0.3889,0,0,0,0.0000,0.0000,0.0000,0.0000
i_lionday_1_6,illumination,25,16,40.40,5.1094,0.6400,0.6400,0.7200,0,0,1,0.0000,0.0000,0.0000,0.4891
i_lionnight_1_2,illumination,58,37,91.43,1.1904,0.6379,0.6552,0.6552,1,1,1,0.0000,0.6032,0.7619,0.8810
i_lionnight_1_3,illumination,33,11,85.59,1.2780,0.3333,0.3636,0.3636,1,1,1,0.0000,0.5740,0.7444,0.8722
i_lionnight_1_4,illumination,97,77,90.35,0.9651,0.7938,0.8041,0.8041,1,1,1,0.0349,0.6783,0.8070,0.9035
i_lionnight_1_5,illumination,107,84,87.09,1.2280,0.7850,0.7944,0.7944,1,1,1,0.0000,0.5907,0.7544,0.8772
i_lionnight_1_6,illumination,68,48,87.15,1.6897,0.7059,0.7059,0.7206,1,1,1,0.0000,0.4368,0.6621,0.8310
i_londonbridge_1_2,illumination,104,97,34.11,1.0411,0.9327,0.9423,0.9423,1,1,1,0.0000,0.6530,0.7918,0.8959
i_londonbridge_1_3,illumination,64,52,35.93,0.8821,0.8125,0.8125,0.8125,1,1,1,0.1179,0.7060,0.8236,0.9118
i_londonbridge_1_4,illumination,43,31,34.13,1.5469,0.7209,0.7442,0.7442,1,1,1,0.0000,0.4844,0.6906,0.8453
i_londonbridge_1_5,illumination,17,5,32.93,256.7175,0.1176,0.1176,0.1176,0,0,0,0.0000,0.0000,0.0000,0.0000
i_londonbridge_1_6,illumination,27,10,40.40,1.1579,0.3704,0.3704,0.3704,1,1,1,0.0000,0.6140,0.7684,0.8842
i_melon_1_2,illumination,102,94,33.35,0.8647,0.9216,0.9412,0.9510,1,1,1,0.1353,0.7118,0.8271,0.9135
i_melon_1_3,illumination,57,46,41.29,1.1569,0.8421,0.8596,0.8772,1,1,1,0.0000,0.6144,0.7686,0.8843
i_melon_1_4,illumination,18,5,34.75,313.8705,0.2778,0.3333,0.3333,0,0,0,0.0000,0.0000,0.0000,0.0000
i_melon_1_5,illumination,50,38,37.73,1.5924,0.7600,0.8000,0.8400,1,1,1,0.0000,0.4692,0.6815,0.8408
i_melon_1_6,illumination,40,25,37.44,1.9246,0.6250,0.6250,0.6750,1,1,1,0.0000,0.3585,0.6151,0.8075
i_miniature_1_2,illumination,189,167,76.24,0.2478,0.8836,0.8836,0.8836,1,1,1,0.7522,0.9174,0.9504,0.9752
i_miniature_1_3,illumination,78,52,65.41,1.1276,0.6538,0.6667,0.6923,1,1,1,0.0000,0.6241,0.7745,0.8872
i_miniature_1_4,illumination,35,14,54.46,1.2603,0.4000,0.4000,0.4000,1,1,1,0.0000,0.5799,0.7479,0.8740
i_miniature_1_5,illumination,34,6,50.05,332.8509,0.0882,0.0882,0.0882,0,0,0,0.0000,0.0000,0.0000,0.0000
i_miniature_1_6,illumination,67,44,63.09,0.4724,0.6567,0.6567,0.6716,1,1,1,0.5276,0.8425,0.9055,0.9528
i_nescafe_1_2,illumination,119,108,40.08,0.2664,0.9076,0.9160,0.9160,1,1,1,0.7336,0.9112,0.9467,0.9734
i_nescafe_1_3,illumination,116,107,42.10,0.4112,0.9224,0.9224,0.9224,1,1,1,0.5888,0.8629,0.9178,0.9589
i_nescafe_1_4,illumination,123,110,38.31,0.2346,0.8943,0.8943,0.8943,1,1,1,0.7654,0.9218,0.9531,0.9765
i_nescafe_1_5,illumination,92,82,39.99,0.2951,0.8913,0.9130,0.9130,1,1,1,0.7049,0.9016,0.9410,0.9705
i_nescafe_1_6,illumination,96,84,42.33,0.1163,0.8750,0.8750,0.8750,1,1,1,0.8837,0.9612,0.9767,0.9884
i_nijmegen_1_2,illumination,62,47,42.24,1.0720,0.7581,0.7742,0.7903,1,1,1,0.0000,0.6427,0.7856,0.8928
i_nijmegen_1_3,illumination,80,69,45.28,0.8521,0.8500,0.8625,0.8625,1,1,1,0.1479,0.7160,0.8296,0.9148
i_nijmegen_1_4,illumination,20,10,35.44,2.6065,0.5000,0.5500,0.5500,1,1,1,0.0000,0.1312,0.4787,0.7393
i_nijmegen_1_5,illumination,66,57,42.57,0.8481,0.8636,0.8788,0.8939,1,1,1,0.1519,0.7173,0.8304,0.9152
i_nijmegen_1_6,illumination,62,41,41.77,1.2471,0.6613,0.6774,0.6935,1,1,1,0.0000,0.5843,0.7506,0.8753
i_nuts_1_2,illumination,27,14,56.56,3.7481,0.5185,0.5926,0.6296,0,1,1,0.0000,0.0000,0.2504,0.6252
i_nuts_1_3,illumination,10,4,37.70,352.2134,0.3000,0.3000,0.3000,0,0,0,0.0000,0.0000,0.0000,0.0000
i_nuts_1_4,illumination,13,4,37.96,393.7950,0.0000,0.0000,0.0000,0,0,0,0.0000,0.0000,0.0000,0.0000
i_nuts_1_5,illumination,12,4,37.77,664.5574,0.0000,0.0000,0.0000,0,0,0,0.0000,0.0000,0.0000,0.0000
i_nuts_1_6,illumination,10,4,37.79,481.1178,0.0000,0.0000,0.0000,0,0,0,0.0000,0.0000,0.0000,0.0000
i_objects_1_2,illumination,81,52,74.53,1.1695,0.6420,0.6420,0.6790,1,1,1,0.0000,0.6102,0.7661,0.8831
i_objects_1_3,illumination,64,24,66.09,1.7590,0.3750,0.4219,0.4375,1,1,1,0.0000,0.4137,0.6482,0.8241
i_objects_1_4,illumination,42,12,67.88,7.0325,0.2857,0.2857,0.3333,0,0,0,0.0000,0.0000,0.0000,0.2968
i_objects_1_5,illumination,48,12,66.46,2.7392,0.2500,0.2500,0.2500,1,1,1,0.0000,0.0869,0.4522,0.7261
i_objects_1_6,illumination,133,120,66.26,0.4513,0.9023,0.9098,0.9098,1,1,1,0.5487,0.8496,0.9097,0.9549
i_parking_1_2,illumination,43,37,28.82,0.2780,0.8837,0.9070,0.9070,1,1,1,0.7220,0.9073,0.9444,0.9722
i_parking_1_3,illumination,33,26,28.72,0.8502,0.7879,0.8182,0.8182,1,1,1,0.1498,0.7166,0.8300,0.9150
i_parking_1_4,illumination,26,17,27.40,2.1070,0.6154,0.6923,0.6923,1,1,1,0.0000,0.2977,0.5786,0.7893
i_parking_1_5,illumination,26,13,28.54,1.2623,0.5000,0.5000,0.5000,1,1,1,0.0000,0.5792,0.7475,0.8738
i_parking_1_6,illumination,27,23,25.92,1.4335,0.8519,0.8519,0.8519,1,1,1,0.0000,0.5222,0.7133,0.8567
i_partyfood_1_2,illumination,61,60,23.33,0.2532,0.9836,0.9836,0.9836,1,1,1,0.7468,0.9156,0.9494,0.9747
i_partyfood_1_3,illumination,41,39,23.96,0.4579,0.9512,0.9512,0.9512,1,1,1,0.5421,0.8474,0.9084,0.9542
i_partyfood_1_4,illumination,37,33,23.63,0.3900,0.8919,0.8919,0.8919,1,1,1,0.6100,0.8700,0.9220,0.9610
i_partyfood_1_5,illumination,36,30,24.39,0.5082,0.8333,0.8333,0.8333,1,1,1,0.4918,0.8306,0.8984,0.9492
i_partyfood_1_6,illumination,31,27,22.07,1.1991,0.8710,0.8710,0.8710,1,1,1,0.0000,0.6003,0.7602,0.8801
i_pinard_1_2,illumination,41,33,29.28,0.5747,0.8049,0.8293,0.8537,1,1,1,0.4253,0.8084,0.8851,0.9425
i_pinard_1_3,illumination,40,35,34.31,3.4473,0.8750,0.9000,0.9000,0,1,1,0.0000,0.0000,0.3105,0.6553
i_pinard_1_4,illumination,44,37,33.66,5.2024,0.8409,0.8636,0.8864,0,0,1,0.0000,0.0000,0.0000,0.4798
i_pinard_1_5,illumination,44,38,32.89,0.2321,0.8636,0.9091,0.9091,1,1,1,0.7679,0.9226,0.9536,0.9768
i_pinard_1_6,illumination,43,35,31.90,0.6056,0.8140,0.8140,0.8140,1,1,1,0.3944,0.7981,0.8789,0.9394
i_pool_1_2,illumination,9,4,26.84,862.3199,0.1111,0.1111,0.2222,0,0,0,0.0000,0.0000,0.0000,0.0000
i_pool_1_3,illumination,6,0,24.90,inf,0.0000,0.0000,0.0000,0,0,0,0.0000,0.0000,0.0000,0.0000
i_pool_1_4,illumination,2,0,24.07,inf,0.0000,0.0000,0.0000,0,0,0,0.0000,0.0000,0.0000,0.0000
i_pool_1_5,illumination,8,4,24.58,598.5460,0.0000,0.0000,0.0000,0,0,0,0.0000,0.0000,0.0000,0.0000
i_pool_1_6,illumination,8,4,22.22,1193.3026,0.0000,0.0000,0.0000,0,0,0,0.0000,0.0000,0.0000,0.0000
i_porta_1_2,illumination,48,45,29.33,0.5700,0.9375,0.9375,0.9375,1,1,1,0.4300,0.8100,0.8860,0.9430
i_porta_1_3,illumination,50,43,28.09,0.1965,0.8600,0.8600,0.8600,1,1,1,0.8035,0.9345,0.9607,0.9803
i_porta_1_4,illumination,26,20,27.04,0.6869,0.7692,0.7692,0.7692,1,1,1,0.3131,0.7710,0.8626,0.9313
i_porta_1_5,illumination,27,18,28.80,2.6395,0.6667,0.6667,0.6667,1,1,1,0.0000,0.1202,0.4721,0.7361
i_porta_1_6,illumination,18,11,34.66,31.0347,0.6111,0.6111,0.6111,0,0,0,0.0000,0.0000,0.0000,0.0000
i_resort_1_2,illumination,68,58,42.56,0.4243,0.8382,0.8676,0.8824,1,1,1,0.5757,0.8586,0.9151,0.9576
i_resort_1_3,illumination,99,96,35.95,0.1450,0.9697,0.9697,0.9697,1,1,1,0.8550,0.9517,0.9710,0.9855
i_resort_1_4,illumination,82,78,33.85,0.3107,0.9512,0.9512,0.9512,1,1,1,0.6893,0.8964,0.9379,0.9689
i_resort_1_5,illumination,47,35,37.95,0.6995,0.7447,0.7872,0.7872,1,1,1,0.3005,0.7668,0.8601,0.9300
i_resort_1_6,illumination,38,32,34.24,1.2985,0.8158,0.8684,0.8947,1,1,1,0.0000,0.5672,0.7403,0.8701
i_salon_1_2,illumination,240,218,85.85,0.3188,0.9042,0.9083,0.9125,1,1,1,0.6812,0.8937,0.9362,0.9681
i_salon_1_3,illumination,85,55,83.18,0.7255,0.6471,0.6588,0.6706,1,1,1,0.2745,0.7582,0.8549,0.9275
i_salon_1_4,illumination,38,12,67.16,0.6181,0.3158,0.3158,0.3158,1,1,1,0.3819,0.7940,0.8764,0.9382
i_salon_1_5,illumination,139,120,86.26,0.2980,0.8633,0.8633,0.8633,1,1,1,0.7020,0.9007,0.9404,0.9702
i_salon_1_6,illumination,75,43,77.28,0.4959,0.5733,0.5733,0.5733,1,1,1,0.5041,0.8347,0.9008,0.9504
i_santuario_1_2,illumination,81,57,49.66,1.3594,0.7037,0.7037,0.7160,1,1,1,0.0000,0.5469,0.7281,0.8641
i_santuario_1_3,illumination,86,64,48.56,1.6868,0.7442,0.7442,0.7558,1,1,1,0.0000,0.4377,0.6626,0.8313
i_santuario_1_4,illumination,54,36,45.86,1.5741,0.6481,0.6667,0.6667,1,1,1,0.0000,0.4753,0.6852,0.8426
i_santuario_1_5,illumination,72,43,48.27,0.3645,0.5972,0.6111,0.6389,1,1,1,0.6355,0.8785,0.9271,0.9636
i_santuario_1_6,illumination,40,23,42.40,1.1030,0.5750,0.5750,0.5750,1,1,1,0.0000,0.6323,0.7794,0.8897
i_school_1_2,illumination,99,88,43.66,0.1589,0.8889,0.8889,0.8990,1,1,1,0.8411,0.9470,0.9682,0.9841
i_school_1_3,illumination,95,87,40.19,0.3782,0.9158,0.9158,0.9158,1,1,1,0.6218,0.8739,0.9244,0.9622
i_school_1_4,illumination,42,30,39.67,0.8462,0.7143,0.7143,0.7143,1,1,1,0.1538,0.7179,0.8308,0.9154
i_school_1_5,illumination,58,50,42.94,0.8376,0.8621,0.8621,0.8621,1,1,1,0.1624,0.7208,0.8325,0.9162
i_school_1_6,illumination,42,25,44.93,1.2556,0.5952,0.5952,0.6190,1,1,1,0.0000,0.5815,0.7489,0.8744
i_ski_1_2,illumination,140,131,53.60,0.3580,0.9357,0.9429,0.9500,1,1,1,0.6420,0.8807,0.9284,0.9642
i_ski_1_3,illumination,109,94,52.64,0.3963,0.8624,0.8991,0.9083,1,1,1,0.6037,0.8679,0.9207,0.9604
i_ski_1_4,illumination,82,69,54.07,1.0111,0.8415,0.8415,0.8537,1,1,1,0.0000,0.6630,0.7978,0.8989
i_ski_1_5,illumination,62,46,53.84,1.1529,0.7419,0.7581,0.7742,1,1,1,0.0000,0.6157,0.7694,0.8847
i_ski_1_6,illumination,55,31,55.91,2.5696,0.5636,0.5818,0.5818,1,1,1,0.0000,0.1435,0.4861,0.7430
i_smurf_1_2,illumination,122,114,56.91,0.2250,0.9344,0.9344,0.9344,1,1,1,0.7750,0.9250,0.9550,0.9775
i_smurf_1_3,illumination,114,106,54.46,0.4056,0.9298,0.9298,0.9298,1,1,1,0.5944,0.8648,0.9189,0.9594
i_smurf_1_4,illumination,109,90,54.84,0.8973,0.8257,0.8349,0.8349,1,1,1,0.1027,0.7009,0.8205,0.9103
i_smurf_1_5,illumination,118,94,63.26,0.2866,0.7797,0.8220,0.8305,1,1,1,0.7134,0.9045,0.9427,0.9713
i_smurf_1_6,illumination,82,64,65.53,0.5992,0.7805,0.7927,0.8171,1,1,1,0.4008,0.8003,0.8802,0.9401
i_steps_1_2,illumination,43,41,40.68,0.6033,0.9535,0.9535,0.9535,1,1,1,0.3967,0.7989,0.8793,0.9397
i_steps_1_3,illumination,44,41,25.35,0.5834,0.9318,0.9318,0.9318,1,1,1,0.4166,0.8055,0.8833,0.9417
i_steps_1_4,illumination,46,42,32.10,0.5525,0.8913,0.9130,0.9130,1,1,1,0.4475,0.8158,0.8895,0.9447
i_steps_1_5,illumination,18,8,28.94,4.4013,0.4444,0.4444,0.4444,0,1,1,0.0000,0.0000,0.1197,0.5599
i_steps_1_6,illumination,31,23,32.33,1.4508,0.7742,0.8065,0.8387,1,1,1,0.0000,0.5164,0.7098,0.8549
i_table_1_2,illumination,81,52,73.51,1.1695,0.6420,0.6420,0.6790,1,1,1,0.0000,0.6102,0.7661,0.8831
i_table_1_3,illumination,64,24,74.93,1.7590,0.3750,0.4219,0.4375,1,1,1,0.0000,0.4137,0.6482,0.8241
i_table_1_4,illumination,42,12,75.42,7.0325,0.2857,0.2857,0.3333,0,0,0,0.0000,0.0000,0.0000,0.2968
i_table_1_5,illumination,48,12,77.39,2.7392,0.2500,0.2500,0.2500,1,1,1,0.0000,0.0869,0.4522,0.7261
i_table_1_6,illumination,133,120,77.80,0.4513,0.9023,0.9098,0.9098,1,1,1,0.5487,0.8496,0.9097,0.9549
i_tools_1_2,illumination,22,5,36.44,314.1267,0.2273,0.2273,0.2727,0,0,0,0.0000,0.0000,0.0000,0.0000
i_tools_1_3,illumination,22,10,35.47,5.3344,0.4091,0.4545,0.4545,0,0,1,0.0000,0.0000,0.0000,0.4666
i_tools_1_4,illumination,17,5,40.80,315.4889,0.1176,0.1176,0.1176,0,0,0,0.0000,0.0000,0.0000,0.0000
i_tools_1_5,illumination,29,20,35.11,2.5067,0.6552,0.6897,0.6897,1,1,1,0.0000,0.1644,0.4987,0.7493
i_tools_1_6,illumination,16,4,35.99,265.5328,0.1875,0.1875,0.1875,0,0,0,0.0000,0.0000,0.0000,0.0000
i_toy_1_2,illumination,147,143,61.07,0.3378,0.9728,0.9796,0.9864,1,1,1,0.6622,0.8874,0.9324,0.9662
i_toy_1_3,illumination,111,101,49.88,0.3783,0.9099,0.9189,0.9189,1,1,1,0.6217,0.8739,0.9243,0.9622
i_toy_1_4,illumination,84,67,49.05,0.5158,0.7976,0.8214,0.8214,1,1,1,0.4842,0.8281,0.8968,0.9484
i_toy_1_5,illumination,54,36,48.24,1.1230,0.6481,0.6852,0.6852,1,1,1,0.0000,0.6257,0.7754,0.8877
i_toy_1_6,illumination,35,13,46.28,2.1190,0.3429,0.3429,0.3714,1,1,1,0.0000,0.2937,0.5762,0.7881
i_troulos_1_2,illumination,11,7,25.12,57.1087,0.6364,0.6364,0.7273,0,0,0,0.0000,0.0000,0.0000,0.0000
i_troulos_1_3,illumination,6,4,23.69,326.4377,0.1667,0.1667,0.3333,0,0,0,0.0000,0.0000,0.0000,0.0000
i_troulos_1_4,illumination,16,11,24.94,0.4927,0.6875,0.6875,0.6875,1,1,1,0.5073,0.8358,0.9015,0.9507
i_troulos_1_5,illumination,6,0,26.20,inf,0.1667,0.3333,0.3333,0,0,0,0.0000,0.0000,0.0000,0.0000
i_troulos_1_6,illumination,8,5,24.57,300.3072,0.3750,0.5000,0.5000,0,0,0,0.0000,0.0000,0.0000,0.0000
i_veggies_1_2,illumination,116,103,50.14,0.5284,0.8879,0.9052,0.9138,1,1,1,0.4716,0.8239,0.8943,0.9472
i_veggies_1_3,illumination,69,48,43.87,1.3927,0.6957,0.7391,0.7681,1,1,1,0.0000,0.5358,0.7215,0.8607
i_veggies_1_4,illumination,68,47,45.35,1.1303,0.6912,0.6912,0.7206,1,1,1,0.0000,0.6232,0.7739,0.8870
i_veggies_1_5,illumination,34,6,44.85,328.8537,0.1765,0.2059,0.2353,0,0,0,0.0000,0.0000,0.0000,0.0000
i_veggies_1_6,illumination,32,6,43.82,424.0206,0.0625,0.1875,0.2188,0,0,0,0.0000,0.0000,0.0000,0.0000
i_village_1_2,illumination,40,17,67.50,0.5114,0.4250,0.4250,0.4250,1,1,1,0.4886,0.8295,0.8977,0.9489
i_village_1_3,illumination,40,16,83.27,1.7582,0.4000,0.4000,0.4000,1,1,1,0.0000,0.4139,0.6484,0.8242
i_village_1_4,illumination,45,20,78.17,1.4595,0.4444,0.4444,0.4444,1,1,1,0.0000,0.5135,0.7081,0.8540
i_village_1_5,illumination,127,105,85.74,0.5008,0.8346,0.8425,0.8504,1,1,1,0.4992,0.8331,0.8998,0.9499
i_village_1_6,illumination,43,24,78.69,2.6318,0.5349,0.5581,0.5581,1,1,1,0.0000,0.1227,0.4736,0.7368
i_yellowtent_1_2,illumination,176,149,62.32,0.2487,0.8466,0.8580,0.8580,1,1,1,0.7513,0.9171,0.9503,0.9751
i_yellowtent_1_3,illumination,101,78,58.00,0.5797,0.7624,0.7921,0.8020,1,1,1,0.4203,0.8068,0.8841,0.9420
i_yellowtent_1_4,illumination,44,26,49.40,0.7982,0.5909,0.6136,0.6136,1,1,1,0.2018,0.7339,0.8404,0.9202
i_yellowtent_1_5,illumination,74,50,60.44,0.1976,0.6757,0.6757,0.6757,1,1,1,0.8024,0.9341,0.9605,0.9802
i_yellowtent_1_6,illumination,57,26,58.96,1.0660,0.4561,0.4561,0.4912,1,1,1,0.0000,0.6447,0.7868,0.8934
i_zion_1_2,illumination,114,103,47.21,0.2447,0.9035,0.9123,0.9123,1,1,1,0.7553,0.9184,0.9511,0.9755
i_zion_1_3,illumination,53,29,45.42,0.7991,0.5283,0.5472,0.5472,1,1,1,0.2009,0.7336,0.8402,0.9201
i_zion_1_4,illumination,24,11,39.41,2.6261,0.4583,0.4583,0.4583,1,1,1,0.0000,0.1246,0.4748,0.7374
i_zion_1_5,illumination,22,5,35.77,305.8621,0.1364,0.1364,0.1364,0,0,0,0.0000,0.0000,0.0000,0.0000
i_zion_1_6,illumination,12,5,33.72,282.9645,0.0000,0.0000,0.0000,0,0,0,0.0000,0.0000,0.0000,0.0000
v_abstract_1_2,viewpoint,75,67,36.91,0.4723,0.8933,0.8933,0.8933,1,1,1,0.5277,0.8426,0.9055,0.9528
v_abstract_1_3,viewpoint,52,44,36.18,0.8188,0.8654,0.8654,0.8654,1,1,1,0.1812,0.7271,0.8362,0.9181
v_abstract_1_4,viewpoint,25,11,37.02,1.8480,0.4400,0.4400,0.4400,1,1,1,0.0000,0.3840,0.6304,0.8152
v_abstract_1_5,viewpoint,51,42,35.24,1.4691,0.8235,0.8235,0.8235,1,1,1,0.0000,0.5103,0.7062,0.8531
v_abstract_1_6,viewpoint,29,11,36.06,14.1373,0.3793,0.4138,0.4138,0,0,0,0.0000,0.0000,0.0000,0.0000
v_adam_1_2,viewpoint,36,34,31.37,0.3681,0.9444,0.9444,0.9444,1,1,1,0.6319,0.8773,0.9264,0.9632
v_adam_1_3,viewpoint,27,26,29.96,1.3910,0.9630,0.9630,0.9630,1,1,1,0.0000,0.5363,0.7218,0.8609
v_adam_1_4,viewpoint,12,6,32.76,573.9474,0.5833,0.5833,0.5833,0,0,0,0.0000,0.0000,0.0000,0.0000
v_adam_1_5,viewpoint,23,17,30.08,1.0582,0.7391,0.7391,0.7391,1,1,1,0.0000,0.6473,0.7884,0.8942
v_adam_1_6,viewpoint,16,12,29.09,1.2765,0.7500,0.7500,0.8125,1,1,1,0.0000,0.5745,0.7447,0.8723
v_apprentices_1_2,viewpoint,311,296,82.47,0.1204,0.9518,0.9550,0.9582,1,1,1,0.8796,0.9599,0.9759,0.9880
v_apprentices_1_3,viewpoint,209,196,82.50,0.7268,0.9378,0.9426,0.9426,1,1,1,0.2732,0.7577,0.8546,0.9273
v_apprentices_1_4,viewpoint,127,102,82.17,1.1494,0.7953,0.8031,0.8031,1,1,1,0.0000,0.6169,0.7701,0.8851
v_apprentices_1_5,viewpoint,77,46,68.83,2.5150,0.5844,0.5974,0.5974,1,1,1,0.0000,0.1617,0.4970,0.7485
v_apprentices_1_6,viewpoint,74,53,62.09,1.2670,0.7162,0.7297,0.7432,1,1,1,0.0000,0.5777,0.7466,0.8733
v_azzola_1_2,viewpoint,189,177,84.45,0.8273,0.9312,0.9365,0.9471,1,1,1,0.1727,0.7242,0.8345,0.9173
v_azzola_1_3,viewpoint,104,53,83.85,2.8526,0.4904,0.5673,0.5769,1,1,1,0.0000,0.0491,0.4295,0.7147
v_azzola_1_4,viewpoint,259,244,83.61,0.4871,0.9344,0.9421,0.9421,1,1,1,0.5129,0.8376,0.9026,0.9513
v_azzola_1_5,viewpoint,116,87,83.89,0.8585,0.6724,0.7586,0.7586,1,1,1,0.1415,0.7138,0.8283,0.9141
v_azzola_1_6,viewpoint,55,15,69.15,5.0155,0.2545,0.2909,0.3091,0,0,1,0.0000,0.0000,0.0000,0.4985
v_bark_1_2,viewpoint,169,150,77.52,0.3913,0.8876,0.8876,0.8876,1,1,1,0.6087,0.8696,0.9217,0.9609
v_bark_1_3,viewpoint,103,79,76.65,0.2790,0.7670,0.7670,0.7670,1,1,1,0.7210,0.9070,0.9442,0.9721
v_bark_1_4,viewpoint,115,80,77.42,0.1534,0.6957,0.6957,0.6957,1,1,1,0.8466,0.9489,0.9693,0.9847
v_bark_1_5,viewpoint,94,55,77.70,0.2292,0.5851,0.5851,0.5851,1,1,1,0.7708,0.9236,0.9542,0.9771
v_bark_1_6,viewpoint,58,27,77.18,0.3039,0.4655,0.4655,0.4655,1,1,1,0.6961,0.8987,0.9392,0.9696
v_bees_1_2,viewpoint,258,248,80.69,0.1573,0.9612,0.9690,0.9690,1,1,1,0.8427,0.9476,0.9685,0.9843
v_bees_1_3,viewpoint,233,225,72.98,0.1937,0.9657,0.9700,0.9700,1,1,1,0.8063,0.9354,0.9613,0.9806
v_bees_1_4,viewpoint,207,194,67.28,0.5242,0.9372,0.9420,0.9420,1,1,1,0.4758,0.8253,0.8952,0.9476
v_bees_1_5,viewpoint,104,89,63.27,1.0618,0.8558,0.8654,0.8654,1,1,1,0.0000,0.6461,0.7876,0.8938
v_bees_1_6,viewpoint,148,128,80.62,1.1010,0.8649,0.8784,0.8851,1,1,1,0.0000,0.6330,0.7798,0.8899
v_beyus_1_2,viewpoint,25,21,33.66,4.9649,0.8400,0.8400,0.8400,0,1,1,0.0000,0.0000,0.0070,0.5035
v_beyus_1_3,viewpoint,9,4,33.24,343.3991,0.4444,0.4444,0.4444,0,0,0,0.0000,0.0000,0.0000,0.0000
v_beyus_1_4,viewpoint,49,47,33.56,0.5239,0.9592,0.9592,0.9796,1,1,1,0.4761,0.8254,0.8952,0.9476
v_beyus_1_5,viewpoint,12,6,32.02,45.8964,0.4167,0.4167,0.4167,0,0,0,0.0000,0.0000,0.0000,0.0000
v_beyus_1_6,viewpoint,19,14,33.89,2.3266,0.7368,0.7895,0.7895,1,1,1,0.0000,0.2245,0.5347,0.7673
v_bip_1_2,viewpoint,201,183,78.48,0.1685,0.9104,0.9104,0.9104,1,1,1,0.8315,0.9438,0.9663,0.9831
v_bip_1_3,viewpoint,150,137,68.41,0.3262,0.9133,0.9133,0.9133,1,1,1,0.6738,0.8913,0.9348,0.9674
v_bip_1_4,viewpoint,202,183,79.07,0.1974,0.9059,0.9059,0.9059,1,1,1,0.8026,0.9342,0.9605,0.9803
v_bip_1_5,viewpoint,102,84,63.34,0.9848,0.8039,0.8235,0.8235,1,1,1,0.0152,0.6717,0.8030,0.9015
v_bip_1_6,viewpoint,96,71,63.95,0.4417,0.7396,0.7396,0.7396,1,1,1,0.5583,0.8528,0.9117,0.9558
v_bird_1_2,viewpoint,95,65,70.21,76.7875,0.0000,0.0000,0.0000,0,0,0,0.0000,0.0000,0.0000,0.0000
v_bird_1_3,viewpoint,56,25,67.65,85.8958,0.0000,0.0000,0.0000,0,0,0,0.0000,0.0000,0.0000,0.0000
v_bird_1_4,viewpoint,57,16,73.95,100.5931,0.0000,0.0000,0.0000,0,0,0,0.0000,0.0000,0.0000,0.0000
v_bird_1_5,viewpoint,36,7,70.40,103.1727,0.0000,0.0000,0.0000,0,0,0,0.0000,0.0000,0.0000,0.0000
v_bird_1_6,viewpoint,32,5,66.30,1637.7804,0.0000,0.0000,0.0000,0,0,0,0.0000,0.0000,0.0000,0.0000
v_birdwoman_1_2,viewpoint,43,28,53.49,44.3171,0.0000,0.0000,0.0000,0,0,0,0.0000,0.0000,0.0000,0.0000
v_birdwoman_1_3,viewpoint,40,9,54.64,57.7394,0.0000,0.0000,0.0000,0,0,0,0.0000,0.0000,0.0000,0.0000
v_birdwoman_1_4,viewpoint,58,32,56.19,50.4251,0.0000,0.0000,0.0000,0,0,0,0.0000,0.0000,0.0000,0.0000
v_birdwoman_1_5,viewpoint,120,95,61.30,52.6349,0.0000,0.0000,0.0000,0,0,0,0.0000,0.0000,0.0000,0.0000
v_birdwoman_1_6,viewpoint,80,65,53.61,51.3127,0.0000,0.0000,0.0000,0,0,0,0.0000,0.0000,0.0000,0.0000
v_blueprint_1_2,viewpoint,168,155,78.91,0.3222,0.9226,0.9226,0.9226,1,1,1,0.6778,0.8926,0.9356,0.9678
v_blueprint_1_3,viewpoint,103,87,87.43,1.2144,0.8447,0.8447,0.8447,1,1,1,0.0000,0.5952,0.7571,0.8786
v_blueprint_1_4,viewpoint,158,136,78.72,0.6004,0.8544,0.8734,0.8734,1,1,1,0.3996,0.7999,0.8799,0.9400
v_blueprint_1_5,viewpoint,66,51,65.87,0.5060,0.7727,0.7727,0.7727,1,1,1,0.4940,0.8313,0.8988,0.9494
v_blueprint_1_6,viewpoint,31,19,59.97,1.4622,0.6129,0.6129,0.6129,1,1,1,0.0000,0.5126,0.7076,0.8538
v_boat_1_2,viewpoint,183,163,82.58,0.3326,0.8852,0.9016,0.9071,1,1,1,0.6674,0.8891,0.9335,0.9667
v_boat_1_3,viewpoint,162,149,75.82,0.3600,0.9198,0.9321,0.9321,1,1,1,0.6400,0.8800,0.9280,0.9640
v_boat_1_4,viewpoint,114,97,70.76,0.3503,0.8509,0.8596,0.8596,1,1,1,0.6497,0.8832,0.9299,0.9650
v_boat_1_5,viewpoint,88,72,60.78,0.2745,0.8182,0.8182,0.8182,1,1,1,0.7255,0.9085,0.9451,0.9726
v_boat_1_6,viewpoint,64,48,60.11,0.8411,0.7500,0.7500,0.7500,1,1,1,0.1589,0.7196,0.8318,0.9159
v_bricks_1_2,viewpoint,261,247,80.02,33.4195,0.0000,0.0115,0.0383,0,0,0,0.0000,0.0000,0.0000,0.0000
v_bricks_1_3,viewpoint,216,206,77.66,32.2797,0.0000,0.0000,0.0370,0,0,0,0.0000,0.0000,0.0000,0.0000
v_bricks_1_4,viewpoint,141,121,77.32,31.1497,0.0000,0.0000,0.0355,0,0,0,0.0000,0.0000,0.0000,0.0000
v_bricks_1_5,viewpoint,80,54,76.41,28.1754,0.0000,0.0000,0.0125,0,0,0,0.0000,0.0000,0.0000,0.0000
v_bricks_1_6,viewpoint,44,10,76.94,27.7119,0.0000,0.0000,0.0000,0,0,0,0.0000,0.0000,0.0000,0.0000
v_busstop_1_2,viewpoint,195,171,87.61,0.6363,0.8769,0.8769,0.8872,1,1,1,0.3637,0.7879,0.8727,0.9364
v_busstop_1_3,viewpoint,151,111,83.92,1.2614,0.7351,0.7483,0.7616,1,1,1,0.0000,0.5795,0.7477,0.8739
v_busstop_1_4,viewpoint,145,120,84.12,0.9460,0.8276,0.8345,0.8345,1,1,1,0.0540,0.6847,0.8108,0.9054
v_busstop_1_5,viewpoint,161,138,84.05,0.5211,0.8571,0.8571,0.8571,1,1,1,0.4789,0.8263,0.8958,0.9479
v_busstop_1_6,viewpoint,204,189,84.41,0.3066,0.9265,0.9265,0.9265,1,1,1,0.6934,0.8978,0.9387,0.9693
v_calder_1_2,viewpoint,86,68,58.28,0.4288,0.7791,0.7907,0.8023,1,1,1,0.5712,0.8571,0.9142,0.9571
v_calder_1_3,viewpoint,171,161,65.47,0.2568,0.9415,0.9474,0.9474,1,1,1,0.7432,0.9144,0.9486,0.9743
v_calder_1_4,viewpoint,23,11,51.08,1.8859,0.4783,0.4783,0.4783,1,1,1,0.0000,0.3714,0.6228,0.8114
v_calder_1_5,viewpoint,37,19,56.30,1.5190,0.5135,0.5135,0.5405,1,1,1,0.0000,0.4937,0.6962,0.8481
v_calder_1_6,viewpoint,23,5,49.26,381.0094,0.0000,0.0000,0.0000,0,0,0,0.0000,0.0000,0.0000,0.0000
v_cartooncity_1_2,viewpoint,278,265,82.35,62.1481,0.0000,0.0000,0.0000,0,0,0,0.0000,0.0000,0.0000,0.0000
v_cartooncity_1_3,viewpoint,73,32,78.90,69.2381,0.0000,0.0000,0.0000,0,0,0,0.0000,0.0000,0.0000,0.0000
v_cartooncity_1_4,viewpoint,206,191,80.90,74.7780,0.0000,0.0000,0.0000,0,0,0,0.0000,0.0000,0.0000,0.0000
v_cartooncity_1_5,viewpoint,57,23,82.92,76.6383,0.0000,0.0000,0.0000,0,0,0,0.0000,0.0000,0.0000,0.0000
v_cartooncity_1_6,viewpoint,74,31,77.79,72.3065,0.0000,0.0000,0.0000,0,0,0,0.0000,0.0000,0.0000,0.0000
v_charing_1_2,viewpoint,23,10,34.75,7.2925,0.4348,0.4348,0.4348,0,0,0,0.0000,0.0000,0.0000,0.2707
v_charing_1_3,viewpoint,14,5,34.24,222.8261,0.2857,0.2857,0.2857,0,0,0,0.0000,0.0000,0.0000,0.0000
v_charing_1_4,viewpoint,32,17,33.91,73.9926,0.4375,0.5625,0.5625,0,0,0,0.0000,0.0000,0.0000,0.0000
v_charing_1_5,viewpoint,14,7,33.45,165.8308,0.5000,0.5000,0.5000,0,0,0,0.0000,0.0000,0.0000,0.0000
v_charing_1_6,viewpoint,12,4,34.03,1485.5873,0.0833,0.0833,0.1667,0,0,0,0.0000,0.0000,0.0000,0.0000
v_churchill_1_2,viewpoint,96,83,48.30,1.3215,0.8646,0.9062,0.9062,1,1,1,0.0000,0.5595,0.7357,0.8678
v_churchill_1_3,viewpoint,63,48,46.45,2.4800,0.7619,0.8254,0.8413,1,1,1,0.0000,0.1733,0.5040,0.7520
v_churchill_1_4,viewpoint,41,28,43.63,12.2828,0.6585,0.6829,0.7073,0,0,0,0.0000,0.0000,0.0000,0.0000
v_churchill_1_5,viewpoint,130,125,42.73,0.4090,0.9615,0.9615,0.9615,1,1,1,0.5910,0.8637,0.9182,0.9591
v_churchill_1_6,viewpoint,29,9,40.96,13.8247,0.3103,0.3103,0.3103,0,0,0,0.0000,0.0000,0.0000,0.0000
v_circus_1_2,viewpoint,139,130,52.65,0.3115,0.9353,0.9353,0.9353,1,1,1,0.6885,0.8962,0.9377,0.9688
v_circus_1_3,viewpoint,55,34,46.08,3.0675,0.5818,0.6182,0.6182,0,1,1,0.0000,0.0000,0.3865,0.6932
v_circus_1_4,viewpoint,37,10,44.83,3.5715,0.2703,0.2703,0.2703,0,1,1,0.0000,0.0000,0.2857,0.6428
v_circus_1_5,viewpoint,91,71,48.43,0.7263,0.7802,0.7912,0.7912,1,1,1,0.2737,0.7579,0.8547,0.9274
v_circus_1_6,viewpoint,47,29,47.12,0.8869,0.6170,0.6383,0.6383,1,1,1,0.1131,0.7044,0.8226,0.9113
v_coffeehouse_1_2,viewpoint,111,100,51.19,1.1866,0.9009,0.9009,0.9009,1,1,1,0.0000,0.6045,0.7627,0.8813
v_coffeehouse_1_3,viewpoint,164,151,56.91,0.5399,0.9207,0.9207,0.9207,1,1,1,0.4601,0.8200,0.8920,0.9460
v_coffeehouse_1_4,viewpoint,125,109,49.92,1.7841,0.8720,0.8720,0.8720,1,1,1,0.0000,0.4053,0.6432,0.8216
v_coffeehouse_1_5,viewpoint,110,95,52.39,0.1751,0.8636,0.8727,0.8727,1,1,1,0.8249,0.9416,0.9650,0.9825
v_coffeehouse_1_6,viewpoint,88,70,54.77,1.7518,0.7841,0.8068,0.8068,1,1,1,0.0000,0.4161,0.6496,0.8248
v_colors_1_2,viewpoint,6,5,24.31,3.9988,0.8333,0.8333,0.8333,0,1,1,0.0000,0.0000,0.2002,0.6001
v_colors_1_3,viewpoint,7,6,24.46,10.4456,0.8571,0.8571,1.0000,0,0,0,0.0000,0.0000,0.0000,0.0000
v_colors_1_4,viewpoint,3,0,22.92,inf,0.0000,0.0000,0.0000,0,0,0,0.0000,0.0000,0.0000,0.0000
v_colors_1_5,viewpoint,2,0,22.58,inf,0.0000,0.0000,0.0000,0,0,0,0.0000,0.0000,0.0000,0.0000
v_colors_1_6,viewpoint,0,0,23.06,inf,0.0000,0.0000,0.0000,0,0,0,0.0000,0.0000,0.0000,0.0000
v_courses_1_2,viewpoint,162,153,53.56,0.8512,0.9444,0.9506,0.9506,1,1,1,0.1488,0.7163,0.8298,0.9149
v_courses_1_3,viewpoint,93,76,51.62,1.1040,0.8280,0.8387,0.8387,1,1,1,0.0000,0.6320,0.7792,0.8896
v_courses_1_4,viewpoint,118,101,50.81,1.7383,0.8559,0.8559,0.8559,1,1,1,0.0000,0.4206,0.6523,0.8262
v_courses_1_5,viewpoint,54,37,47.49,9.6709,0.6852,0.6852,0.6852,0,0,0,0.0000,0.0000,0.0000,0.0329
v_courses_1_6,viewpoint,42,25,47.87,16.2958,0.5714,0.5952,0.5952,0,0,0,0.0000,0.0000,0.0000,0.0000
v_dirtywall_1_2,viewpoint,233,214,84.96,0.2721,0.9185,0.9185,0.9185,1,1,1,0.7279,0.9093,0.9456,0.9728
v_dirtywall_1_3,viewpoint,115,99,83.79,0.8975,0.8522,0.8696,0.8696,1,1,1,0.1025,0.7008,0.8205,0.9102
v_dirtywall_1_4,viewpoint,62,35,79.26,1.7152,0.5645,0.5645,0.5645,1,1,1,0.0000,0.4283,0.6570,0.8285
v_dirtywall_1_5,viewpoint,135,117,81.70,0.5152,0.8667,0.8815,0.8815,1,1,1,0.4848,0.8283,0.8970,0.9485
v_dirtywall_1_6,viewpoint,48,16,81.43,2.8195,0.3333,0.3333,0.3333,1,1,1,0.0000,0.0602,0.4361,0.7181
v_dogman_1_2,viewpoint,86,73,37.37,0.4817,0.8488,0.8488,0.8488,1,1,1,0.5183,0.8394,0.9037,0.9518
v_dogman_1_3,viewpoint,94,89,37.19,0.8157,0.9468,0.9468,0.9468,1,1,1,0.1843,0.7281,0.8369,0.9184
v_dogman_1_4,viewpoint,22,7,35.45,336.2168,0.3182,0.3182,0.3636,0,0,0,0.0000,0.0000,0.0000,0.0000
v_dogman_1_5,viewpoint,45,34,34.78,4.9499,0.7556,0.7556,0.7778,0,1,1,0.0000,0.0000,0.0100,0.5050
v_dogman_1_6,viewpoint,18,5,36.08,840.0554,0.0000,0.0556,0.1667,0,0,0,0.0000,0.0000,0.0000,0.0000
v_eastsouth_1_2,viewpoint,231,214,93.54,0.2381,0.9264,0.9264,0.9264,1,1,1,0.7619,0.9206,0.9524,0.9762
v_eastsouth_1_3,viewpoint,188,177,91.57,0.1444,0.9415,0.9415,0.9415,1,1,1,0.8556,0.9519,0.9711,0.9856
v_eastsouth_1_4,viewpoint,145,124,85.32,0.2237,0.8552,0.8552,0.8552,1,1,1,0.7763,0.9254,0.9553,0.9776
v_eastsouth_1_5,viewpoint,118,95,87.65,0.1230,0.8051,0.8051,0.8051,1,1,1,0.8770,0.9590,0.9754,0.9877
v_eastsouth_1_6,viewpoint,75,47,68.47,0.3035,0.6267,0.6267,0.6267,1,1,1,0.6965,0.8988,0.9393,0.9696
v_feast_1_2,viewpoint,145,119,74.74,0.4276,0.8207,0.8207,0.8207,1,1,1,0.5724,0.8575,0.9145,0.9572
v_feast_1_3,viewpoint,159,138,88.60,0.6532,0.8679,0.8679,0.8679,1,1,1,0.3468,0.7823,0.8694,0.9347
v_feast_1_4,viewpoint,77,50,71.28,1.0001,0.6494,0.6494,0.6494,1,1,1,0.0000,0.6666,0.8000,0.9000
v_feast_1_5,viewpoint,139,112,80.52,1.0621,0.8129,0.8201,0.8201,1,1,1,0.0000,0.6460,0.7876,0.8938
v_feast_1_6,viewpoint,70,48,79.87,0.6318,0.6857,0.7000,0.7000,1,1,1,0.3682,0.7894,0.8736,0.9368
v_fest_1_2,viewpoint,238,223,90.50,0.3285,0.9370,0.9412,0.9454,1,1,1,0.6715,0.8905,0.9343,0.9671
v_fest_1_3,viewpoint,101,69,94.52,1.7762,0.6733,0.7030,0.7030,1,1,1,0.0000,0.4079,0.6448,0.8224
v_fest_1_4,viewpoint,180,156,91.25,0.5769,0.8667,0.8778,0.8778,1,1,1,0.4231,0.8077,0.8846,0.9423
v_fest_1_5,viewpoint,115,82,92.64,2.3808,0.7043,0.7304,0.7304,1,1,1,0.0000,0.2064,0.5238,0.7619
v_fest_1_6,viewpoint,59,29,91.15,3.0702,0.4915,0.5085,0.5085,0,1,1,0.0000,0.0000,0.3860,0.6930
v_gardens_1_2,viewpoint,94,77,64.51,0.7562,0.8191,0.8298,0.8404,1,1,1,0.2438,0.7479,0.8488,0.9244
v_gardens_1_3,viewpoint,45,5,63.33,408.1393,0.1333,0.1556,0.2000,0,0,0,0.0000,0.0000,0.0000,0.0000
v_gardens_1_4,viewpoint,165,151,64.20,0.6574,0.9152,0.9333,0.9394,1,1,1,0.3426,0.7809,0.8685,0.9343
v_gardens_1_5,viewpoint,35,14,64.17,3.4706,0.4000,0.4286,0.4286,0,1,1,0.0000,0.0000,0.3059,0.6529
v_gardens_1_6,viewpoint,175,161,65.23,0.3819,0.9200,0.9314,0.9314,1,1,1,0.6181,0.8727,0.9236,0.9618
v_grace_1_2,viewpoint,94,78,47.88,1.3093,0.8298,0.8298,0.8298,1,1,1,0.0000,0.5636,0.7381,0.8691
v_grace_1_3,viewpoint,64,45,41.12,3.5250,0.7031,0.7031,0.7031,0,1,1,0.0000,0.0000,0.2950,0.6475
v_grace_1_4,viewpoint,52,24,41.30,1.4435,0.4615,0.4615,0.4615,1,1,1,0.0000,0.5188,0.7113,0.8557
v_grace_1_5,viewpoint,34,5,38.82,895.5307,0.1471,0.1471,0.1471,0,0,0,0.0000,0.0000,0.0000,0.0000
v_grace_1_6,viewpoint,25,5,38.38,413.6786,0.0400,0.0800,0.0800,0,0,0,0.0000,0.0000,0.0000,0.0000
v_graffiti_1_2,viewpoint,148,134,70.28,0.4302,0.9054,0.9054,0.9054,1,1,1,0.5698,0.8566,0.9140,0.9570
v_graffiti_1_3,viewpoint,75,49,73.81,1.6765,0.6533,0.6533,0.6667,1,1,1,0.0000,0.4412,0.6647,0.8323
v_graffiti_1_4,viewpoint,44,10,73.13,4.8362,0.1818,0.2273,0.2273,0,1,1,0.0000,0.0000,0.0328,0.5164
v_graffiti_1_5,viewpoint,35,5,72.46,197.8848,0.0286,0.0571,0.0571,0,0,0,0.0000,0.0000,0.0000,0.0000
v_graffiti_1_6,viewpoint,32,5,71.54,682.1614,0.0000,0.0312,0.0312,0,0,0,0.0000,0.0000,0.0000,0.0000
v_home_1_2,viewpoint,55,45,52.62,0.9450,0.8182,0.8182,0.8182,1,1,1,0.0550,0.6850,0.8110,0.9055
v_home_1_3,viewpoint,30,17,44.78,2.7091,0.5667,0.5667,0.5667,1,1,1,0.0000,0.0970,0.4582,0.7291
v_home_1_4,viewpoint,68,47,44.56,1.0951,0.6912,0.7059,0.7059,1,1,1,0.0000,0.6350,0.7810,0.8905
v_home_1_5,viewpoint,24,5,42.82,68.5260,0.2083,0.2083,0.2500,0,0,0,0.0000,0.0000,0.0000,0.0000
v_home_1_6,viewpoint,86,78,44.30,0.5548,0.9070,0.9070,0.9070,1,1,1,0.4452,0.8151,0.8890,0.9445
v_laptop_1_2,viewpoint,110,104,36.41,0.2445,0.9455,0.9545,0.9545,1,1,1,0.7555,0.9185,0.9511,0.9756
v_laptop_1_3,viewpoint,67,61,34.89,0.6245,0.9104,0.9104,0.9104,1,1,1,0.3755,0.7918,0.8751,0.9375
v_laptop_1_4,viewpoint,71,63,35.61,0.5621,0.8873,0.8873,0.8873,1,1,1,0.4379,0.8126,0.8876,0.9438
v_laptop_1_5,viewpoint,71,61,34.52,0.3529,0.8592,0.8592,0.8592,1,1,1,0.6471,0.8824,0.9294,0.9647
v_laptop_1_6,viewpoint,76,69,34.92,0.6381,0.9079,0.9079,0.9079,1,1,1,0.3619,0.7873,0.8724,0.9362
v_london_1_2,viewpoint,261,240,82.68,0.2627,0.9195,0.9464,0.9464,1,1,1,0.7373,0.9124,0.9475,0.9737
v_london_1_3,viewpoint,230,216,83.27,0.2013,0.9391,0.9478,0.9478,1,1,1,0.7987,0.9329,0.9597,0.9799
v_london_1_4,viewpoint,152,129,83.84,0.4577,0.8487,0.8684,0.8684,1,1,1,0.5423,0.8474,0.9085,0.9542
v_london_1_5,viewpoint,263,256,82.05,0.2194,0.9734,0.9734,0.9734,1,1,1,0.7806,0.9269,0.9561,0.9781
v_london_1_6,viewpoint,270,253,81.65,0.0997,0.9370,0.9481,0.9481,1,1,1,0.9003,0.9668,0.9801,0.9900
v_machines_1_2,viewpoint,105,93,58.41,1.2149,0.8762,0.8952,0.9143,1,1,1,0.0000,0.5950,0.7570,0.8785
v_machines_1_3,viewpoint,28,16,51.61,7.8955,0.5357,0.5714,0.6071,0,0,0,0.0000,0.0000,0.0000,0.2105
v_machines_1_4,viewpoint,84,71,53.60,1.3689,0.8452,0.8571,0.8810,1,1,1,0.0000,0.5437,0.7262,0.8631
v_machines_1_5,viewpoint,23,9,49.06,5.2496,0.3478,0.3478,0.3478,0,0,1,0.0000,0.0000,0.0000,0.4750
v_machines_1_6,viewpoint,105,96,50.07,0.4782,0.9143,0.9238,0.9333,1,1,1,0.5218,0.8406,0.9044,0.9522
v_man_1_2,viewpoint,130,118,59.81,1.0996,0.9077,0.9231,0.9308,1,1,1,0.0000,0.6335,0.7801,0.8900
v_man_1_3,viewpoint,63,34,52.02,3.2922,0.4921,0.5397,0.5397,0,1,1,0.0000,0.0000,0.3416,0.6708
v_man_1_4,viewpoint,31,13,46.15,6.5327,0.3871,0.4516,0.4516,0,0,1,0.0000,0.0000,0.0000,0.3467
v_man_1_5,viewpoint,93,83,48.15,2.4408,0.8925,0.9032,0.9140,1,1,1,0.0000,0.1864,0.5118,0.7559
v_man_1_6,viewpoint,95,83,54.52,1.4368,0.8737,0.8842,0.8842,1,1,1,0.0000,0.5211,0.7126,0.8563
v_maskedman_1_2,viewpoint,37,26,24.45,0.6835,0.6757,0.7297,0.7297,1,1,1,0.3165,0.7722,0.8633,0.9316
v_maskedman_1_3,viewpoint,23,20,23.60,4.0089,0.8696,0.8696,0.8696,0,1,1,0.0000,0.0000,0.1982,0.5991
v_maskedman_1_4,viewpoint,54,42,29.40,2.1962,0.7963,0.8148,0.8148,1,1,1,0.0000,0.2679,0.5608,0.7804
v_maskedman_1_5,viewpoint,58,50,29.28,1.5285,0.8621,0.8793,0.8793,1,1,1,0.0000,0.4905,0.6943,0.8472
v_maskedman_1_6,viewpoint,20,6,29.73,40.6646,0.2500,0.2500,0.2500,0,0,0,0.0000,0.0000,0.0000,0.0000
v_pomegranate_1_2,viewpoint,170,160,76.49,0.3879,0.9353,0.9412,0.9471,1,1,1,0.6121,0.8707,0.9224,0.9612
v_pomegranate_1_3,viewpoint,146,134,61.78,0.8802,0.9178,0.9247,0.9247,1,1,1,0.1198,0.7066,0.8240,0.9120
v_pomegranate_1_4,viewpoint,119,108,54.64,0.4085,0.9076,0.9076,0.9076,1,1,1,0.5915,0.8638,0.9183,0.9592
v_pomegranate_1_5,viewpoint,164,145,61.99,0.8339,0.8841,0.8963,0.9085,1,1,1,0.1661,0.7220,0.8332,0.9166
v_pomegranate_1_6,viewpoint,164,153,62.29,0.4315,0.9329,0.9329,0.9329,1,1,1,0.5685,0.8562,0.9137,0.9568
v_posters_1_2,viewpoint,68,35,96.92,115.0661,0.0000,0.0000,0.0000,0,0,0,0.0000,0.0000,0.0000,0.0000
v_posters_1_3,viewpoint,72,37,96.83,120.9429,0.0000,0.0000,0.0000,0,0,0,0.0000,0.0000,0.0000,0.0000
v_posters_1_4,viewpoint,79,49,100.40,113.1458,0.0000,0.0000,0.0000,0,0,0,0.0000,0.0000,0.0000,0.0000
v_posters_1_5,viewpoint,47,11,100.73,132.0721,0.0000,0.0000,0.0000,0,0,0,0.0000,0.0000,0.0000,0.0000
v_posters_1_6,viewpoint,45,6,104.09,235.3496,0.0000,0.0000,0.0000,0,0,0,0.0000,0.0000,0.0000,0.0000
v_samples_1_2,viewpoint,127,110,88.36,68.0637,0.0000,0.0000,0.0000,0,0,0,0.0000,0.0000,0.0000,0.0000
v_samples_1_3,viewpoint,139,116,81.30,72.3950,0.0000,0.0000,0.0000,0,0,0,0.0000,0.0000,0.0000,0.0000
v_samples_1_4,viewpoint,85,66,80.15,72.1222,0.0000,0.0000,0.0000,0,0,0,0.0000,0.0000,0.0000,0.0000
v_samples_1_5,viewpoint,139,124,76.86,80.5507,0.0000,0.0000,0.0000,0,0,0,0.0000,0.0000,0.0000,0.0000
v_samples_1_6,viewpoint,92,67,77.25,67.6913,0.0000,0.0000,0.0326,0,0,0,0.0000,0.0000,0.0000,0.0000
v_soldiers_1_2,viewpoint,42,36,33.14,0.4120,0.8810,0.8810,0.8810,1,1,1,0.5880,0.8627,0.9176,0.9588
v_soldiers_1_3,viewpoint,40,36,34.29,1.4638,0.9000,0.9000,0.9000,1,1,1,0.0000,0.5121,0.7072,0.8536
v_soldiers_1_4,viewpoint,28,22,42.84,1.5594,0.7857,0.7857,0.7857,1,1,1,0.0000,0.4802,0.6881,0.8441
v_soldiers_1_5,viewpoint,32,19,31.08,4.6623,0.5938,0.5938,0.5938,0,1,1,0.0000,0.0000,0.0675,0.5338
v_soldiers_1_6,viewpoint,40,31,33.71,97.0903,0.0000,0.0000,0.0000,0,0,0,0.0000,0.0000,0.0000,0.0000
v_strand_1_2,viewpoint,157,152,48.60,0.3071,0.9682,0.9682,0.9682,1,1,1,0.6929,0.8976,0.9386,0.9693
v_strand_1_3,viewpoint,97,85,45.93,1.2149,0.8557,0.8763,0.8763,1,1,1,0.0000,0.5950,0.7570,0.8785
v_strand_1_4,viewpoint,95,87,43.01,1.3866,0.9158,0.9158,0.9158,1,1,1,0.0000,0.5378,0.7227,0.8613
v_strand_1_5,viewpoint,69,61,40.45,1.3471,0.8841,0.8986,0.8986,1,1,1,0.0000,0.5510,0.7306,0.8653
v_strand_1_6,viewpoint,44,35,40.10,4.1783,0.7273,0.7955,0.7955,0,1,1,0.0000,0.0000,0.1643,0.5822
v_sunseason_1_2,viewpoint,279,216,78.35,0.1614,0.7742,0.7778,0.7778,1,1,1,0.8386,0.9462,0.9677,0.9839
v_sunseason_1_3,viewpoint,241,155,77.07,0.3004,0.6432,0.6432,0.6473,1,1,1,0.6996,0.8999,0.9399,0.9700
v_sunseason_1_4,viewpoint,121,51,84.78,0.6259,0.4215,0.4215,0.4215,1,1,1,0.3741,0.7914,0.8748,0.9374
v_sunseason_1_5,viewpoint,89,29,86.91,1.7425,0.3258,0.3258,0.3258,1,1,1,0.0000,0.4192,0.6515,0.8258
v_sunseason_1_6,viewpoint,56,5,81.10,94.0037,0.1964,0.1964,0.1964,0,0,0,0.0000,0.0000,0.0000,0.0000
v_tabletop_1_2,viewpoint,164,137,91.13,0.2801,0.8293,0.8354,0.8354,1,1,1,0.7199,0.9066,0.9440,0.9720
v_tabletop_1_3,viewpoint,61,10,87.30,3.8299,0.1311,0.1803,0.1803,0,1,1,0.0000,0.0000,0.2340,0.6170
v_tabletop_1_4,viewpoint,60,7,85.38,642.5159,0.1333,0.1500,0.1667,0,0,0,0.0000,0.0000,0.0000,0.0000
v_tabletop_1_5,viewpoint,65,13,87.74,0.7927,0.2154,0.2154,0.2154,1,1,1,0.2073,0.7358,0.8415,0.9207
v_tabletop_1_6,viewpoint,57,5,86.73,270.6139,0.0702,0.0702,0.0877,0,0,0,0.0000,0.0000,0.0000,0.0000
v_tempera_1_2,viewpoint,57,54,36.88,0.3001,0.9474,0.9474,0.9474,1,1,1,0.6999,0.9000,0.9400,0.9700
v_tempera_1_3,viewpoint,47,39,36.26,0.7618,0.8298,0.8511,0.8511,1,1,1,0.2382,0.7461,0.8476,0.9238
v_tempera_1_4,viewpoint,46,41,35.19,0.3465,0.8913,0.8913,0.8913,1,1,1,0.6535,0.8845,0.9307,0.9654
v_tempera_1_5,viewpoint,34,21,35.66,1.2746,0.6176,0.6471,0.6471,1,1,1,0.0000,0.5751,0.7451,0.8725
v_tempera_1_6,viewpoint,12,5,34.57,139.5393,0.4167,0.4167,0.4167,0,0,0,0.0000,0.0000,0.0000,0.0000
v_there_1_2,viewpoint,32,29,25.69,2.2264,0.8438,0.9375,0.9375,1,1,1,0.0000,0.2579,0.5547,0.7774
v_there_1_3,viewpoint,16,4,27.20,1189.0172,0.1875,0.1875,0.1875,0,0,0,0.0000,0.0000,0.0000,0.0000
v_there_1_4,viewpoint,7,4,27.91,261.0475,0.0000,0.0000,0.0000,0,0,0,0.0000,0.0000,0.0000,0.0000
v_there_1_5,viewpoint,12,4,28.52,164.2437,0.0000,0.0000,0.0833,0,0,0,0.0000,0.0000,0.0000,0.0000
v_there_1_6,viewpoint,14,4,29.28,179.7707,0.0714,0.0714,0.0714,0,0,0,0.0000,0.0000,0.0000,0.0000
v_underground_1_2,viewpoint,218,202,84.89,0.1163,0.9266,0.9312,0.9312,1,1,1,0.8837,0.9612,0.9767,0.9884
v_underground_1_3,viewpoint,136,103,75.33,0.7365,0.7574,0.7647,0.7721,1,1,1,0.2635,0.7545,0.8527,0.9264
v_underground_1_4,viewpoint,72,46,63.66,2.4976,0.6389,0.6528,0.6667,1,1,1,0.0000,0.1675,0.5005,0.7502
v_underground_1_5,viewpoint,54,24,66.74,0.9955,0.4444,0.4444,0.4815,1,1,1,0.0045,0.6682,0.8009,0.9005
v_underground_1_6,viewpoint,40,5,58.59,388.2442,0.1000,0.1250,0.1250,0,0,0,0.0000,0.0000,0.0000,0.0000
v_vitro_1_2,viewpoint,240,216,98.27,0.2473,0.9000,0.9000,0.9000,1,1,1,0.7527,0.9176,0.9505,0.9753
v_vitro_1_3,viewpoint,151,117,89.62,0.2795,0.7748,0.7748,0.7748,1,1,1,0.7205,0.9068,0.9441,0.9720
v_vitro_1_4,viewpoint,80,47,84.00,0.8055,0.5875,0.5875,0.5875,1,1,1,0.1945,0.7315,0.8389,0.9194
v_vitro_1_5,viewpoint,209,184,87.49,0.3703,0.8804,0.8852,0.8852,1,1,1,0.6297,0.8766,0.9259,0.9630
v_vitro_1_6,viewpoint,131,100,85.49,0.4887,0.7634,0.7710,0.7710,1,1,1,0.5113,0.8371,0.9023,0.9511
v_wall_1_2,viewpoint,68,64,27.40,0.9508,0.9412,0.9412,0.9412,1,1,1,0.0492,0.6831,0.8098,0.9049
v_wall_1_3,viewpoint,57,51,27.38,1.5985,0.8947,0.8947,0.8947,1,1,1,0.0000,0.4672,0.6803,0.8402
v_wall_1_4,viewpoint,79,76,29.05,0.2250,0.9620,0.9620,0.9620,1,1,1,0.7750,0.9250,0.9550,0.9775
v_wall_1_5,viewpoint,37,27,29.10,3.3071,0.7027,0.7568,0.7568,0,1,1,0.0000,0.0000,0.3386,0.6693
v_wall_1_6,viewpoint,41,32,29.57,1.8853,0.7561,0.7805,0.7805,1,1,1,0.0000,0.3716,0.6229,0.8115
v_wapping_1_2,viewpoint,61,41,55.33,1.5108,0.6557,0.6885,0.6885,1,1,1,0.0000,0.4964,0.6978,0.8489
v_wapping_1_3,viewpoint,30,12,52.80,2.0799,0.4000,0.4333,0.4667,1,1,1,0.0000,0.3067,0.5840,0.7920
v_wapping_1_4,viewpoint,28,8,49.41,9.0142,0.2857,0.3214,0.3214,0,0,0,0.0000,0.0000,0.0000,0.0986
v_wapping_1_5,viewpoint,21,6,48.73,201.3590,0.2857,0.2857,0.2857,0,0,0,0.0000,0.0000,0.0000,0.0000
v_wapping_1_6,viewpoint,11,4,45.99,320.0386,0.0000,0.0000,0.0000,0,0,0,0.0000,0.0000,0.0000,0.0000
v_war_1_2,viewpoint,87,59,63.99,1.5826,0.6782,0.7011,0.7126,1,1,1,0.0000,0.4725,0.6835,0.8417
v_war_1_3,viewpoint,56,22,55.77,4.2385,0.3929,0.4107,0.4107,0,1,1,0.0000,0.0000,0.1523,0.5762
v_war_1_4,viewpoint,178,164,65.03,0.4835,0.9213,0.9213,0.9213,1,1,1,0.5165,0.8388,0.9033,0.9517
v_war_1_5,viewpoint,126,107,63.70,0.5554,0.8413,0.8571,0.8571,1,1,1,0.4446,0.8149,0.8889,0.9445
v_war_1_6,viewpoint,29,13,52.42,4.5718,0.4483,0.4483,0.4483,0,1,1,0.0000,0.0000,0.0856,0.5428
v_weapons_1_2,viewpoint,169,151,54.07,0.4514,0.8876,0.8994,0.8994,1,1,1,0.5486,0.8495,0.9097,0.9549
v_weapons_1_3,viewpoint,84,62,51.89,0.6668,0.7381,0.7619,0.7619,1,1,1,0.3332,0.7777,0.8666,0.9333
v_weapons_1_4,viewpoint,135,119,58.35,0.8606,0.8815,0.8815,0.8889,1,1,1,0.1394,0.7131,0.8279,0.9139
v_weapons_1_5,viewpoint,112,102,49.80,0.6837,0.9107,0.9107,0.9107,1,1,1,0.3163,0.7721,0.8633,0.9316
v_weapons_1_6,viewpoint,78,67,46.34,2.2622,0.8590,0.8590,0.8590,1,1,1,0.0000,0.2459,0.5476,0.7738
v_woman_1_2,viewpoint,54,42,43.14,46.2310,0.0000,0.0000,0.0000,0,0,0,0.0000,0.0000,0.0000,0.0000
v_woman_1_3,viewpoint,54,45,39.25,49.3619,0.0000,0.0000,0.0000,0,0,0,0.0000,0.0000,0.0000,0.0000
v_woman_1_4,viewpoint,38,24,40.35,50.6840,0.0000,0.0000,0.0000,0,0,0,0.0000,0.0000,0.0000,0.0000
v_woman_1_5,viewpoint,34,18,44.91,44.5544,0.0000,0.0000,0.0000,0,0,0,0.0000,0.0000,0.0000,0.0000
v_woman_1_6,viewpoint,18,8,37.56,46.6791,0.0000,0.0000,0.0000,0,0,0,0.0000,0.0000,0.0000,0.0000
v_wormhole_1_2,viewpoint,115,97,64.38,1.0207,0.8522,0.8609,0.8696,1,1,1,0.0000,0.6598,0.7959,0.8979
v_wormhole_1_3,viewpoint,127,114,55.83,0.8873,0.8976,0.9134,0.9449,1,1,1,0.1127,0.7042,0.8225,0.9113
v_wormhole_1_4,viewpoint,154,138,57.54,1.0561,0.8961,0.9156,0.9351,1,1,1,0.0000,0.6480,0.7888,0.8944
v_wormhole_1_5,viewpoint,66,46,61.40,6.3533,0.6970,0.7121,0.7121,0,0,1,0.0000,0.0000,0.0000,0.3647
v_wormhole_1_6,viewpoint,40,12,61.84,9.0776,0.1500,0.2750,0.3000,0,0,0,0.0000,0.0000,0.0000,0.0922
v_wounded_1_2,viewpoint,64,55,42.31,0.8354,0.8594,0.8594,0.8594,1,1,1,0.1646,0.7215,0.8329,0.9165
v_wounded_1_3,viewpoint,37,20,37.48,22.2241,0.5135,0.5405,0.5405,0,0,0,0.0000,0.0000,0.0000,0.0000
v_wounded_1_4,viewpoint,15,4,33.99,556.9894,0.0667,0.0667,0.0667,0,0,0,0.0000,0.0000,0.0000,0.0000
v_wounded_1_5,viewpoint,31,14,35.99,2.3560,0.4516,0.4839,0.4839,1,1,1,0.0000,0.2147,0.5288,0.7644
v_wounded_1_6,viewpoint,16,5,35.99,437.7526,0.1875,0.1875,0.1875,0,0,0,0.0000,0.0000,0.0000,0.0000
v_yard_1_2,viewpoint,157,141,86.46,0.3921,0.8981,0.8981,0.8981,1,1,1,0.6079,0.8693,0.9216,0.9608
v_yard_1_3,viewpoint,69,55,95.00,0.8933,0.7971,0.7971,0.7971,1,1,1,0.1067,0.7022,0.8213,0.9107
v_yard_1_4,viewpoint,127,104,87.62,0.6448,0.8189,0.8425,0.8504,1,1,1,0.3552,0.7851,0.8710,0.9355
v_yard_1_5,viewpoint,65,39,84.59,4.2655,0.5692,0.6000,0.6000,0,1,1,0.0000,0.0000,0.1469,0.5734
v_yard_1_6,viewpoint,33,8,76.74,172.9017,0.2121,0.2424,0.2424,0,0,0,0.0000,0.0000,0.0000,0.0000
v_yuri_1_2,viewpoint,32,27,33.97,1.4553,0.8438,0.8438,0.8438,1,1,1,0.0000,0.5149,0.7089,0.8545
v_yuri_1_3,viewpoint,43,34,31.07,2.3498,0.7907,0.8140,0.8140,1,1,1,0.0000,0.2167,0.5300,0.7650
v_yuri_1_4,viewpoint,13,7,29.53,93.7085,0.4615,0.4615,0.5385,0,0,0,0.0000,0.0000,0.0000,0.0000
v_yuri_1_5,viewpoint,40,33,27.73,1.6047,0.8250,0.8250,0.8250,1,1,1,0.0000,0.4651,0.6791,0.8395
v_yuri_1_6,viewpoint,28,19,27.52,20.8671,0.6786,0.6786,0.6786,0,0,0,0.0000,0.0000,0.0000,0.0000
