PairName,SeqType,NumMatches,Inliers,TimeMS,H_Error,MMA@3,MMA@5,MMA@7,MHA_Acc@3,MHA_Acc@5,MHA_Acc@7,AUC@1,AUC@3,AUC@5,AUC@10
i_ajuntament_1_2,illumination,1086,1010,242.78,0.3484,0.9236,0.9650,0.9853,1,1,1,0.6516,0.8839,0.9303,0.9652
i_ajuntament_1_3,illumination,808,614,4.31,1.0269,0.7191,0.8750,0.9121,1,1,1,0.0000,0.6577,0.7946,0.8973
i_ajuntament_1_4,illumination,621,316,3.70,1.3398,0.4911,0.6457,0.7327,1,1,1,0.0000,0.5534,0.7320,0.8660
i_ajuntament_1_5,illumination,630,331,3.52,1.3172,0.5032,0.6571,0.7492,1,1,1,0.0000,0.5609,0.7366,0.8683
i_ajuntament_1_6,illumination,654,331,3.51,1.2114,0.5031,0.6407,0.7523,1,1,1,0.0000,0.5962,0.7577,0.8789
i_autannes_1_2,illumination,1105,1003,10.76,0.2691,0.9050,0.9511,0.9683,1,1,1,0.7309,0.9103,0.9462,0.9731
i_autannes_1_3,illumination,1034,882,3.72,0.0000,0.8588,0.9072,0.9410,1,1,1,1.0000,1.0000,1.0000,1.0000
i_autannes_1_4,illumination,1053,671,4.33,1.4194,0.6230,0.7882,0.8500,1,1,1,0.0000,0.5269,0.7161,0.8581
i_autannes_1_5,illumination,1069,706,4.62,1.3307,0.6614,0.7708,0.8279,1,1,1,0.0000,0.5564,0.7339,0.8669
i_autannes_1_6,illumination,1239,984,4.18,0.8212,0.7950,0.8789,0.9225,1,1,1,0.1788,0.7263,0.8358,0.9179
i_bologna_1_2,illumination,716,673,9.29,0.5387,0.9413,0.9735,0.9916,1,1,1,0.4613,0.8204,0.8923,0.9461
i_bologna_1_3,illumination,692,600,3.21,0.4071,0.8656,0.9321,0.9552,1,1,1,0.5929,0.8643,0.9186,0.9593
i_bologna_1_4,illumination,679,603,3.16,0.8879,0.8881,0.9455,0.9647,1,1,1,0.1121,0.7040,0.8224,0.9112
i_bologna_1_5,illumination,659,571,3.30,1.3924,0.8649,0.9226,0.9530,1,1,1,0.0000,0.5359,0.7215,0.8608
i_bologna_1_6,illumination,661,565,3.25,1.5889,0.8472,0.9123,0.9470,1,1,1,0.0000,0.4704,0.6822,0.8411
i_books_1_2,illumination,696,621,3.28,0.0000,0.8951,0.9282,0.9425,1,1,1,1.0000,1.0000,1.0000,1.0000
i_books_1_3,illumination,868,787,3.41,0.2946,0.8998,0.9309,0.9562,1,1,1,0.7054,0.9018,0.9411,0.9705
i_books_1_4,illumination,875,808,3.37,0.2877,0.9211,0.9451,0.9611,1,1,1,0.7123,0.9041,0.9425,0.9712
i_books_1_5,illumination,900,835,3.34,0.0000,0.9278,0.9522,0.9622,1,1,1,1.0000,1.0000,1.0000,1.0000
i_books_1_6,illumination,778,706,3.26,0.0000,0.9075,0.9242,0.9473,1,1,1,1.0000,1.0000,1.0000,1.0000
i_boutique_1_2,illumination,1388,1260,4.08,0.4452,0.8999,0.9445,0.9676,1,1,1,0.5548,0.8516,0.9110,0.9555
i_boutique_1_3,illumination,1433,1227,4.41,0.3516,0.8486,0.9267,0.9595,1,1,1,0.6484,0.8828,0.9297,0.9648
i_boutique_1_4,illumination,1435,1217,5.46,0.3892,0.8355,0.9157,0.9491,1,1,1,0.6108,0.8703,0.9222,0.9611
i_boutique_1_5,illumination,1087,677,4.83,0.6679,0.6145,0.7268,0.7884,1,1,1,0.3321,0.7774,0.8664,0.9332
i_boutique_1_6,illumination,1068,695,4.47,0.4953,0.6386,0.7285,0.7903,1,1,1,0.5047,0.8349,0.9009,0.9505
i_bridger_1_2,illumination,1542,1333,10.36,0.4655,0.8560,0.9481,0.9792,1,1,1,0.5345,0.8448,0.9069,0.9535
i_bridger_1_3,illumination,1411,1151,4.09,0.5136,0.8016,0.9029,0.9433,1,1,1,0.4864,0.8288,0.8973,0.9486
i_bridger_1_4,illumination,1291,1095,4.20,0.5370,0.8428,0.9311,0.9582,1,1,1,0.4630,0.8210,0.8926,0.9463
i_bridger_1_5,illumination,1054,857,3.93,1.0647,0.8017,0.9042,0.9658,1,1,1,0.0000,0.6451,0.7871,0.8935
i_bridger_1_6,illumination,384,231,3.11,2.5052,0.5833,0.6849,0.7500,1,1,1,0.0000,0.1649,0.4990,0.7495
i_brooklyn_1_2,illumination,1454,1174,4.47,0.5814,0.7999,0.8975,0.9470,1,1,1,0.4186,0.8062,0.8837,0.9419
i_brooklyn_1_3,illumination,1503,1362,4.76,1.2292,0.8856,0.9548,0.9854,1,1,1,0.0000,0.5903,0.7542,0.8771
i_brooklyn_1_4,illumination,1239,873,5.12,1.0024,0.6828,0.8119,0.8862,1,1,1,0.0000,0.6659,0.7995,0.8998
i_brooklyn_1_5,illumination,1502,1331,4.64,1.4226,0.8502,0.9427,0.9740,1,1,1,0.0000,0.5258,0.7155,0.8577
i_brooklyn_1_6,illumination,1418,1119,4.56,1.4503,0.7496,0.8843,0.9436,1,1,1,0.0000,0.5166,0.7099,0.8550
i_castle_1_2,illumination,1290,811,5.69,1.1507,0.6186,0.7333,0.8062,1,1,1,0.0000,0.6164,0.7699,0.8849
i_castle_1_3,illumination,1440,1187,5.35,0.3176,0.8250,0.9021,0.9333,1,1,1,0.6824,0.8941,0.9365,0.9682
i_castle_1_4,illumination,1284,1040,4.45,0.5584,0.7983,0.8769,0.9097,1,1,1,0.4416,0.8139,0.8883,0.9442
i_castle_1_5,illumination,967,617,3.99,0.6953,0.6184,0.7435,0.7973,1,1,1,0.3047,0.7682,0.8609,0.9305
i_castle_1_6,illumination,1085,654,4.88,0.7198,0.5935,0.7244,0.7705,1,1,1,0.2802,0.7601,0.8560,0.9280
i_chestnuts_1_2,illumination,1258,1129,3.98,0.1535,0.8935,0.9483,0.9746,1,1,1,0.8465,0.9488,0.9693,0.9847
i_chestnuts_1_3,illumination,1253,1103,3.91,0.0000,0.8827,0.9417,0.9673,1,1,1,1.0000,1.0000,1.0000,1.0000
i_chestnuts_1_4,illumination,1253,1094,4.42,0.1162,0.8683,0.9338,0.9705,1,1,1,0.8838,0.9613,0.9768,0.9884
i_chestnuts_1_5,illumination,1170,1000,3.88,0.1609,0.8538,0.9214,0.9496,1,1,1,0.8391,0.9464,0.9678,0.9839
i_chestnuts_1_6,illumination,1057,876,4.02,0.4091,0.8184,0.8921,0.9300,1,1,1,0.5909,0.8636,0.9182,0.9591
i_crownday_1_2,illumination,1112,788,7.70,0.9165,0.7023,0.8237,0.9002,1,1,1,0.0835,0.6945,0.8167,0.9083
i_crownday_1_3,illumination,1233,972,4.39,1.1777,0.7843,0.8759,0.9408,1,1,1,0.0000,0.6074,0.7645,0.8822
i_crownday_1_4,illumination,1287,1067,4.35,0.8232,0.8275,0.9052,0.9518,1,1,1,0.1768,0.7256,0.8354,0.9177
i_crownday_1_5,illumination,1355,1206,4.09,0.0000,0.8915,0.9387,0.9683,1,1,1,1.0000,1.0000,1.0000,1.0000
i_crownday_1_6,illumination,1109,771,4.01,0.4360,0.6889,0.8088,0.8918,1,1,1,0.5640,0.8547,0.9128,0.9564
i_dome_1_2,illumination,1361,1272,4.07,0.0000,0.9368,0.9618,0.9743,1,1,1,1.0000,1.0000,1.0000,1.0000
i_dome_1_3,illumination,799,570,4.53,0.8957,0.7134,0.8085,0.8611,1,1,1,0.1043,0.7014,0.8209,0.9104
i_dome_1_4,illumination,816,586,4.19,0.6263,0.7132,0.7966,0.8578,1,1,1,0.3737,0.7912,0.8747,0.9374
i_dome_1_5,illumination,832,598,4.52,0.6650,0.7163,0.8077,0.8702,1,1,1,0.3350,0.7783,0.8670,0.9335
i_dome_1_6,illumination,1137,952,4.15,0.7410,0.8338,0.9059,0.9296,1,1,1,0.2590,0.7530,0.8518,0.9259
i_duda_1_2,illumination,683,667,3.23,0.2305,0.9766,0.9927,0.9985,1,1,1,0.7695,0.9232,0.9539,0.9770
i_duda_1_3,illumination,671,647,3.29,0.4416,0.9583,0.9821,0.9940,1,1,1,0.5584,0.8528,0.9117,0.9558
i_duda_1_4,illumination,636,604,3.14,0.4175,0.9481,0.9780,0.9906,1,1,1,0.5825,0.8608,0.9165,0.9582
i_duda_1_5,illumination,596,558,3.13,0.4724,0.9329,0.9748,0.9832,1,1,1,0.5276,0.8425,0.9055,0.9528
i_duda_1_6,illumination,494,440,3.10,0.7243,0.8887,0.9413,0.9717,1,1,1,0.2757,0.7586,0.8551,0.9276
i_fenis_1_2,illumination,1626,1512,4.10,0.2400,0.9256,0.9625,0.9797,1,1,1,0.7600,0.9200,0.9520,0.9760
i_fenis_1_3,illumination,1406,1120,4.26,0.4927,0.7959,0.8720,0.9118,1,1,1,0.5073,0.8358,0.9015,0.9507
i_fenis_1_4,illumination,1032,545,4.31,0.9349,0.5155,0.6172,0.6754,1,1,1,0.0651,0.6884,0.8130,0.9065
i_fenis_1_5,illumination,854,403,3.81,1.0109,0.4473,0.5597,0.6171,1,1,1,0.0000,0.6630,0.7978,0.8989
i_fenis_1_6,illumination,938,495,3.96,1.3103,0.5107,0.6183,0.6791,1,1,1,0.0000,0.5632,0.7379,0.8690
i_fog_1_2,illumination,1663,1532,4.09,0.1775,0.9224,0.9645,0.9826,1,1,1,0.8225,0.9408,0.9645,0.9823
i_fog_1_3,illumination,1409,1241,4.79,0.2632,0.8843,0.9226,0.9468,1,1,1,0.7368,0.9123,0.9474,0.9737
i_fog_1_4,illumination,1414,1214,4.61,0.3115,0.8600,0.9151,0.9427,1,1,1,0.6885,0.8962,0.9377,0.9689
i_fog_1_5,illumination,867,729,3.69,0.5045,0.8408,0.8720,0.8835,1,1,1,0.4955,0.8318,0.8991,0.9496
i_fog_1_6,illumination,770,633,4.69,0.4335,0.8260,0.8571,0.8753,1,1,1,0.5665,0.8555,0.9133,0.9567
i_fruits_1_2,illumination,1282,1197,9.97,0.1623,0.9314,0.9743,0.9813,1,1,1,0.8377,0.9459,0.9675,0.9838
i_fruits_1_3,illumination,1233,1088,4.35,0.3721,0.8816,0.9521,0.9676,1,1,1,0.6279,0.8760,0.9256,0.9628
i_fruits_1_4,illumination,1252,1109,4.16,0.3475,0.8794,0.9497,0.9688,1,1,1,0.6525,0.8842,0.9305,0.9652
i_fruits_1_5,illumination,1230,1070,4.20,0.4962,0.8626,0.9285,0.9537,1,1,1,0.5038,0.8346,0.9008,0.9504
i_fruits_1_6,illumination,1244,1095,4.25,0.3267,0.8738,0.9526,0.9719,1,1,1,0.6733,0.8911,0.9347,0.9673
i_gonnenberg_1_2,illumination,1556,1430,4.10,0.0000,0.9242,0.9505,0.9653,1,1,1,1.0000,1.0000,1.0000,1.0000
i_gonnenberg_1_3,illumination,1548,1409,4.00,0.6568,0.9057,0.9457,0.9632,1,1,1,0.3432,0.7811,0.8686,0.9343
i_gonnenberg_1_4,illumination,1472,1313,4.00,0.6697,0.8865,0.9266,0.9443,1,1,1,0.3303,0.7768,0.8661,0.9330
i_gonnenberg_1_5,illumination,1515,1346,4.03,0.5377,0.8871,0.9314,0.9538,1,1,1,0.4623,0.8208,0.8925,0.9462
i_gonnenberg_1_6,illumination,1515,1362,3.92,0.5147,0.8964,0.9294,0.9472,1,1,1,0.4853,0.8284,0.8971,0.9485
i_greenhouse_1_2,illumination,1477,1263,4.29,0.3092,0.8565,0.9140,0.9472,1,1,1,0.6908,0.8969,0.9382,0.9691
i_greenhouse_1_3,illumination,1431,1236,4.17,0.4458,0.8651,0.9126,0.9378,1,1,1,0.5542,0.8514,0.9108,0.9554
i_greenhouse_1_4,illumination,1358,1091,4.12,0.4362,0.7982,0.8652,0.8918,1,1,1,0.5638,0.8546,0.9128,0.9564
i_greenhouse_1_5,illumination,1357,1092,4.21,0.5773,0.7996,0.8629,0.8998,1,1,1,0.4227,0.8076,0.8845,0.9423
i_greenhouse_1_6,illumination,1215,895,4.42,0.8821,0.7300,0.8016,0.8395,1,1,1,0.1179,0.7060,0.8236,0.9118
i_greentea_1_2,illumination,1215,1074,3.92,0.0000,0.8872,0.9210,0.9383,1,1,1,1.0000,1.0000,1.0000,1.0000
i_greentea_1_3,illumination,1571,1468,4.63,0.0000,0.9376,0.9663,0.9771,1,1,1,1.0000,1.0000,1.0000,1.0000
i_greentea_1_4,illumination,1579,1502,4.65,0.2503,0.9500,0.9721,0.9835,1,1,1,0.7497,0.9166,0.9499,0.9750
i_greentea_1_5,illumination,1531,1439,5.06,0.3731,0.9393,0.9615,0.9752,1,1,1,0.6269,0.8756,0.9254,0.9627
i_greentea_1_6,illumination,1355,1233,4.38,0.0000,0.9159,0.9535,0.9712,1,1,1,1.0000,1.0000,1.0000,1.0000
i_indiana_1_2,illumination,1398,1116,4.33,0.6597,0.7861,0.8820,0.9249,1,1,1,0.3403,0.7801,0.8681,0.9340
i_indiana_1_3,illumination,1359,1030,4.89,0.5698,0.7513,0.8469,0.8999,1,1,1,0.4302,0.8101,0.8860,0.9430
i_indiana_1_4,illumination,1345,957,4.22,0.7104,0.7026,0.8119,0.8743,1,1,1,0.2896,0.7632,0.8579,0.9290
i_indiana_1_5,illumination,1279,872,4.71,0.6937,0.6763,0.7873,0.8538,1,1,1,0.3063,0.7688,0.8613,0.9306
i_indiana_1_6,illumination,1228,808,4.55,0.8021,0.6409,0.7638,0.8306,1,1,1,0.1979,0.7326,0.8396,0.9198
i_kions_1_2,illumination,768,621,9.08,1.0933,0.7812,0.8919,0.9180,1,1,1,0.0000,0.6356,0.7813,0.8907
i_kions_1_3,illumination,711,500,3.73,0.3335,0.6934,0.8059,0.8523,1,1,1,0.6665,0.8888,0.9333,0.9666
i_kions_1_4,illumination,659,485,3.33,1.1442,0.7193,0.8558,0.9029,1,1,1,0.0000,0.6186,0.7712,0.8856
i_kions_1_5,illumination,666,489,3.30,1.1622,0.7117,0.8544,0.8934,1,1,1,0.0000,0.6126,0.7676,0.8838
i_kions_1_6,illumination,700,477,3.37,0.5782,0.6729,0.7829,0.8343,1,1,1,0.4218,0.8073,0.8844,0.9422
i_ktirio_1_2,illumination,1129,1077,3.56,0.1801,0.9539,0.9752,0.9823,1,1,1,0.8199,0.9400,0.9640,0.9820
i_ktirio_1_3,illumination,911,733,4.88,0.8168,0.7903,0.8617,0.8968,1,1,1,0.1832,0.7277,0.8366,0.9183
i_ktirio_1_4,illumination,814,572,3.73,0.6951,0.6916,0.7875,0.8378,1,1,1,0.3049,0.7683,0.8610,0.9305
i_ktirio_1_5,illumination,862,665,4.63,0.8231,0.7599,0.8283,0.8666,1,1,1,0.1769,0.7256,0.8354,0.9177
i_ktirio_1_6,illumination,734,487,3.58,0.7236,0.6608,0.7548,0.8079,1,1,1,0.2764,0.7588,0.8553,0.9276
i_kurhaus_1_2,illumination,1616,1488,4.49,0.0000,0.9245,0.9610,0.9740,1,1,1,1.0000,1.0000,1.0000,1.0000
i_kurhaus_1_3,illumination,1504,1314,4.49,0.3447,0.8723,0.9275,0.9608,1,1,1,0.6553,0.8851,0.9311,0.9655
i_kurhaus_1_4,illumination,1412,1180,4.27,0.2990,0.8322,0.8980,0.9348,1,1,1,0.7010,0.9003,0.9402,0.9701
i_kurhaus_1_5,illumination,1339,1056,4.58,0.5606,0.7864,0.8611,0.8947,1,1,1,0.4394,0.8131,0.8879,0.9439
i_kurhaus_1_6,illumination,1308,969,4.22,0.7006,0.7370,0.8333,0.8708,1,1,1,0.2994,0.7665,0.8599,0.9299
i_leuven_1_2,illumination,1063,988,3.69,0.9057,0.9257,0.9708,0.9887,1,1,1,0.0943,0.6981,0.8189,0.9094
i_leuven_1_3,illumination,1040,960,3.70,0.7891,0.9269,0.9721,0.9865,1,1,1,0.2109,0.7370,0.8422,0.9211
i_leuven_1_4,illumination,1030,944,3.73,2.1922,0.9126,0.9709,0.9835,1,1,1,0.0000,0.2693,0.5616,0.7808
i_leuven_1_5,illumination,969,854,3.63,1.9906,0.8762,0.9412,0.9598,1,1,1,0.0000,0.3365,0.6019,0.8009
i_leuven_1_6,illumination,910,772,3.51,7.4340,0.6890,0.8385,0.8956,0,0,0,0.0000,0.0000,0.0000,0.2566
i_lionday_1_2,illumination,1076,730,4.27,1.8972,0.6645,0.7528,0.8169,1,1,1,0.0000,0.3676,0.6206,0.8103
i_lionday_1_3,illumination,1087,793,4.84,1.4971,0.7305,0.8197,0.8730,1,1,1,0.0000,0.5010,0.7006,0.8503
i_lionday_1_4,illumination,877,403,5.40,3.3698,0.3888,0.5519,0.6625,0,1,1,0.0000,0.0000,0.3260,0.6630
i_lionday_1_5,illumination,973,537,3.92,2.6262,0.4687,0.6331,0.7318,1,1,1,0.0000,0.1246,0.4748,0.7374
i_lionday_1_6,illumination,1121,782,4.12,2.0811,0.6744,0.7930,0.8457,1,1,1,0.0000,0.3063,0.5838,0.7919
i_lionnight_1_2,illumination,1208,1048,5.45,1.3242,0.8601,0.8957,0.9089,1,1,1,0.0000,0.5586,0.7352,0.8676
i_lionnight_1_3,illumination,1010,823,3.83,2.2198,0.7990,0.8554,0.8752,1,1,1,0.0000,0.2601,0.5560,0.7780
i_lionnight_1_4,illumination,1350,1292,3.99,0.7464,0.9504,0.9741,0.9793,1,1,1,0.2536,0.7512,0.8507,0.9254
i_lionnight_1_5,illumination,1257,1166,4.04,1.2067,0.9228,0.9515,0.9554,1,1,1,0.0000,0.5978,0.7587,0.8793
i_lionnight_1_6,illumination,1161,1015,3.90,1.4639,0.8674,0.8949,0.9027,1,1,1,0.0000,0.5120,0.7072,0.8536
i_londonbridge_1_2,illumination,1067,980,3.73,1.1098,0.9203,0.9653,0.9878,1,1,1,0.0000,0.6301,0.7780,0.8890
i_londonbridge_1_3,illumination,1040,958,3.59,1.0497,0.8971,0.9663,0.9827,1,1,1,0.0000,0.6501,0.7901,0.8950
i_londonbridge_1_4,illumination,1019,857,3.93,2.4780,0.7772,0.9274,0.9647,1,1,1,0.0000,0.1740,0.5044,0.7522
i_londonbridge_1_5,illumination,842,464,4.05,3.4928,0.5226,0.6734,0.7957,0,1,1,0.0000,0.0000,0.3014,0.6507
i_londonbridge_1_6,illumination,980,838,3.71,0.8973,0.8480,0.9265,0.9571,1,1,1,0.1027,0.7009,0.8205,0.9103
i_melon_1_2,illumination,876,826,3.72,0.3270,0.9452,0.9829,0.9909,1,1,1,0.6730,0.8910,0.9346,0.9673
i_melon_1_3,illumination,795,682,3.92,0.7512,0.8566,0.9245,0.9597,1,1,1,0.2488,0.7496,0.8498,0.9249
i_melon_1_4,illumination,612,374,3.32,1.5680,0.6062,0.7141,0.8023,1,1,1,0.0000,0.4773,0.6864,0.8432
i_melon_1_5,illumination,814,662,3.96,1.2762,0.8084,0.8796,0.9300,1,1,1,0.0000,0.5746,0.7448,0.8724
i_melon_1_6,illumination,778,603,3.41,1.7185,0.7622,0.8573,0.9100,1,1,1,0.0000,0.4272,0.6563,0.8281
i_miniature_1_2,illumination,1550,1443,4.11,0.0000,0.9361,0.9748,0.9865,1,1,1,1.0000,1.0000,1.0000,1.0000
i_miniature_1_3,illumination,1403,1257,4.89,0.7340,0.8838,0.9394,0.9722,1,1,1,0.2660,0.7553,0.8532,0.9266
i_miniature_1_4,illumination,1057,802,4.04,0.7245,0.7398,0.8278,0.8704,1,1,1,0.2755,0.7585,0.8551,0.9275
i_miniature_1_5,illumination,687,380,3.73,1.2120,0.5473,0.6390,0.6987,1,1,1,0.0000,0.5960,0.7576,0.8788
i_miniature_1_6,illumination,1365,1205,4.27,0.6488,0.8718,0.9385,0.9692,1,1,1,0.3512,0.7837,0.8702,0.9351
i_nescafe_1_2,illumination,965,809,3.76,0.0000,0.8425,0.8943,0.9254,1,1,1,1.0000,1.0000,1.0000,1.0000
i_nescafe_1_3,illumination,1099,946,3.70,0.9385,0.8590,0.9126,0.9372,1,1,1,0.0615,0.6872,0.8123,0.9062
i_nescafe_1_4,illumination,1148,1006,3.60,0.0000,0.8824,0.9216,0.9399,1,1,1,1.0000,1.0000,1.0000,1.0000
i_nescafe_1_5,illumination,996,845,3.44,0.0000,0.8564,0.9046,0.9297,1,1,1,1.0000,1.0000,1.0000,1.0000
i_nescafe_1_6,illumination,1072,853,3.64,0.0000,0.7985,0.8666,0.9095,1,1,1,1.0000,1.0000,1.0000,1.0000
i_nijmegen_1_2,illumination,1558,1248,4.70,0.9474,0.7715,0.8819,0.9288,1,1,1,0.0526,0.6842,0.8105,0.9053
i_nijmegen_1_3,illumination,1619,1341,4.84,0.7784,0.7986,0.8968,0.9389,1,1,1,0.2216,0.7405,0.8443,0.9222
i_nijmegen_1_4,illumination,1036,632,4.32,1.3813,0.6042,0.7317,0.7954,1,1,1,0.0000,0.5396,0.7237,0.8619
i_nijmegen_1_5,illumination,1595,1282,4.60,0.7740,0.7680,0.8752,0.9310,1,1,1,0.2260,0.7420,0.8452,0.9226
i_nijmegen_1_6,illumination,1555,1233,4.73,0.6769,0.7762,0.8823,0.9357,1,1,1,0.3231,0.7744,0.8646,0.9323
i_nuts_1_2,illumination,1407,1101,4.64,0.5749,0.7754,0.8792,0.9268,1,1,1,0.4251,0.8084,0.8850,0.9425
i_nuts_1_3,illumination,1165,772,5.26,0.0000,0.6773,0.7940,0.8524,1,1,1,1.0000,1.0000,1.0000,1.0000
i_nuts_1_4,illumination,903,449,6.07,0.6377,0.4939,0.6467,0.7287,1,1,1,0.3623,0.7874,0.8725,0.9362
i_nuts_1_5,illumination,709,261,4.52,1.5359,0.3583,0.4880,0.5952,1,1,1,0.0000,0.4880,0.6928,0.8464
i_nuts_1_6,illumination,646,147,5.03,2.5322,0.2276,0.3235,0.4056,1,1,1,0.0000,0.1559,0.4936,0.7468
i_objects_1_2,illumination,1502,1294,5.02,0.7646,0.8555,0.9387,0.9680,1,1,1,0.2354,0.7451,0.8471,0.9235
i_objects_1_3,illumination,1431,1122,5.23,1.3560,0.7757,0.8938,0.9476,1,1,1,0.0000,0.5480,0.7288,0.8644
i_objects_1_4,illumination,1312,900,4.32,1.2889,0.6845,0.8148,0.8933,1,1,1,0.0000,0.5704,0.7422,0.8711
i_objects_1_5,illumination,1333,874,4.83,1.5667,0.6609,0.7937,0.8740,1,1,1,0.0000,0.4778,0.6867,0.8433
i_objects_1_6,illumination,1604,1427,4.46,0.1619,0.8934,0.9582,0.9832,1,1,1,0.8381,0.9460,0.9676,0.9838
i_parking_1_2,illumination,1035,930,3.52,0.2604,0.9014,0.9536,0.9797,1,1,1,0.7396,0.9132,0.9479,0.9740
i_parking_1_3,illumination,1040,874,3.57,0.3498,0.8462,0.9317,0.9692,1,1,1,0.6502,0.8834,0.9300,0.9650
i_parking_1_4,illumination,930,706,3.55,1.1252,0.7312,0.8602,0.9237,1,1,1,0.0000,0.6249,0.7750,0.8875
i_parking_1_5,illumination,815,501,3.60,1.2615,0.5656,0.7215,0.8000,1,1,1,0.0000,0.5795,0.7477,0.8738
i_parking_1_6,illumination,902,671,3.65,0.9012,0.7262,0.8481,0.9091,1,1,1,0.0988,0.6996,0.8198,0.9099
i_partyfood_1_2,illumination,512,503,3.13,0.0000,0.9824,0.9980,1.0000,1,1,1,1.0000,1.0000,1.0000,1.0000
i_partyfood_1_3,illumination,482,467,3.50,0.4595,0.9689,0.9876,0.9938,1,1,1,0.5405,0.8468,0.9081,0.9541
i_partyfood_1_4,illumination,461,440,3.14,0.2773,0.9544,0.9848,0.9913,1,1,1,0.7227,0.9076,0.9445,0.9723
i_partyfood_1_5,illumination,445,421,3.14,0.4782,0.9483,0.9843,0.9910,1,1,1,0.5218,0.8406,0.9044,0.9522
i_partyfood_1_6,illumination,410,379,2.91,0.8990,0.9244,0.9707,0.9927,1,1,1,0.1010,0.7003,0.8202,0.9101
i_pinard_1_2,illumination,727,659,3.70,0.5242,0.9051,0.9546,0.9739,1,1,1,0.4758,0.8253,0.8952,0.9476
i_pinard_1_3,illumination,685,506,3.34,1.5533,0.7387,0.8088,0.8526,1,1,1,0.0000,0.4822,0.6893,0.8447
i_pinard_1_4,illumination,701,524,3.77,2.1933,0.7432,0.8131,0.8659,1,1,1,0.0000,0.2689,0.5613,0.7807
i_pinard_1_5,illumination,700,545,3.59,0.0000,0.7800,0.8329,0.8814,1,1,1,1.0000,1.0000,1.0000,1.0000
i_pinard_1_6,illumination,695,555,3.36,0.0000,0.8014,0.8763,0.9165,1,1,1,1.0000,1.0000,1.0000,1.0000
i_pool_1_2,illumination,482,275,3.21,0.7379,0.5560,0.6618,0.7344,1,1,1,0.2621,0.7540,0.8524,0.9262
i_pool_1_3,illumination,367,111,3.15,2.7619,0.2970,0.3706,0.4278,1,1,1,0.0000,0.0794,0.4476,0.7238
i_pool_1_4,illumination,367,101,3.09,3.2668,0.2725,0.3406,0.3951,0,1,1,0.0000,0.0000,0.3466,0.6733
i_pool_1_5,illumination,415,168,3.33,2.0432,0.4048,0.5012,0.5711,1,1,1,0.0000,0.3189,0.5914,0.7957
i_pool_1_6,illumination,386,175,3.19,1.9168,0.4456,0.5518,0.6140,1,1,1,0.0000,0.3611,0.6166,0.8083
i_porta_1_2,illumination,1263,762,4.73,0.6724,0.6010,0.7902,0.8797,1,1,1,0.3276,0.7759,0.8655,0.9328
i_porta_1_3,illumination,1257,749,4.68,0.4716,0.6022,0.7987,0.8934,1,1,1,0.5284,0.8428,0.9057,0.9528
i_porta_1_4,illumination,1173,666,4.44,1.0176,0.5678,0.7460,0.8414,1,1,1,0.0000,0.6608,0.7965,0.8982
i_porta_1_5,illumination,624,460,3.55,0.8851,0.7292,0.8558,0.9135,1,1,1,0.1149,0.7050,0.8230,0.9115
i_porta_1_6,illumination,660,357,3.94,1.2065,0.5364,0.6606,0.7258,1,1,1,0.0000,0.5978,0.7587,0.8793
i_resort_1_2,illumination,1612,1394,4.40,0.3789,0.8666,0.9342,0.9708,1,1,1,0.6211,0.8737,0.9242,0.9621
i_resort_1_3,illumination,1774,1693,4.83,0.1777,0.9538,0.9797,0.9955,1,1,1,0.8223,0.9408,0.9645,0.9822
i_resort_1_4,illumination,1753,1665,4.76,0.1459,0.9487,0.9732,0.9903,1,1,1,0.8541,0.9514,0.9708,0.9854
i_resort_1_5,illumination,1570,1342,5.50,0.4290,0.8599,0.9197,0.9567,1,1,1,0.5710,0.8570,0.9142,0.9571
i_resort_1_6,illumination,1585,1408,5.08,0.6736,0.8801,0.9420,0.9748,1,1,1,0.3264,0.7755,0.8653,0.9326
i_salon_1_2,illumination,1790,1709,4.58,0.3303,0.9447,0.9743,0.9911,1,1,1,0.6697,0.8899,0.9339,0.9670
i_salon_1_3,illumination,1577,1396,9.56,0.3997,0.8624,0.9360,0.9613,1,1,1,0.6003,0.8668,0.9201,0.9600
i_salon_1_4,illumination,1364,1057,4.66,0.4829,0.7669,0.8732,0.9157,1,1,1,0.5171,0.8390,0.9034,0.9517
i_salon_1_5,illumination,1653,1482,5.50,0.3864,0.8893,0.9522,0.9740,1,1,1,0.6136,0.8712,0.9227,0.9614
i_salon_1_6,illumination,1517,1268,4.37,0.5504,0.8220,0.9051,0.9492,1,1,1,0.4496,0.8165,0.8899,0.9450
i_santuario_1_2,illumination,1517,1257,4.51,1.1024,0.8088,0.9071,0.9499,1,1,1,0.0000,0.6325,0.7795,0.8898
i_santuario_1_3,illumination,1535,1303,4.30,1.3073,0.8241,0.9218,0.9583,1,1,1,0.0000,0.5642,0.7385,0.8693
i_santuario_1_4,illumination,1422,1119,4.19,1.5019,0.7433,0.8664,0.9198,1,1,1,0.0000,0.4994,0.6996,0.8498
i_santuario_1_5,illumination,1510,1267,4.33,0.5226,0.8377,0.9126,0.9556,1,1,1,0.4774,0.8258,0.8955,0.9477
i_santuario_1_6,illumination,1328,1063,4.42,0.9709,0.7914,0.8886,0.9450,1,1,1,0.0291,0.6764,0.8058,0.9029
i_school_1_2,illumination,1383,1302,4.01,0.1322,0.9393,0.9776,0.9884,1,1,1,0.8678,0.9559,0.9736,0.9868
i_school_1_3,illumination,1343,1261,4.03,0.2572,0.9397,0.9754,0.9903,1,1,1,0.7428,0.9143,0.9486,0.9743
i_school_1_4,illumination,1167,976,4.18,0.5611,0.8278,0.9092,0.9400,1,1,1,0.4389,0.8130,0.8878,0.9439
i_school_1_5,illumination,1269,1069,4.13,0.6622,0.8377,0.9141,0.9480,1,1,1,0.3378,0.7793,0.8676,0.9338
i_school_1_6,illumination,919,688,3.62,1.1935,0.7312,0.8215,0.8727,1,1,1,0.0000,0.6022,0.7613,0.8807
i_ski_1_2,illumination,1721,1604,4.36,0.1956,0.9285,0.9721,0.9901,1,1,1,0.8044,0.9348,0.9609,0.9804
i_ski_1_3,illumination,1671,1505,4.66,0.3603,0.8959,0.9587,0.9767,1,1,1,0.6397,0.8799,0.9279,0.9640
i_ski_1_4,illumination,1609,1411,5.77,0.5467,0.8645,0.9422,0.9695,1,1,1,0.4533,0.8178,0.8907,0.9453
i_ski_1_5,illumination,1525,1277,5.01,0.6904,0.8243,0.9167,0.9574,1,1,1,0.3096,0.7699,0.8619,0.9310
i_ski_1_6,illumination,1508,1197,4.56,0.6517,0.7792,0.8866,0.9324,1,1,1,0.3483,0.7828,0.8697,0.9348
i_smurf_1_2,illumination,1399,1234,4.27,0.5813,0.8749,0.9257,0.9600,1,1,1,0.4187,0.8062,0.8837,0.9419
i_smurf_1_3,illumination,1388,1194,4.40,0.3323,0.8559,0.9063,0.9344,1,1,1,0.6677,0.8892,0.9335,0.9668
i_smurf_1_4,illumination,1365,1146,3.99,0.3405,0.8300,0.8916,0.9304,1,1,1,0.6595,0.8865,0.9319,0.9659
i_smurf_1_5,illumination,1323,1067,4.15,0.0000,0.8088,0.8738,0.9153,1,1,1,1.0000,1.0000,1.0000,1.0000
i_smurf_1_6,illumination,1145,787,3.82,0.0000,0.6987,0.7913,0.8515,1,1,1,1.0000,1.0000,1.0000,1.0000
i_steps_1_2,illumination,1009,957,3.54,0.4552,0.9425,0.9832,0.9921,1,1,1,0.5448,0.8483,0.9090,0.9545
i_steps_1_3,illumination,1160,1071,3.74,0.7677,0.9190,0.9621,0.9845,1,1,1,0.2323,0.7441,0.8465,0.9232
i_steps_1_4,illumination,1157,1081,3.60,0.4390,0.9360,0.9767,0.9870,1,1,1,0.5610,0.8537,0.9122,0.9561
i_steps_1_5,illumination,955,821,3.58,0.9765,0.8555,0.9183,0.9435,1,1,1,0.0235,0.6745,0.8047,0.9023
i_steps_1_6,illumination,1098,977,3.61,0.5891,0.8871,0.9444,0.9709,1,1,1,0.4109,0.8036,0.8822,0.9411
i_table_1_2,illumination,1502,1294,4.18,0.7646,0.8555,0.9387,0.9680,1,1,1,0.2354,0.7451,0.8471,0.9235
i_table_1_3,illumination,1431,1122,4.19,1.3560,0.7757,0.8938,0.9476,1,1,1,0.0000,0.5480,0.7288,0.8644
i_table_1_4,illumination,1312,900,4.26,1.2889,0.6845,0.8148,0.8933,1,1,1,0.0000,0.5704,0.7422,0.8711
i_table_1_5,illumination,1333,874,4.74,1.5667,0.6609,0.7937,0.8740,1,1,1,0.0000,0.4778,0.6867,0.8433
i_table_1_6,illumination,1604,1427,4.41,0.1619,0.8934,0.9582,0.9832,1,1,1,0.8381,0.9460,0.9676,0.9838
i_tools_1_2,illumination,666,346,3.89,3.4155,0.4144,0.6051,0.7703,0,1,1,0.0000,0.0000,0.3169,0.6585
i_tools_1_3,illumination,743,564,4.67,1.2705,0.7577,0.9098,0.9704,1,1,1,0.0000,0.5765,0.7459,0.8729
i_tools_1_4,illumination,691,360,4.71,3.1751,0.4732,0.6874,0.8336,0,1,1,0.0000,0.0000,0.3650,0.6825
i_tools_1_5,illumination,692,485,4.40,2.3643,0.6893,0.8208,0.9046,1,1,1,0.0000,0.2119,0.5271,0.7636
i_tools_1_6,illumination,660,287,4.08,7.2093,0.2773,0.4348,0.6091,0,0,0,0.0000,0.0000,0.0000,0.2791
i_toy_1_2,illumination,1656,1455,4.96,0.3527,0.8768,0.9324,0.9632,1,1,1,0.6473,0.8824,0.9295,0.9647
i_toy_1_3,illumination,1597,1321,4.67,0.4057,0.8247,0.8885,0.9361,1,1,1,0.5943,0.8648,0.9189,0.9594
i_toy_1_4,illumination,1505,1106,4.57,0.8530,0.7243,0.8120,0.8691,1,1,1,0.1470,0.7157,0.8294,0.9147
i_toy_1_5,illumination,1363,857,4.57,0.9282,0.6280,0.7293,0.7887,1,1,1,0.0718,0.6906,0.8144,0.9072
i_toy_1_6,illumination,1136,541,4.95,2.0544,0.4754,0.5942,0.6673,1,1,1,0.0000,0.3152,0.5891,0.7946
i_troulos_1_2,illumination,499,441,3.09,0.7151,0.8617,0.9499,0.9739,1,1,1,0.2849,0.7616,0.8570,0.9285
i_troulos_1_3,illumination,401,321,3.06,2.7279,0.4439,0.8454,0.9127,1,1,1,0.0000,0.0907,0.4544,0.7272
i_troulos_1_4,illumination,646,594,3.13,0.3774,0.9195,0.9737,0.9876,1,1,1,0.6226,0.8742,0.9245,0.9623
i_troulos_1_5,illumination,584,461,3.12,1.4290,0.7586,0.8887,0.9384,1,1,1,0.0000,0.5237,0.7142,0.8571
i_troulos_1_6,illumination,544,462,3.05,1.6197,0.8162,0.9099,0.9577,1,1,1,0.0000,0.4601,0.6761,0.8380
i_veggies_1_2,illumination,1394,1330,4.14,0.2216,0.9498,0.9821,0.9914,1,1,1,0.7784,0.9261,0.9557,0.9778
i_veggies_1_3,illumination,1197,1014,4.90,0.5366,0.8429,0.9290,0.9490,1,1,1,0.4634,0.8211,0.8927,0.9463
i_veggies_1_4,illumination,1290,1131,4.31,0.1699,0.8729,0.9349,0.9705,1,1,1,0.8301,0.9434,0.9660,0.9830
i_veggies_1_5,illumination,1025,678,4.37,1.0760,0.6537,0.7620,0.8312,1,1,1,0.0000,0.6413,0.7848,0.8924
i_veggies_1_6,illumination,959,604,4.48,1.0741,0.6204,0.7372,0.8060,1,1,1,0.0000,0.6420,0.7852,0.8926
i_village_1_2,illumination,1393,1066,10.49,0.9137,0.7588,0.8528,0.9045,1,1,1,0.0863,0.6954,0.8173,0.9086
i_village_1_3,illumination,1386,1034,4.79,0.8234,0.7338,0.8261,0.8939,1,1,1,0.1766,0.7255,0.8353,0.9177
i_village_1_4,illumination,1397,1063,4.48,0.5015,0.7538,0.8475,0.8984,1,1,1,0.4985,0.8328,0.8997,0.9498
i_village_1_5,illumination,1626,1468,4.39,0.4007,0.9047,0.9391,0.9643,1,1,1,0.5993,0.8664,0.9199,0.9599
i_village_1_6,illumination,1359,988,4.76,0.8805,0.7167,0.8050,0.8705,1,1,1,0.1195,0.7065,0.8239,0.9120
i_yellowtent_1_2,illumination,1421,1365,3.90,0.0000,0.9627,0.9845,0.9930,1,1,1,1.0000,1.0000,1.0000,1.0000
i_yellowtent_1_3,illumination,1287,1141,3.93,0.3355,0.8648,0.9448,0.9713,1,1,1,0.6645,0.8882,0.9329,0.9664
i_yellowtent_1_4,illumination,1096,873,4.16,0.5142,0.7810,0.8805,0.9197,1,1,1,0.4858,0.8286,0.8972,0.9486
i_yellowtent_1_5,illumination,1155,896,3.84,0.0000,0.7844,0.8528,0.8788,1,1,1,1.0000,1.0000,1.0000,1.0000
i_yellowtent_1_6,illumination,1049,757,3.79,0.4564,0.7102,0.7912,0.8208,1,1,1,0.5436,0.8479,0.9087,0.9544
i_zion_1_2,illumination,1721,1573,4.33,0.3014,0.9169,0.9576,0.9802,1,1,1,0.6986,0.8995,0.9397,0.9699
i_zion_1_3,illumination,1458,1179,4.89,0.6563,0.8052,0.8793,0.9218,1,1,1,0.3437,0.7812,0.8687,0.9344
i_zion_1_4,illumination,1196,824,5.28,0.8621,0.6789,0.7634,0.8002,1,1,1,0.1379,0.7126,0.8276,0.9138
i_zion_1_5,illumination,802,402,4.31,1.7984,0.4825,0.5761,0.6197,1,1,1,0.0000,0.4005,0.6403,0.8202
i_zion_1_6,illumination,833,505,3.94,1.1427,0.5930,0.6639,0.7215,1,1,1,0.0000,0.6191,0.7715,0.8857
v_abstract_1_2,viewpoint,1592,1491,4.68,0.3911,0.9347,0.9730,0.9837,1,1,1,0.6089,0.8696,0.9218,0.9609
v_abstract_1_3,viewpoint,1544,1414,4.70,0.4792,0.9113,0.9657,0.9780,1,1,1,0.5208,0.8403,0.9042,0.9521
v_abstract_1_4,viewpoint,1177,968,4.19,1.0712,0.8207,0.9065,0.9303,1,1,1,0.0000,0.6429,0.7858,0.8929
v_abstract_1_5,viewpoint,1325,1123,4.24,0.8250,0.8506,0.8966,0.9185,1,1,1,0.1750,0.7250,0.8350,0.9175
v_abstract_1_6,viewpoint,1107,810,4.76,0.4903,0.7290,0.7958,0.8248,1,1,1,0.5097,0.8366,0.9019,0.9510
v_adam_1_2,viewpoint,876,796,3.79,0.6051,0.9132,0.9578,0.9669,1,1,1,0.3949,0.7983,0.8790,0.9395
v_adam_1_3,viewpoint,839,763,3.54,0.7374,0.8999,0.9666,0.9774,1,1,1,0.2626,0.7542,0.8525,0.9263
v_adam_1_4,viewpoint,551,395,3.30,1.4336,0.7024,0.8221,0.8730,1,1,1,0.0000,0.5221,0.7133,0.8566
v_adam_1_5,viewpoint,691,589,3.53,1.0603,0.8466,0.9219,0.9450,1,1,1,0.0000,0.6466,0.7879,0.8940
v_adam_1_6,viewpoint,717,623,3.48,0.8120,0.8550,0.9344,0.9679,1,1,1,0.1880,0.7293,0.8376,0.9188
v_apprentices_1_2,viewpoint,1696,1644,10.73,0.1804,0.9699,0.9858,0.9923,1,1,1,0.8196,0.9399,0.9639,0.9820
v_apprentices_1_3,viewpoint,1487,1390,4.99,0.5837,0.9354,0.9718,0.9832,1,1,1,0.4163,0.8054,0.8833,0.9416
v_apprentices_1_4,viewpoint,1320,1204,5.06,0.7453,0.9076,0.9508,0.9621,1,1,1,0.2547,0.7516,0.8509,0.9255
v_apprentices_1_5,viewpoint,1107,969,4.44,0.7041,0.8744,0.9322,0.9476,1,1,1,0.2959,0.7653,0.8592,0.9296
v_apprentices_1_6,viewpoint,1012,856,4.11,0.8474,0.8449,0.8992,0.9209,1,1,1,0.1526,0.7175,0.8305,0.9153
v_azzola_1_2,viewpoint,1477,1317,10.45,0.8627,0.8856,0.9397,0.9540,1,1,1,0.1373,0.7124,0.8275,0.9137
v_azzola_1_3,viewpoint,1315,1047,4.39,1.1031,0.7787,0.9087,0.9384,1,1,1,0.0000,0.6323,0.7794,0.8897
v_azzola_1_4,viewpoint,1486,1393,4.23,0.4792,0.9394,0.9623,0.9758,1,1,1,0.5208,0.8403,0.9042,0.9521
v_azzola_1_5,viewpoint,1129,870,4.52,0.9526,0.7458,0.8503,0.8787,1,1,1,0.0474,0.6825,0.8095,0.9047
v_azzola_1_6,viewpoint,804,418,4.16,1.6945,0.5124,0.6095,0.6443,1,1,1,0.0000,0.4352,0.6611,0.8306
v_bark_1_2,viewpoint,793,180,4.36,1.3350,0.2282,0.2850,0.3241,1,1,1,0.0000,0.5550,0.7330,0.8665
v_bark_1_3,viewpoint,689,10,4.44,445.5720,0.0000,0.0000,0.0000,0,0,0,0.0000,0.0000,0.0000,0.0000
v_bark_1_4,viewpoint,679,10,4.18,233.3306,0.0000,0.0015,0.0015,0,0,0,0.0000,0.0000,0.0000,0.0000
v_bark_1_5,viewpoint,706,6,4.48,3820.7151,0.0014,0.0099,0.0212,0,0,0,0.0000,0.0000,0.0000,0.0000
v_bark_1_6,viewpoint,651,9,4.34,343.1958,0.0000,0.0000,0.0000,0,0,0,0.0000,0.0000,0.0000,0.0000
v_bees_1_2,viewpoint,1647,1571,4.77,0.2619,0.9545,0.9781,0.9848,1,1,1,0.7381,0.9127,0.9476,0.9738
v_bees_1_3,viewpoint,1700,1625,5.15,0.3037,0.9565,0.9788,0.9876,1,1,1,0.6963,0.8988,0.9393,0.9696
v_bees_1_4,viewpoint,1597,1538,4.54,0.5095,0.9624,0.9869,0.9925,1,1,1,0.4905,0.8302,0.8981,0.9491
v_bees_1_5,viewpoint,1282,1102,4.63,1.2147,0.8612,0.9353,0.9579,1,1,1,0.0000,0.5951,0.7571,0.8785
v_bees_1_6,viewpoint,1384,1234,4.52,0.5047,0.8916,0.9501,0.9711,1,1,1,0.4953,0.8318,0.8991,0.9495
v_beyus_1_2,viewpoint,511,384,9.64,1.5726,0.7495,0.8571,0.8943,1,1,1,0.0000,0.4758,0.6855,0.8427
v_beyus_1_3,viewpoint,561,353,3.90,5.4209,0.6007,0.7701,0.8307,0,0,1,0.0000,0.0000,0.0000,0.4579
v_beyus_1_4,viewpoint,675,569,3.66,0.4603,0.8430,0.9200,0.9585,1,1,1,0.5397,0.8466,0.9079,0.9540
v_beyus_1_5,viewpoint,466,299,3.50,2.1372,0.6481,0.7639,0.8155,1,1,1,0.0000,0.2876,0.5726,0.7863
v_beyus_1_6,viewpoint,608,456,3.67,3.1026,0.7516,0.8602,0.9062,0,1,1,0.0000,0.0000,0.3795,0.6897
v_bip_1_2,viewpoint,1175,1041,4.18,0.1934,0.8868,0.9209,0.9328,1,1,1,0.8066,0.9355,0.9613,0.9807
v_bip_1_3,viewpoint,1074,913,4.26,0.2568,0.8538,0.9022,0.9227,1,1,1,0.7432,0.9144,0.9486,0.9743
v_bip_1_4,viewpoint,1124,963,4.00,0.3076,0.8559,0.9057,0.9288,1,1,1,0.6924,0.8975,0.9385,0.9692
v_bip_1_5,viewpoint,634,199,3.95,1.2495,0.3091,0.3770,0.4227,1,1,1,0.0000,0.5835,0.7501,0.8750
v_bip_1_6,viewpoint,529,52,3.75,2.5628,0.1021,0.1323,0.1512,1,1,1,0.0000,0.1457,0.4874,0.7437
v_bird_1_2,viewpoint,1052,957,4.30,76.6981,0.0000,0.0000,0.0000,0,0,0,0.0000,0.0000,0.0000,0.0000
v_bird_1_3,viewpoint,963,797,4.68,84.6540,0.0000,0.0000,0.0000,0,0,0,0.0000,0.0000,0.0000,0.0000
v_bird_1_4,viewpoint,1025,791,4.54,98.5909,0.0000,0.0000,0.0000,0,0,0,0.0000,0.0000,0.0000,0.0000
v_bird_1_5,viewpoint,996,651,4.70,85.2288,0.0000,0.0000,0.0020,0,0,0,0.0000,0.0000,0.0000,0.0000
v_bird_1_6,viewpoint,690,261,4.43,186.7474,0.0000,0.0000,0.0014,0,0,0,0.0000,0.0000,0.0000,0.0000
v_birdwoman_1_2,viewpoint,623,209,4.01,44.7792,0.0016,0.0032,0.0048,0,0,0,0.0000,0.0000,0.0000,0.0000
v_birdwoman_1_3,viewpoint,853,563,4.02,55.5168,0.0000,0.0000,0.0000,0,0,0,0.0000,0.0000,0.0000,0.0000
v_birdwoman_1_4,viewpoint,1022,763,3.93,50.3789,0.0010,0.0010,0.0029,0,0,0,0.0000,0.0000,0.0000,0.0000
v_birdwoman_1_5,viewpoint,1468,1321,4.30,52.6629,0.0000,0.0000,0.0027,0,0,0,0.0000,0.0000,0.0000,0.0000
v_birdwoman_1_6,viewpoint,1085,854,4.38,51.5003,0.0000,0.0000,0.0000,0,0,0,0.0000,0.0000,0.0000,0.0000
v_blueprint_1_2,viewpoint,1419,1304,4.32,0.3788,0.9147,0.9598,0.9760,1,1,1,0.6212,0.8737,0.9242,0.9621
v_blueprint_1_3,viewpoint,1234,1031,4.23,0.9841,0.8290,0.8979,0.9287,1,1,1,0.0159,0.6720,0.8032,0.9016
v_blueprint_1_4,viewpoint,1379,1259,4.22,0.3786,0.9108,0.9471,0.9659,1,1,1,0.6214,0.8738,0.9243,0.9621
v_blueprint_1_5,viewpoint,1116,863,4.39,0.6603,0.7706,0.8423,0.8728,1,1,1,0.3397,0.7799,0.8679,0.9340
v_blueprint_1_6,viewpoint,847,538,3.84,1.8299,0.6364,0.7060,0.7367,1,1,1,0.0000,0.3900,0.6340,0.8170
v_boat_1_2,viewpoint,1485,1273,10.58,0.1512,0.8572,0.9165,0.9428,1,1,1,0.8488,0.9496,0.9698,0.9849
v_boat_1_3,viewpoint,609,102,5.06,2.2408,0.1642,0.2217,0.2989,1,1,1,0.0000,0.2531,0.5518,0.7759
v_boat_1_4,viewpoint,454,9,5.10,87.5828,0.0066,0.0176,0.0264,0,0,0,0.0000,0.0000,0.0000,0.0000
v_boat_1_5,viewpoint,498,8,4.45,356.0653,0.0000,0.0000,0.0000,0,0,0,0.0000,0.0000,0.0000,0.0000
v_boat_1_6,viewpoint,723,216,4.43,2.0430,0.2960,0.3707,0.4205,1,1,1,0.0000,0.3190,0.5914,0.7957
v_bricks_1_2,viewpoint,1618,1527,4.30,33.5071,0.0031,0.0130,0.0389,0,0,0,0.0000,0.0000,0.0000,0.0000
v_bricks_1_3,viewpoint,1573,1454,4.48,32.1477,0.0006,0.0083,0.0356,0,0,0,0.0000,0.0000,0.0000,0.0000
v_bricks_1_4,viewpoint,1387,1254,4.19,31.2197,0.0000,0.0022,0.0137,0,0,0,0.0000,0.0000,0.0000,0.0000
v_bricks_1_5,viewpoint,1177,970,6.27,28.2728,0.0000,0.0025,0.0187,0,0,0,0.0000,0.0000,0.0000,0.0000
v_bricks_1_6,viewpoint,898,530,3.98,27.8845,0.0011,0.0022,0.0022,0,0,0,0.0000,0.0000,0.0000,0.0000
v_busstop_1_2,viewpoint,1437,1329,4.48,0.5247,0.9228,0.9513,0.9603,1,1,1,0.4753,0.8251,0.8951,0.9475
v_busstop_1_3,viewpoint,1250,1081,4.19,0.7144,0.8608,0.9064,0.9144,1,1,1,0.2856,0.7619,0.8571,0.9286
v_busstop_1_4,viewpoint,1255,1132,4.38,0.8320,0.8980,0.9291,0.9402,1,1,1,0.1680,0.7227,0.8336,0.9168
v_busstop_1_5,viewpoint,1286,1152,4.19,0.5362,0.8966,0.9269,0.9362,1,1,1,0.4638,0.8213,0.8928,0.9464
v_busstop_1_6,viewpoint,1458,1333,4.39,0.6292,0.9136,0.9520,0.9602,1,1,1,0.3708,0.7903,0.8742,0.9371
v_calder_1_2,viewpoint,1127,1003,4.26,0.2910,0.8882,0.9468,0.9610,1,1,1,0.7090,0.9030,0.9418,0.9709
v_calder_1_3,viewpoint,1318,1227,4.83,0.1877,0.9279,0.9712,0.9765,1,1,1,0.8123,0.9374,0.9625,0.9812
v_calder_1_4,viewpoint,820,590,4.73,0.8726,0.7183,0.7829,0.8183,1,1,1,0.1274,0.7091,0.8255,0.9127
v_calder_1_5,viewpoint,767,469,4.49,0.4939,0.6141,0.7001,0.7392,1,1,1,0.5061,0.8354,0.9012,0.9506
v_calder_1_6,viewpoint,576,213,3.89,1.3166,0.3733,0.4444,0.4774,1,1,1,0.0000,0.5611,0.7367,0.8683
v_cartooncity_1_2,viewpoint,1588,1509,4.48,62.1570,0.0000,0.0000,0.0000,0,0,0,0.0000,0.0000,0.0000,0.0000
v_cartooncity_1_3,viewpoint,1100,751,4.36,66.9379,0.0009,0.0018,0.0036,0,0,0,0.0000,0.0000,0.0000,0.0000
v_cartooncity_1_4,viewpoint,1472,1314,4.59,74.2758,0.0000,0.0020,0.0034,0,0,0,0.0000,0.0000,0.0000,0.0000
v_cartooncity_1_5,viewpoint,1072,800,4.25,75.9185,0.0009,0.0019,0.0028,0,0,0,0.0000,0.0000,0.0000,0.0000
v_cartooncity_1_6,viewpoint,1080,686,4.65,70.4316,0.0000,0.0000,0.0019,0,0,0,0.0000,0.0000,0.0000,0.0000
v_charing_1_2,viewpoint,694,411,4.11,1.5836,0.5821,0.6844,0.7291,1,1,1,0.0000,0.4721,0.6833,0.8416
v_charing_1_3,viewpoint,542,241,3.73,52.2576,0.4244,0.5738,0.6531,0,0,0,0.0000,0.0000,0.0000,0.0000
v_charing_1_4,viewpoint,573,373,3.56,9.4466,0.6387,0.7504,0.7976,0,0,0,0.0000,0.0000,0.0000,0.0553
v_charing_1_5,viewpoint,548,365,3.56,27.1271,0.6387,0.7755,0.8339,0,0,0,0.0000,0.0000,0.0000,0.0000
v_charing_1_6,viewpoint,527,342,3.76,48.6171,0.6072,0.7590,0.8159,0,0,0,0.0000,0.0000,0.0000,0.0000
v_churchill_1_2,viewpoint,1117,995,4.64,0.7885,0.8899,0.9517,0.9705,1,1,1,0.2115,0.7372,0.8423,0.9212
v_churchill_1_3,viewpoint,1047,811,4.16,2.3264,0.7775,0.8768,0.9083,1,1,1,0.0000,0.2245,0.5347,0.7674
v_churchill_1_4,viewpoint,997,814,4.93,0.6789,0.8154,0.9097,0.9428,1,1,1,0.3211,0.7737,0.8642,0.9321
v_churchill_1_5,viewpoint,1297,1258,4.55,0.1945,0.9707,0.9877,0.9938,1,1,1,0.8055,0.9352,0.9611,0.9806
v_churchill_1_6,viewpoint,797,594,3.88,1.9494,0.7465,0.8381,0.8833,1,1,1,0.0000,0.3502,0.6101,0.8051
v_circus_1_2,viewpoint,1229,1053,4.22,0.6546,0.8560,0.9178,0.9382,1,1,1,0.3454,0.7818,0.8691,0.9345
v_circus_1_3,viewpoint,1106,847,4.28,1.2810,0.7613,0.8879,0.9150,1,1,1,0.0000,0.5730,0.7438,0.8719
v_circus_1_4,viewpoint,832,540,3.99,1.8079,0.6538,0.7776,0.8317,1,1,1,0.0000,0.3974,0.6384,0.8192
v_circus_1_5,viewpoint,1223,1026,4.12,0.4732,0.8422,0.9280,0.9428,1,1,1,0.5268,0.8423,0.9054,0.9527
v_circus_1_6,viewpoint,1029,798,4.50,0.8947,0.7551,0.8873,0.9184,1,1,1,0.1053,0.7018,0.8211,0.9105
v_coffeehouse_1_2,viewpoint,1047,937,3.89,0.5122,0.8940,0.9379,0.9484,1,1,1,0.4878,0.8293,0.8976,0.9488
v_coffeehouse_1_3,viewpoint,1080,972,3.80,0.6289,0.8963,0.9389,0.9546,1,1,1,0.3711,0.7904,0.8742,0.9371
v_coffeehouse_1_4,viewpoint,1012,847,4.63,1.1515,0.8320,0.8923,0.9150,1,1,1,0.0000,0.6162,0.7697,0.8848
v_coffeehouse_1_5,viewpoint,986,862,3.88,0.3487,0.8732,0.9219,0.9310,1,1,1,0.6513,0.8838,0.9303,0.9651
v_coffeehouse_1_6,viewpoint,856,679,3.75,0.5723,0.7932,0.8528,0.8808,1,1,1,0.4277,0.8092,0.8855,0.9428
v_colors_1_2,viewpoint,498,273,3.96,1.9312,0.5502,0.6767,0.7068,1,1,1,0.0000,0.3563,0.6138,0.8069
v_colors_1_3,viewpoint,464,184,3.73,2.8129,0.3879,0.5151,0.5668,1,1,1,0.0000,0.0624,0.4374,0.7187
v_colors_1_4,viewpoint,332,54,3.68,7.1753,0.1657,0.2259,0.2892,0,0,0,0.0000,0.0000,0.0000,0.2825
v_colors_1_5,viewpoint,270,33,4.17,11.8869,0.1185,0.1630,0.2074,0,0,0,0.0000,0.0000,0.0000,0.0000
v_colors_1_6,viewpoint,259,13,3.56,397.6054,0.0618,0.0927,0.1313,0,0,0,0.0000,0.0000,0.0000,0.0000
v_courses_1_2,viewpoint,1240,1144,4.00,1.1299,0.9210,0.9581,0.9694,1,1,1,0.0000,0.6234,0.7740,0.8870
v_courses_1_3,viewpoint,1092,953,3.98,1.6325,0.8636,0.9478,0.9744,1,1,1,0.0000,0.4558,0.6735,0.8367
v_courses_1_4,viewpoint,1033,938,4.13,0.8400,0.8993,0.9652,0.9826,1,1,1,0.1600,0.7200,0.8320,0.9160
v_courses_1_5,viewpoint,870,720,3.72,2.0657,0.7931,0.9161,0.9379,1,1,1,0.0000,0.3114,0.5869,0.7934
v_courses_1_6,viewpoint,791,590,3.70,2.9491,0.7193,0.8559,0.8951,1,1,1,0.0000,0.0170,0.4102,0.7051
v_dirtywall_1_2,viewpoint,1431,1317,10.13,0.4052,0.9189,0.9560,0.9679,1,1,1,0.5948,0.8649,0.9190,0.9595
v_dirtywall_1_3,viewpoint,1305,1145,4.24,0.6099,0.8805,0.9303,0.9502,1,1,1,0.3901,0.7967,0.8780,0.9390
v_dirtywall_1_4,viewpoint,1131,883,4.33,0.7362,0.7807,0.8426,0.8727,1,1,1,0.2638,0.7546,0.8528,0.9264
v_dirtywall_1_5,viewpoint,1252,1061,4.66,0.6090,0.8474,0.8978,0.9193,1,1,1,0.3910,0.7970,0.8782,0.9391
v_dirtywall_1_6,viewpoint,941,613,4.23,0.7611,0.6472,0.7046,0.7343,1,1,1,0.2389,0.7463,0.8478,0.9239
v_dogman_1_2,viewpoint,739,645,3.64,1.0780,0.8714,0.9229,0.9378,1,1,1,0.0000,0.6407,0.7844,0.8922
v_dogman_1_3,viewpoint,813,716,3.93,0.6134,0.8819,0.9200,0.9360,1,1,1,0.3866,0.7955,0.8773,0.9387
v_dogman_1_4,viewpoint,587,381,3.58,4.9661,0.6457,0.7666,0.8330,0,1,1,0.0000,0.0000,0.0068,0.5034
v_dogman_1_5,viewpoint,657,520,3.82,1.7240,0.7915,0.8691,0.9087,1,1,1,0.0000,0.4253,0.6552,0.8276
v_dogman_1_6,viewpoint,446,222,3.53,37.4274,0.4865,0.5583,0.6143,0,0,0,0.0000,0.0000,0.0000,0.0000
v_eastsouth_1_2,viewpoint,1514,1402,4.43,0.4069,0.9254,0.9564,0.9663,1,1,1,0.5931,0.8644,0.9186,0.9593
v_eastsouth_1_3,viewpoint,783,93,4.48,2.0459,0.1226,0.1750,0.2235,1,1,1,0.0000,0.3180,0.5908,0.7954
v_eastsouth_1_4,viewpoint,663,7,4.24,204.6414,0.0015,0.0030,0.0060,0,0,0,0.0000,0.0000,0.0000,0.0000
v_eastsouth_1_5,viewpoint,721,10,4.42,44.1171,0.0180,0.0277,0.0485,0,0,0,0.0000,0.0000,0.0000,0.0000
v_eastsouth_1_6,viewpoint,695,66,4.18,2.4197,0.0935,0.1237,0.1424,1,1,1,0.0000,0.1934,0.5161,0.7580
v_feast_1_2,viewpoint,1261,1142,4.25,0.3793,0.9033,0.9500,0.9651,1,1,1,0.6207,0.8736,0.9241,0.9621
v_feast_1_3,viewpoint,1390,1260,4.30,0.6733,0.9022,0.9504,0.9655,1,1,1,0.3267,0.7756,0.8653,0.9327
v_feast_1_4,viewpoint,1008,741,4.16,0.8599,0.7421,0.8125,0.8343,1,1,1,0.1401,0.7134,0.8280,0.9140
v_feast_1_5,viewpoint,1252,1100,4.13,0.5000,0.8786,0.9337,0.9569,1,1,1,0.5000,0.8333,0.9000,0.9500
v_feast_1_6,viewpoint,1081,885,4.00,0.6460,0.8141,0.8788,0.9093,1,1,1,0.3540,0.7847,0.8708,0.9354
v_fest_1_2,viewpoint,1428,1303,4.60,0.4436,0.9083,0.9538,0.9671,1,1,1,0.5564,0.8521,0.9113,0.9556
v_fest_1_3,viewpoint,1173,930,5.32,0.9822,0.7894,0.8662,0.8849,1,1,1,0.0178,0.6726,0.8036,0.9018
v_fest_1_4,viewpoint,1155,1005,5.06,0.5349,0.8710,0.9065,0.9238,1,1,1,0.4651,0.8217,0.8930,0.9465
v_fest_1_5,viewpoint,1139,935,4.65,0.9829,0.8112,0.8701,0.8955,1,1,1,0.0171,0.6724,0.8034,0.9017
v_fest_1_6,viewpoint,1027,672,4.54,1.6535,0.6514,0.7332,0.7770,1,1,1,0.0000,0.4488,0.6693,0.8346
v_gardens_1_2,viewpoint,1337,1155,4.24,1.1339,0.8579,0.9155,0.9312,1,1,1,0.0000,0.6220,0.7732,0.8866
v_gardens_1_3,viewpoint,840,486,4.03,8.4249,0.5738,0.6464,0.6952,0,0,0,0.0000,0.0000,0.0000,0.1575
v_gardens_1_4,viewpoint,1525,1408,4.30,1.0521,0.9167,0.9548,0.9698,1,1,1,0.0000,0.6493,0.7896,0.8948
v_gardens_1_5,viewpoint,991,691,4.21,1.8330,0.6932,0.7719,0.8153,1,1,1,0.0000,0.3890,0.6334,0.8167
v_gardens_1_6,viewpoint,1186,738,4.91,1.3651,0.6172,0.7496,0.8255,1,1,1,0.0000,0.5450,0.7270,0.8635
v_grace_1_2,viewpoint,1017,901,4.29,0.4515,0.8869,0.9607,0.9754,1,1,1,0.5485,0.8495,0.9097,0.9548
v_grace_1_3,viewpoint,913,764,3.79,1.3588,0.8368,0.9080,0.9452,1,1,1,0.0000,0.5471,0.7282,0.8641
v_grace_1_4,viewpoint,820,621,3.75,2.7666,0.7695,0.8561,0.9024,1,1,1,0.0000,0.0778,0.4467,0.7233
v_grace_1_5,viewpoint,661,421,3.94,1.8240,0.6278,0.6989,0.7443,1,1,1,0.0000,0.3920,0.6352,0.8176
v_grace_1_6,viewpoint,500,221,3.66,3.7148,0.4400,0.5140,0.5600,0,1,1,0.0000,0.0000,0.2570,0.6285
v_graffiti_1_2,viewpoint,1168,863,4.60,0.9584,0.7380,0.8459,0.8998,1,1,1,0.0416,0.6805,0.8083,0.9042
v_graffiti_1_3,viewpoint,1052,721,5.01,1.4972,0.6825,0.7937,0.8489,1,1,1,0.0000,0.5009,0.7006,0.8503
v_graffiti_1_4,viewpoint,691,117,5.30,1.4343,0.1679,0.2388,0.2865,1,1,1,0.0000,0.5219,0.7131,0.8566
v_graffiti_1_5,viewpoint,805,448,5.00,0.9880,0.5503,0.6547,0.6907,1,1,1,0.0120,0.6707,0.8024,0.9012
v_graffiti_1_6,viewpoint,568,10,4.30,328.1261,0.0616,0.0722,0.0951,0,0,0,0.0000,0.0000,0.0000,0.0000
v_home_1_2,viewpoint,931,782,3.96,0.6702,0.8400,0.9023,0.9270,1,1,1,0.3298,0.7766,0.8660,0.9330
v_home_1_3,viewpoint,872,605,4.31,2.1234,0.6927,0.7615,0.7970,1,1,1,0.0000,0.2922,0.5753,0.7877
v_home_1_4,viewpoint,880,710,3.84,1.6044,0.8125,0.8659,0.8932,1,1,1,0.0000,0.4652,0.6791,0.8396
v_home_1_5,viewpoint,837,535,4.10,2.8551,0.6260,0.7121,0.7622,1,1,1,0.0000,0.0483,0.4290,0.7145
v_home_1_6,viewpoint,513,64,3.95,1.4450,0.1365,0.2086,0.2865,1,1,1,0.0000,0.5183,0.7110,0.8555
v_laptop_1_2,viewpoint,1126,1059,3.79,0.3858,0.9369,0.9734,0.9858,1,1,1,0.6142,0.8714,0.9228,0.9614
v_laptop_1_3,viewpoint,629,312,3.47,2.2580,0.4897,0.6169,0.6741,1,1,1,0.0000,0.2473,0.5484,0.7742
v_laptop_1_4,viewpoint,415,19,3.66,46.1780,0.0482,0.0771,0.1157,0,0,0,0.0000,0.0000,0.0000,0.0000
v_laptop_1_5,viewpoint,414,11,3.80,2355.1502,0.0072,0.0097,0.0121,0,0,0,0.0000,0.0000,0.0000,0.0000
v_laptop_1_6,viewpoint,429,11,3.67,215.0375,0.0023,0.0023,0.0047,0,0,0,0.0000,0.0000,0.0000,0.0000
v_london_1_2,viewpoint,1509,1407,4.66,0.3418,0.9317,0.9629,0.9702,1,1,1,0.6582,0.8861,0.9316,0.9658
v_london_1_3,viewpoint,1373,1285,4.38,0.3912,0.9337,0.9607,0.9716,1,1,1,0.6088,0.8696,0.9218,0.9609
v_london_1_4,viewpoint,1379,1204,4.48,1.0138,0.8716,0.9181,0.9318,1,1,1,0.0000,0.6621,0.7972,0.8986
v_london_1_5,viewpoint,1523,1435,4.39,0.2650,0.9422,0.9665,0.9744,1,1,1,0.7350,0.9117,0.9470,0.9735
v_london_1_6,viewpoint,1653,1558,4.50,0.3080,0.9437,0.9655,0.9740,1,1,1,0.6920,0.8973,0.9384,0.9692
v_machines_1_2,viewpoint,1246,1116,4.27,0.8185,0.8925,0.9567,0.9711,1,1,1,0.1815,0.7272,0.8363,0.9182
v_machines_1_3,viewpoint,853,640,4.04,2.8251,0.7175,0.8429,0.8875,1,1,1,0.0000,0.0583,0.4350,0.7175
v_machines_1_4,viewpoint,1048,991,3.89,0.6593,0.9408,0.9771,0.9876,1,1,1,0.3407,0.7802,0.8681,0.9341
v_machines_1_5,viewpoint,808,669,3.74,1.4588,0.8069,0.9072,0.9369,1,1,1,0.0000,0.5137,0.7082,0.8541
v_machines_1_6,viewpoint,1041,976,3.96,0.2319,0.9376,0.9683,0.9846,1,1,1,0.7681,0.9227,0.9536,0.9768
v_man_1_2,viewpoint,1144,1039,5.26,1.8981,0.9073,0.9449,0.9615,1,1,1,0.0000,0.3673,0.6204,0.8102
v_man_1_3,viewpoint,932,710,4.13,3.9559,0.7221,0.8326,0.8648,0,1,1,0.0000,0.0000,0.2088,0.6044
v_man_1_4,viewpoint,830,655,3.78,2.6707,0.7759,0.8735,0.9084,1,1,1,0.0000,0.1098,0.4659,0.7329
v_man_1_5,viewpoint,1053,929,4.23,2.1524,0.8746,0.9449,0.9611,1,1,1,0.0000,0.2825,0.5695,0.7848
v_man_1_6,viewpoint,1067,925,3.95,1.3232,0.8650,0.9203,0.9428,1,1,1,0.0000,0.5589,0.7354,0.8677
v_maskedman_1_2,viewpoint,811,623,4.17,1.2243,0.7608,0.8520,0.8890,1,1,1,0.0000,0.5919,0.7551,0.8776
v_maskedman_1_3,viewpoint,643,499,3.58,1.5280,0.7714,0.8491,0.8740,1,1,1,0.0000,0.4907,0.6944,0.8472
v_maskedman_1_4,viewpoint,848,732,4.63,3.7946,0.8550,0.9210,0.9458,0,1,1,0.0000,0.0000,0.2411,0.6205
v_maskedman_1_5,viewpoint,865,759,3.62,2.1771,0.8671,0.9341,0.9480,1,1,1,0.0000,0.2743,0.5646,0.7823
v_maskedman_1_6,viewpoint,501,165,3.47,5.8266,0.3353,0.3872,0.4092,0,0,1,0.0000,0.0000,0.0000,0.4173
v_pomegranate_1_2,viewpoint,1491,1338,4.53,0.3947,0.8954,0.9504,0.9745,1,1,1,0.6053,0.8684,0.9211,0.9605
v_pomegranate_1_3,viewpoint,1410,1185,4.71,0.9446,0.8312,0.9199,0.9496,1,1,1,0.0554,0.6851,0.8111,0.9055
v_pomegranate_1_4,viewpoint,1401,1196,4.48,0.4573,0.8515,0.9158,0.9408,1,1,1,0.5427,0.8476,0.9085,0.9543
v_pomegranate_1_5,viewpoint,1376,1236,4.44,0.9566,0.8953,0.9491,0.9753,1,1,1,0.0434,0.6811,0.8087,0.9043
v_pomegranate_1_6,viewpoint,1323,1177,4.63,0.6256,0.8896,0.9577,0.9819,1,1,1,0.3744,0.7915,0.8749,0.9374
v_posters_1_2,viewpoint,1013,740,10.58,114.9191,0.0000,0.0000,0.0000,0,0,0,0.0000,0.0000,0.0000,0.0000
v_posters_1_3,viewpoint,1205,1022,4.43,120.7611,0.0000,0.0000,0.0000,0,0,0,0.0000,0.0000,0.0000,0.0000
v_posters_1_4,viewpoint,1145,971,4.49,112.1859,0.0000,0.0000,0.0000,0,0,0,0.0000,0.0000,0.0000,0.0000
v_posters_1_5,viewpoint,978,684,4.50,124.3778,0.0000,0.0000,0.0000,0,0,0,0.0000,0.0000,0.0000,0.0000
v_posters_1_6,viewpoint,993,658,4.85,147.1546,0.0000,0.0000,0.0000,0,0,0,0.0000,0.0000,0.0000,0.0000
v_samples_1_2,viewpoint,1499,1383,5.82,67.8635,0.0000,0.0000,0.0000,0,0,0,0.0000,0.0000,0.0000,0.0000
v_samples_1_3,viewpoint,1492,1397,5.04,72.6003,0.0000,0.0000,0.0000,0,0,0,0.0000,0.0000,0.0000,0.0000
v_samples_1_4,viewpoint,1297,1102,4.82,71.6316,0.0000,0.0000,0.0015,0,0,0,0.0000,0.0000,0.0000,0.0000
v_samples_1_5,viewpoint,1414,1311,4.71,80.6598,0.0000,0.0000,0.0000,0,0,0,0.0000,0.0000,0.0000,0.0000
v_samples_1_6,viewpoint,1270,1048,4.74,66.8263,0.0000,0.0008,0.0031,0,0,0,0.0000,0.0000,0.0000,0.0000
v_soldiers_1_2,viewpoint,1264,1144,4.39,0.3550,0.9059,0.9509,0.9644,1,1,1,0.6450,0.8817,0.9290,0.9645
v_soldiers_1_3,viewpoint,978,805,3.72,1.4566,0.8262,0.9090,0.9376,1,1,1,0.0000,0.5145,0.7087,0.8543
v_soldiers_1_4,viewpoint,808,559,4.19,1.4442,0.6881,0.7550,0.7871,1,1,1,0.0000,0.5186,0.7112,0.8556
v_soldiers_1_5,viewpoint,705,362,3.74,4.9280,0.5177,0.5745,0.6000,0,1,1,0.0000,0.0000,0.0144,0.5072
v_soldiers_1_6,viewpoint,1164,989,4.11,97.2434,0.0000,0.0000,0.0000,0,0,0,0.0000,0.0000,0.0000,0.0000
v_strand_1_2,viewpoint,1506,1422,4.37,0.1255,0.9449,0.9794,0.9900,1,1,1,0.8745,0.9582,0.9749,0.9874
v_strand_1_3,viewpoint,1148,991,4.12,1.1984,0.8449,0.9329,0.9669,1,1,1,0.0000,0.6005,0.7603,0.8802
v_strand_1_4,viewpoint,1069,943,3.99,2.4902,0.8709,0.9532,0.9729,1,1,1,0.0000,0.1699,0.5020,0.7510
v_strand_1_5,viewpoint,1189,1067,4.17,2.5845,0.8696,0.9495,0.9739,1,1,1,0.0000,0.1385,0.4831,0.7416
v_strand_1_6,viewpoint,939,764,3.98,4.4539,0.7497,0.9042,0.9468,0,1,1,0.0000,0.0000,0.1092,0.5546
v_sunseason_1_2,viewpoint,1686,1560,5.18,0.1450,0.9259,0.9561,0.9656,1,1,1,0.8550,0.9517,0.9710,0.9855
v_sunseason_1_3,viewpoint,1545,1377,4.42,0.4358,0.8900,0.9184,0.9307,1,1,1,0.5642,0.8547,0.9128,0.9564
v_sunseason_1_4,viewpoint,1054,738,4.16,0.9520,0.7011,0.7362,0.7495,1,1,1,0.0480,0.6827,0.8096,0.9048
v_sunseason_1_5,viewpoint,982,642,4.53,0.7680,0.6548,0.6894,0.7108,1,1,1,0.2320,0.7440,0.8464,0.9232
v_sunseason_1_6,viewpoint,870,441,4.20,0.8666,0.5103,0.5575,0.5828,1,1,1,0.1334,0.7111,0.8267,0.9133
v_tabletop_1_2,viewpoint,1284,1098,4.61,0.6010,0.8544,0.8988,0.9182,1,1,1,0.3990,0.7997,0.8798,0.9399
v_tabletop_1_3,viewpoint,975,379,4.37,2.4302,0.3959,0.4574,0.4872,1,1,1,0.0000,0.1899,0.5140,0.7570
v_tabletop_1_4,viewpoint,1015,637,4.28,1.3867,0.6187,0.6887,0.7172,1,1,1,0.0000,0.5378,0.7227,0.8613
v_tabletop_1_5,viewpoint,1031,711,4.28,0.8340,0.6819,0.7420,0.7682,1,1,1,0.1660,0.7220,0.8332,0.9166
v_tabletop_1_6,viewpoint,1062,724,4.18,0.7700,0.6798,0.7401,0.7655,1,1,1,0.2300,0.7433,0.8460,0.9230
v_tempera_1_2,viewpoint,801,741,3.57,0.2483,0.9201,0.9763,0.9938,1,1,1,0.7517,0.9172,0.9503,0.9752
v_tempera_1_3,viewpoint,769,681,3.72,0.7542,0.8804,0.9454,0.9636,1,1,1,0.2458,0.7486,0.8492,0.9246
v_tempera_1_4,viewpoint,779,674,3.72,0.6645,0.8639,0.9358,0.9538,1,1,1,0.3355,0.7785,0.8671,0.9336
v_tempera_1_5,viewpoint,714,577,3.66,1.0885,0.8039,0.8880,0.9118,1,1,1,0.0000,0.6372,0.7823,0.8912
v_tempera_1_6,viewpoint,444,266,3.48,2.5394,0.5991,0.6824,0.7365,1,1,1,0.0000,0.1535,0.4921,0.7461
v_there_1_2,viewpoint,589,480,3.66,1.7121,0.8183,0.9151,0.9593,1,1,1,0.0000,0.4293,0.6576,0.8288
v_there_1_3,viewpoint,374,140,3.65,2.8887,0.3663,0.4519,0.5241,1,1,1,0.0000,0.0371,0.4223,0.7111
v_there_1_4,viewpoint,335,26,3.53,8.2366,0.0776,0.1075,0.1343,0,0,0,0.0000,0.0000,0.0000,0.1763
v_there_1_5,viewpoint,317,8,3.65,212.1524,0.0347,0.0442,0.0505,0,0,0,0.0000,0.0000,0.0000,0.0000
v_there_1_6,viewpoint,300,7,3.63,318.8098,0.0033,0.0100,0.0133,0,0,0,0.0000,0.0000,0.0000,0.0000
v_underground_1_2,viewpoint,1574,1490,4.47,0.1590,0.9466,0.9689,0.9733,1,1,1,0.8410,0.9470,0.9682,0.9841
v_underground_1_3,viewpoint,1378,1239,4.20,0.5465,0.9013,0.9405,0.9499,1,1,1,0.4535,0.8178,0.8907,0.9453
v_underground_1_4,viewpoint,1085,898,4.09,0.5508,0.8258,0.8885,0.9088,1,1,1,0.4492,0.8164,0.8898,0.9449
v_underground_1_5,viewpoint,895,681,4.00,1.2166,0.7631,0.8335,0.8726,1,1,1,0.0000,0.5945,0.7567,0.8783
v_underground_1_6,viewpoint,673,395,3.63,5.0516,0.5958,0.6865,0.7415,0,0,1,0.0000,0.0000,0.0000,0.4948
v_vitro_1_2,viewpoint,1638,1553,4.69,0.1706,0.9475,0.9683,0.9719,1,1,1,0.8294,0.9431,0.9659,0.9829
v_vitro_1_3,viewpoint,1478,1348,4.47,0.3506,0.9114,0.9364,0.9432,1,1,1,0.6494,0.8831,0.9299,0.9649
v_vitro_1_4,viewpoint,1249,1081,4.02,0.4283,0.8655,0.9103,0.9183,1,1,1,0.5717,0.8572,0.9143,0.9572
v_vitro_1_5,viewpoint,1520,1421,4.52,0.3766,0.9362,0.9664,0.9717,1,1,1,0.6234,0.8745,0.9247,0.9623
v_vitro_1_6,viewpoint,1366,1215,4.34,0.2607,0.8902,0.9370,0.9495,1,1,1,0.7393,0.9131,0.9479,0.9739
v_wall_1_2,viewpoint,1282,1195,4.21,0.7242,0.9329,0.9626,0.9711,1,1,1,0.2758,0.7586,0.8552,0.9276
v_wall_1_3,viewpoint,1118,971,4.01,1.6948,0.8658,0.9132,0.9392,1,1,1,0.0000,0.4351,0.6610,0.8305
v_wall_1_4,viewpoint,1301,1223,4.90,0.3863,0.9408,0.9723,0.9816,1,1,1,0.6137,0.8712,0.9227,0.9614
v_wall_1_5,viewpoint,1158,979,4.38,1.3326,0.8394,0.9128,0.9456,1,1,1,0.0000,0.5558,0.7335,0.8667
v_wall_1_6,viewpoint,1009,796,4.43,4.1110,0.7849,0.8553,0.8890,0,1,1,0.0000,0.0000,0.1778,0.5889
v_wapping_1_2,viewpoint,1291,888,4.97,0.6783,0.6894,0.8056,0.8621,1,1,1,0.3217,0.7739,0.8643,0.9322
v_wapping_1_3,viewpoint,974,575,4.47,1.3457,0.5893,0.7177,0.7772,1,1,1,0.0000,0.5514,0.7309,0.8654
v_wapping_1_4,viewpoint,938,497,4.62,2.0956,0.5160,0.6386,0.6951,1,1,1,0.0000,0.3015,0.5809,0.7904
v_wapping_1_5,viewpoint,754,335,3.78,2.2252,0.4469,0.5093,0.5570,1,1,1,0.0000,0.2583,0.5550,0.7775
v_wapping_1_6,viewpoint,666,181,3.97,5.6306,0.2763,0.3363,0.3859,0,0,1,0.0000,0.0000,0.0000,0.4369
v_war_1_2,viewpoint,1166,939,4.52,1.1902,0.8027,0.8945,0.9194,1,1,1,0.0000,0.6033,0.7620,0.8810
v_war_1_3,viewpoint,934,673,4.12,0.9787,0.7173,0.8276,0.8597,1,1,1,0.0213,0.6738,0.8043,0.9021
v_war_1_4,viewpoint,1397,1300,4.35,0.4256,0.9284,0.9714,0.9800,1,1,1,0.5744,0.8581,0.9149,0.9574
v_war_1_5,viewpoint,1316,1202,4.13,0.5162,0.9096,0.9597,0.9696,1,1,1,0.4838,0.8279,0.8968,0.9484
v_war_1_6,viewpoint,886,645,3.94,1.8217,0.7032,0.8296,0.8747,1,1,1,0.0000,0.3928,0.6357,0.8178
v_weapons_1_2,viewpoint,1277,1218,4.64,0.4375,0.9538,0.9765,0.9828,1,1,1,0.5625,0.8542,0.9125,0.9563
v_weapons_1_3,viewpoint,1136,1016,4.32,0.8071,0.8935,0.9489,0.9648,1,1,1,0.1929,0.7310,0.8386,0.9193
v_weapons_1_4,viewpoint,1206,1038,4.64,0.7724,0.8632,0.9345,0.9569,1,1,1,0.2276,0.7425,0.8455,0.9228
v_weapons_1_5,viewpoint,1246,1172,4.56,0.9618,0.9350,0.9695,0.9815,1,1,1,0.0382,0.6794,0.8076,0.9038
v_weapons_1_6,viewpoint,1114,1019,4.03,1.3359,0.9111,0.9551,0.9704,1,1,1,0.0000,0.5547,0.7328,0.8664
v_woman_1_2,viewpoint,667,486,4.00,45.9994,0.0000,0.0000,0.0000,0,0,0,0.0000,0.0000,0.0000,0.0000
v_woman_1_3,viewpoint,772,626,3.73,49.6702,0.0000,0.0000,0.0013,0,0,0,0.0000,0.0000,0.0000,0.0000
v_woman_1_4,viewpoint,707,524,3.81,50.6957,0.0000,0.0000,0.0000,0,0,0,0.0000,0.0000,0.0000,0.0000
v_woman_1_5,viewpoint,579,344,3.60,43.7783,0.0000,0.0000,0.0017,0,0,0,0.0000,0.0000,0.0000,0.0000
v_woman_1_6,viewpoint,665,449,3.58,48.9731,0.0000,0.0000,0.0000,0,0,0,0.0000,0.0000,0.0000,0.0000
v_wormhole_1_2,viewpoint,1124,961,3.97,0.4624,0.8559,0.9075,0.9342,1,1,1,0.5376,0.8459,0.9075,0.9538
v_wormhole_1_3,viewpoint,1220,1080,4.04,0.6178,0.8910,0.9369,0.9590,1,1,1,0.3822,0.7941,0.8764,0.9382
v_wormhole_1_4,viewpoint,1318,1212,3.89,0.5901,0.9196,0.9636,0.9750,1,1,1,0.4099,0.8033,0.8820,0.9410
v_wormhole_1_5,viewpoint,1049,803,3.91,6.3695,0.7626,0.8456,0.8694,0,0,1,0.0000,0.0000,0.0000,0.3631
v_wormhole_1_6,viewpoint,778,369,3.99,4.2076,0.4473,0.5720,0.6183,0,1,1,0.0000,0.0000,0.1585,0.5792
v_wounded_1_2,viewpoint,1100,984,4.12,1.4260,0.8964,0.9400,0.9509,1,1,1,0.0000,0.5247,0.7148,0.8574
v_wounded_1_3,viewpoint,811,596,4.09,2.8342,0.7324,0.8064,0.8397,1,1,1,0.0000,0.0553,0.4332,0.7166
v_wounded_1_4,viewpoint,482,267,3.68,23.1091,0.5560,0.6701,0.7178,0,0,0,0.0000,0.0000,0.0000,0.0000
v_wounded_1_5,viewpoint,697,517,3.82,1.3768,0.7403,0.8207,0.8594,1,1,1,0.0000,0.5411,0.7246,0.8623
v_wounded_1_6,viewpoint,455,247,3.81,7.6287,0.5319,0.6681,0.7385,0,0,0,0.0000,0.0000,0.0000,0.2371
v_yard_1_2,viewpoint,1408,1301,4.64,0.2227,0.9247,0.9545,0.9680,1,1,1,0.7773,0.9258,0.9555,0.9777
v_yard_1_3,viewpoint,1002,663,4.95,2.1028,0.6238,0.7435,0.7834,1,1,1,0.0000,0.2991,0.5794,0.7897
v_yard_1_4,viewpoint,1265,1139,4.26,0.5024,0.8980,0.9360,0.9518,1,1,1,0.4976,0.8325,0.8995,0.9498
v_yard_1_5,viewpoint,1095,864,4.29,0.8619,0.7854,0.8566,0.8776,1,1,1,0.1381,0.7127,0.8276,0.9138
v_yard_1_6,viewpoint,896,453,9.13,4.3330,0.5011,0.6127,0.6529,0,1,1,0.0000,0.0000,0.1334,0.5667
v_yuri_1_2,viewpoint,726,649,3.88,0.4922,0.8953,0.9601,0.9807,1,1,1,0.5078,0.8359,0.9016,0.9508
v_yuri_1_3,viewpoint,630,510,4.02,1.6801,0.8063,0.8857,0.9159,1,1,1,0.0000,0.4400,0.6640,0.8320
v_yuri_1_4,viewpoint,554,325,3.78,17.2654,0.5722,0.7274,0.8123,0,0,0,0.0000,0.0000,0.0000,0.0000
v_yuri_1_5,viewpoint,680,563,3.57,2.7376,0.8191,0.9103,0.9485,1,1,1,0.0000,0.0875,0.4525,0.7262
v_yuri_1_6,viewpoint,566,395,3.57,9.9218,0.6572,0.8145,0.8887,0,0,0,0.0000,0.0000,0.0000,0.0078
