PairName,SeqType,NumMatches,Inliers,TimeMS,H_Error,MMA@3,MMA@5,MMA@7,MHA_Acc@3,MHA_Acc@5,MHA_Acc@7,AUC@1,AUC@3,AUC@5,AUC@10
i_ajuntament_1_2,illumination,2211,1853,267.55,0.6361,0.8277,0.9218,0.9548,1,1,1,0.3639,0.7880,0.8728,0.9364
i_ajuntament_1_3,illumination,1666,1212,8.86,0.8996,0.6957,0.8601,0.9268,1,1,1,0.1004,0.7001,0.8201,0.9100
i_ajuntament_1_4,illumination,1300,683,17.27,1.4654,0.4977,0.6838,0.7877,1,1,1,0.0000,0.5115,0.7069,0.8535
i_ajuntament_1_5,illumination,1263,707,9.73,1.2641,0.5321,0.7039,0.8013,1,1,1,0.0000,0.5786,0.7472,0.8736
i_ajuntament_1_6,illumination,1391,773,9.35,1.1041,0.5191,0.7117,0.8095,1,1,1,0.0000,0.6320,0.7792,0.8896
i_autannes_1_2,illumination,1968,1763,17.94,0.0000,0.9009,0.9680,0.9873,1,1,1,1.0000,1.0000,1.0000,1.0000
i_autannes_1_3,illumination,1831,1585,8.54,0.5309,0.8607,0.9388,0.9700,1,1,1,0.4691,0.8230,0.8938,0.9469
i_autannes_1_4,illumination,1226,688,9.02,1.5287,0.5408,0.7284,0.8369,1,1,1,0.0000,0.4904,0.6943,0.8471
i_autannes_1_5,illumination,1255,758,9.17,1.3485,0.5873,0.7641,0.8558,1,1,1,0.0000,0.5505,0.7303,0.8652
i_autannes_1_6,illumination,1627,1189,8.34,0.5615,0.7246,0.8519,0.9195,1,1,1,0.4385,0.8128,0.8877,0.9438
i_bologna_1_2,illumination,1108,1013,15.36,0.3777,0.9152,0.9639,0.9847,1,1,1,0.6223,0.8741,0.9245,0.9622
i_bologna_1_3,illumination,1028,890,7.09,0.0000,0.8677,0.9436,0.9698,1,1,1,1.0000,1.0000,1.0000,1.0000
i_bologna_1_4,illumination,967,798,7.06,1.2463,0.8159,0.9142,0.9607,1,1,1,0.0000,0.5846,0.7507,0.8754
i_bologna_1_5,illumination,888,689,7.14,1.4960,0.7669,0.8941,0.9437,1,1,1,0.0000,0.5013,0.7008,0.8504
i_bologna_1_6,illumination,857,660,7.10,1.1888,0.7620,0.8903,0.9498,1,1,1,0.0000,0.6037,0.7622,0.8811
i_books_1_2,illumination,1212,963,8.05,0.4070,0.7772,0.8663,0.8993,1,1,1,0.5930,0.8643,0.9186,0.9593
i_books_1_3,illumination,1316,1058,8.67,0.0000,0.8176,0.9050,0.9392,1,1,1,1.0000,1.0000,1.0000,1.0000
i_books_1_4,illumination,1400,1168,8.92,0.4991,0.8179,0.9250,0.9514,1,1,1,0.5009,0.8336,0.9002,0.9501
i_books_1_5,illumination,1439,1201,7.93,0.0000,0.8450,0.9236,0.9472,1,1,1,1.0000,1.0000,1.0000,1.0000
i_books_1_6,illumination,1366,1053,7.77,0.0000,0.7789,0.8697,0.9078,1,1,1,1.0000,1.0000,1.0000,1.0000
i_boutique_1_2,illumination,2182,1942,8.07,0.3985,0.8708,0.9560,0.9826,1,1,1,0.6015,0.8672,0.9203,0.9602
i_boutique_1_3,illumination,2175,1813,8.90,0.0000,0.8474,0.9457,0.9793,1,1,1,1.0000,1.0000,1.0000,1.0000
i_boutique_1_4,illumination,2223,1929,8.44,0.5928,0.8516,0.9451,0.9793,1,1,1,0.4072,0.8024,0.8814,0.9407
i_boutique_1_5,illumination,1571,1012,8.43,0.5314,0.6244,0.7899,0.8701,1,1,1,0.4686,0.8229,0.8937,0.9469
i_boutique_1_6,illumination,1541,981,8.30,0.2992,0.6171,0.7625,0.8488,1,1,1,0.7008,0.9003,0.9402,0.9701
i_bridger_1_2,illumination,2127,1899,26.15,0.3860,0.8693,0.9671,0.9929,1,1,1,0.6140,0.8713,0.9228,0.9614
i_bridger_1_3,illumination,1875,1533,8.91,0.6446,0.8043,0.9179,0.9659,1,1,1,0.3554,0.7851,0.8711,0.9355
i_bridger_1_4,illumination,1927,1612,8.62,0.7721,0.8236,0.9393,0.9761,1,1,1,0.2279,0.7426,0.8456,0.9228
i_bridger_1_5,illumination,1819,1392,8.15,0.9853,0.7515,0.9071,0.9637,1,1,1,0.0147,0.6716,0.8029,0.9015
i_bridger_1_6,illumination,1211,660,8.28,1.0227,0.5310,0.7201,0.8373,1,1,1,0.0000,0.6591,0.7955,0.8977
i_brooklyn_1_2,illumination,1752,1374,8.42,0.3974,0.7780,0.9024,0.9543,1,1,1,0.6026,0.8675,0.9205,0.9603
i_brooklyn_1_3,illumination,1985,1732,8.08,1.0365,0.8519,0.9657,0.9909,1,1,1,0.0000,0.6545,0.7927,0.8963
i_brooklyn_1_4,illumination,1629,1162,8.65,0.6335,0.6882,0.8533,0.9343,1,1,1,0.3665,0.7888,0.8733,0.9366
i_brooklyn_1_5,illumination,2008,1717,9.43,1.1228,0.8282,0.9651,0.9925,1,1,1,0.0000,0.6257,0.7754,0.8877
i_brooklyn_1_6,illumination,1720,1270,9.06,1.0445,0.7105,0.8878,0.9512,1,1,1,0.0000,0.6518,0.7911,0.8956
i_castle_1_2,illumination,1338,768,9.02,1.0217,0.5740,0.7653,0.8543,1,1,1,0.0000,0.6594,0.7957,0.8978
i_castle_1_3,illumination,1544,1139,9.77,0.3837,0.7364,0.8795,0.9352,1,1,1,0.6163,0.8721,0.9233,0.9616
i_castle_1_4,illumination,1455,1047,9.09,0.8994,0.6914,0.8460,0.9127,1,1,1,0.1006,0.7002,0.8201,0.9101
i_castle_1_5,illumination,1114,656,8.56,1.0768,0.5718,0.7603,0.8573,1,1,1,0.0000,0.6411,0.7846,0.8923
i_castle_1_6,illumination,1272,742,8.53,0.6572,0.5731,0.7288,0.8192,1,1,1,0.3428,0.7809,0.8686,0.9343
i_chestnuts_1_2,illumination,1701,1469,8.59,0.2815,0.8642,0.9324,0.9606,1,1,1,0.7185,0.9062,0.9437,0.9719
i_chestnuts_1_3,illumination,1678,1420,7.69,0.0000,0.8534,0.9178,0.9535,1,1,1,1.0000,1.0000,1.0000,1.0000
i_chestnuts_1_4,illumination,1685,1408,8.01,0.3336,0.8326,0.9086,0.9383,1,1,1,0.6664,0.8888,0.9333,0.9666
i_chestnuts_1_5,illumination,1577,1269,7.76,0.7026,0.7958,0.8725,0.9182,1,1,1,0.2974,0.7658,0.8595,0.9297
i_chestnuts_1_6,illumination,1383,1031,8.01,1.0620,0.7296,0.8380,0.8973,1,1,1,0.0000,0.6460,0.7876,0.8938
i_crownday_1_2,illumination,1844,1113,10.18,1.5243,0.5938,0.7787,0.8785,1,1,1,0.0000,0.4919,0.6951,0.8476
i_crownday_1_3,illumination,2196,1614,9.91,0.9729,0.7190,0.8625,0.9249,1,1,1,0.0271,0.6757,0.8054,0.9027
i_crownday_1_4,illumination,2405,1928,9.56,1.3430,0.7888,0.8994,0.9443,1,1,1,0.0000,0.5523,0.7314,0.8657
i_crownday_1_5,illumination,2684,2306,9.69,0.7424,0.8592,0.9426,0.9706,1,1,1,0.2576,0.7525,0.8515,0.9258
i_crownday_1_6,illumination,1714,1068,9.58,1.1447,0.6015,0.7935,0.8944,1,1,1,0.0000,0.6184,0.7711,0.8855
i_dome_1_2,illumination,1886,1749,9.70,0.0000,0.9295,0.9740,0.9867,1,1,1,1.0000,1.0000,1.0000,1.0000
i_dome_1_3,illumination,938,559,9.49,3.4493,0.5821,0.7591,0.8497,0,1,1,0.0000,0.0000,0.3101,0.6551
i_dome_1_4,illumination,915,559,7.86,2.1475,0.5967,0.7628,0.8557,1,1,1,0.0000,0.2842,0.5705,0.7853
i_dome_1_5,illumination,983,599,8.41,1.7344,0.5870,0.7599,0.8545,1,1,1,0.0000,0.4219,0.6531,0.8266
i_dome_1_6,illumination,1567,1187,9.04,0.4776,0.7569,0.8909,0.9272,1,1,1,0.5224,0.8408,0.9045,0.9522
i_duda_1_2,illumination,1027,1019,7.55,0.3261,0.9893,0.9971,0.9981,1,1,1,0.6739,0.8913,0.9348,0.9674
i_duda_1_3,illumination,978,952,8.09,0.3349,0.9724,0.9959,0.9980,1,1,1,0.6651,0.8884,0.9330,0.9665
i_duda_1_4,illumination,947,908,7.94,0.3316,0.9514,0.9947,0.9979,1,1,1,0.6684,0.8895,0.9337,0.9668
i_duda_1_5,illumination,901,847,7.30,0.8748,0.9223,0.9834,0.9933,1,1,1,0.1252,0.7084,0.8250,0.9125
i_duda_1_6,illumination,771,656,7.21,0.8718,0.8288,0.9377,0.9702,1,1,1,0.1282,0.7094,0.8256,0.9128
i_fenis_1_2,illumination,2043,1808,7.84,0.3764,0.8742,0.9584,0.9809,1,1,1,0.6236,0.8745,0.9247,0.9624
i_fenis_1_3,illumination,1679,1267,7.85,0.8379,0.7344,0.8749,0.9369,1,1,1,0.1621,0.7207,0.8324,0.9162
i_fenis_1_4,illumination,971,479,7.80,1.3401,0.4892,0.6457,0.7343,1,1,1,0.0000,0.5533,0.7320,0.8660
i_fenis_1_5,illumination,845,371,7.77,1.5577,0.4142,0.5598,0.6414,1,1,1,0.0000,0.4808,0.6885,0.8442
i_fenis_1_6,illumination,917,433,7.41,2.5694,0.4646,0.6194,0.7034,1,1,1,0.0000,0.1435,0.4861,0.7431
i_fog_1_2,illumination,2408,2155,8.12,0.0000,0.9016,0.9680,0.9904,1,1,1,1.0000,1.0000,1.0000,1.0000
i_fog_1_3,illumination,1937,1571,9.05,0.5035,0.8147,0.9174,0.9644,1,1,1,0.4965,0.8322,0.8993,0.9497
i_fog_1_4,illumination,1966,1542,9.83,0.7662,0.7859,0.8988,0.9517,1,1,1,0.2338,0.7446,0.8468,0.9234
i_fog_1_5,illumination,1270,949,8.93,1.2068,0.7472,0.8276,0.8654,1,1,1,0.0000,0.5977,0.7586,0.8793
i_fog_1_6,illumination,1257,927,8.95,0.6446,0.7327,0.8305,0.8687,1,1,1,0.3554,0.7851,0.8711,0.9355
i_fruits_1_2,illumination,2801,2252,19.08,0.5658,0.7994,0.9090,0.9422,1,1,1,0.4342,0.8114,0.8868,0.9434
i_fruits_1_3,illumination,2646,1973,9.79,0.0000,0.7589,0.8900,0.9320,1,1,1,1.0000,1.0000,1.0000,1.0000
i_fruits_1_4,illumination,2611,1981,10.05,0.5616,0.7556,0.8690,0.9154,1,1,1,0.4384,0.8128,0.8877,0.9438
i_fruits_1_5,illumination,2588,1943,10.57,0.5246,0.7400,0.8586,0.9053,1,1,1,0.4754,0.8251,0.8951,0.9475
i_fruits_1_6,illumination,2632,2032,11.42,0.9572,0.7565,0.8754,0.9172,1,1,1,0.0428,0.6809,0.8086,0.9043
i_gonnenberg_1_2,illumination,1886,1751,8.59,0.0000,0.9358,0.9814,0.9878,1,1,1,1.0000,1.0000,1.0000,1.0000
i_gonnenberg_1_3,illumination,1879,1750,8.93,0.9525,0.9276,0.9745,0.9830,1,1,1,0.0475,0.6825,0.8095,0.9047
i_gonnenberg_1_4,illumination,1774,1614,8.07,0.8159,0.9047,0.9684,0.9825,1,1,1,0.1841,0.7280,0.8368,0.9184
i_gonnenberg_1_5,illumination,1792,1646,7.75,0.7440,0.9180,0.9743,0.9866,1,1,1,0.2560,0.7520,0.8512,0.9256
i_gonnenberg_1_6,illumination,1821,1665,7.55,0.6301,0.9083,0.9665,0.9780,1,1,1,0.3699,0.7900,0.8740,0.9370
i_greenhouse_1_2,illumination,2464,2107,8.84,0.2238,0.8571,0.9464,0.9769,1,1,1,0.7762,0.9254,0.9552,0.9776
i_greenhouse_1_3,illumination,2523,2047,9.71,0.5328,0.8042,0.9195,0.9707,1,1,1,0.4672,0.8224,0.8934,0.9467
i_greenhouse_1_4,illumination,2409,1930,10.70,0.4609,0.7912,0.9141,0.9647,1,1,1,0.5391,0.8464,0.9078,0.9539
i_greenhouse_1_5,illumination,2364,1818,10.32,0.5943,0.7589,0.8866,0.9484,1,1,1,0.4057,0.8019,0.8811,0.9406
i_greenhouse_1_6,illumination,2200,1664,10.53,0.5298,0.7423,0.8855,0.9486,1,1,1,0.4702,0.8234,0.8940,0.9470
i_greentea_1_2,illumination,1493,1232,9.72,0.5170,0.8165,0.8868,0.9176,1,1,1,0.4830,0.8277,0.8966,0.9483
i_greentea_1_3,illumination,1948,1755,9.01,0.0000,0.9025,0.9482,0.9641,1,1,1,1.0000,1.0000,1.0000,1.0000
i_greentea_1_4,illumination,1991,1839,8.14,0.1427,0.9216,0.9583,0.9704,1,1,1,0.8573,0.9524,0.9715,0.9857
i_greentea_1_5,illumination,1995,1802,8.29,0.0000,0.9063,0.9499,0.9634,1,1,1,1.0000,1.0000,1.0000,1.0000
i_greentea_1_6,illumination,1914,1622,9.00,0.0000,0.8511,0.9336,0.9650,1,1,1,1.0000,1.0000,1.0000,1.0000
i_indiana_1_2,illumination,1826,1449,9.35,0.4275,0.7782,0.8938,0.9485,1,1,1,0.5725,0.8575,0.9145,0.9572
i_indiana_1_3,illumination,1766,1295,9.96,0.6952,0.7254,0.8703,0.9383,1,1,1,0.3048,0.7683,0.8610,0.9305
i_indiana_1_4,illumination,1667,1184,8.84,0.6595,0.6977,0.8626,0.9388,1,1,1,0.3405,0.7802,0.8681,0.9341
i_indiana_1_5,illumination,1634,1136,9.13,0.8588,0.6787,0.8452,0.9321,1,1,1,0.1412,0.7137,0.8282,0.9141
i_indiana_1_6,illumination,1568,1055,9.56,0.9878,0.6543,0.8342,0.9088,1,1,1,0.0122,0.6707,0.8024,0.9012
i_kions_1_2,illumination,1325,1038,16.15,1.3245,0.7268,0.9072,0.9555,1,1,1,0.0000,0.5585,0.7351,0.8675
i_kions_1_3,illumination,1093,779,8.39,0.7645,0.6908,0.8408,0.9048,1,1,1,0.2355,0.7452,0.8471,0.9235
i_kions_1_4,illumination,1241,794,8.53,2.4290,0.5955,0.8187,0.9057,1,1,1,0.0000,0.1903,0.5142,0.7571
i_kions_1_5,illumination,1231,823,8.32,1.9314,0.6182,0.8440,0.9253,1,1,1,0.0000,0.3562,0.6137,0.8069
i_kions_1_6,illumination,1013,636,8.60,0.9183,0.6081,0.7828,0.8500,1,1,1,0.0817,0.6939,0.8163,0.9082
i_ktirio_1_2,illumination,2234,2137,8.60,0.1375,0.9512,0.9884,0.9937,1,1,1,0.8625,0.9542,0.9725,0.9862
i_ktirio_1_3,illumination,1802,1476,8.46,0.4299,0.8174,0.9151,0.9573,1,1,1,0.5701,0.8567,0.9140,0.9570
i_ktirio_1_4,illumination,1324,866,9.41,1.6253,0.6427,0.7628,0.8474,1,1,1,0.0000,0.4582,0.6749,0.8375
i_ktirio_1_5,illumination,1591,1236,8.86,0.3254,0.7737,0.8818,0.9296,1,1,1,0.6746,0.8915,0.9349,0.9675
i_ktirio_1_6,illumination,1251,769,9.84,1.3572,0.5883,0.7330,0.8313,1,1,1,0.0000,0.5476,0.7286,0.8643
i_kurhaus_1_2,illumination,2039,1876,8.46,0.0884,0.9235,0.9740,0.9843,1,1,1,0.9116,0.9705,0.9823,0.9912
i_kurhaus_1_3,illumination,1844,1597,8.09,0.0000,0.8693,0.9507,0.9794,1,1,1,1.0000,1.0000,1.0000,1.0000
i_kurhaus_1_4,illumination,1713,1370,8.66,0.4654,0.8027,0.8967,0.9422,1,1,1,0.5346,0.8449,0.9069,0.9535
i_kurhaus_1_5,illumination,1579,1206,8.52,0.6703,0.7600,0.8607,0.9177,1,1,1,0.3297,0.7766,0.8659,0.9330
i_kurhaus_1_6,illumination,1467,1074,8.69,0.5698,0.7342,0.8432,0.8950,1,1,1,0.4302,0.8101,0.8860,0.9430
i_leuven_1_2,illumination,1948,1560,9.18,2.0662,0.7675,0.9199,0.9682,1,1,1,0.0000,0.3113,0.5868,0.7934
i_leuven_1_3,illumination,2120,1801,9.13,1.7113,0.8264,0.9349,0.9684,1,1,1,0.0000,0.4296,0.6577,0.8289
i_leuven_1_4,illumination,1975,1542,10.08,2.4828,0.7575,0.9038,0.9529,1,1,1,0.0000,0.1724,0.5034,0.7517
i_leuven_1_5,illumination,1779,1364,9.89,2.2252,0.7403,0.9011,0.9460,1,1,1,0.0000,0.2583,0.5550,0.7775
i_leuven_1_6,illumination,1598,1194,9.95,7.8191,0.5519,0.7434,0.8298,0,0,0,0.0000,0.0000,0.0000,0.2181
i_lionday_1_2,illumination,1200,740,8.63,1.5128,0.5742,0.7692,0.8808,1,1,1,0.0000,0.4957,0.6974,0.8487
i_lionday_1_3,illumination,1298,870,8.76,1.3375,0.6541,0.8074,0.8829,1,1,1,0.0000,0.5542,0.7325,0.8663
i_lionday_1_4,illumination,926,345,8.58,2.7113,0.3294,0.4978,0.6425,1,1,1,0.0000,0.0962,0.4577,0.7289
i_lionday_1_5,illumination,1087,497,8.33,3.0723,0.3937,0.5998,0.7397,0,1,1,0.0000,0.0000,0.3855,0.6928
i_lionday_1_6,illumination,1288,882,8.26,1.8893,0.6343,0.8137,0.8944,1,1,1,0.0000,0.3702,0.6221,0.8111
i_lionnight_1_2,illumination,1632,1295,8.88,0.5766,0.7868,0.9173,0.9608,1,1,1,0.4234,0.8078,0.8847,0.9423
i_lionnight_1_3,illumination,1157,770,8.56,0.9500,0.6448,0.7736,0.8539,1,1,1,0.0500,0.6833,0.8100,0.9050
i_lionnight_1_4,illumination,1687,1459,8.98,0.5643,0.8435,0.9372,0.9627,1,1,1,0.4357,0.8119,0.8871,0.9436
i_lionnight_1_5,illumination,1639,1411,8.23,0.9576,0.8328,0.9225,0.9475,1,1,1,0.0424,0.6808,0.8085,0.9042
i_lionnight_1_6,illumination,1649,1342,8.48,1.3471,0.7944,0.8963,0.9369,1,1,1,0.0000,0.5510,0.7306,0.8653
i_londonbridge_1_2,illumination,1534,1397,8.15,0.9487,0.8853,0.9746,0.9876,1,1,1,0.0513,0.6838,0.8103,0.9051
i_londonbridge_1_3,illumination,1452,1295,8.77,0.8526,0.8850,0.9731,0.9924,1,1,1,0.1474,0.7158,0.8295,0.9147
i_londonbridge_1_4,illumination,1299,991,8.29,1.8696,0.7206,0.9184,0.9630,1,1,1,0.0000,0.3768,0.6261,0.8130
i_londonbridge_1_5,illumination,908,374,8.22,4.0830,0.3689,0.6068,0.7797,0,1,1,0.0000,0.0000,0.1834,0.5917
i_londonbridge_1_6,illumination,1307,1088,7.75,0.7060,0.8095,0.9388,0.9809,1,1,1,0.2940,0.7647,0.8588,0.9294
i_melon_1_2,illumination,1498,1282,8.49,0.3423,0.8471,0.9246,0.9506,1,1,1,0.6577,0.8859,0.9315,0.9658
i_melon_1_3,illumination,1285,985,8.59,1.0172,0.7533,0.8693,0.9160,1,1,1,0.0000,0.6609,0.7966,0.8983
i_melon_1_4,illumination,822,418,8.32,1.7615,0.4915,0.6350,0.7470,1,1,1,0.0000,0.4128,0.6477,0.8239
i_melon_1_5,illumination,1287,953,8.54,0.9306,0.7203,0.8524,0.9153,1,1,1,0.0694,0.6898,0.8139,0.9069
i_melon_1_6,illumination,1202,824,7.99,0.6929,0.6564,0.7978,0.8894,1,1,1,0.3071,0.7690,0.8614,0.9307
i_miniature_1_2,illumination,2048,1853,8.33,0.0000,0.9131,0.9575,0.9775,1,1,1,1.0000,1.0000,1.0000,1.0000
i_miniature_1_3,illumination,1834,1543,8.15,0.6527,0.8304,0.9160,0.9509,1,1,1,0.3473,0.7824,0.8695,0.9347
i_miniature_1_4,illumination,1395,940,8.48,1.6680,0.6538,0.8172,0.8753,1,1,1,0.0000,0.4440,0.6664,0.8332
i_miniature_1_5,illumination,992,487,9.70,2.3602,0.4899,0.6381,0.7308,1,1,1,0.0000,0.2133,0.5280,0.7640
i_miniature_1_6,illumination,1783,1498,9.43,0.8115,0.8200,0.9103,0.9428,1,1,1,0.1885,0.7295,0.8377,0.9188
i_nescafe_1_2,illumination,1340,1049,8.49,0.0000,0.7925,0.8627,0.8993,1,1,1,1.0000,1.0000,1.0000,1.0000
i_nescafe_1_3,illumination,1603,1331,8.01,0.0000,0.8384,0.9021,0.9233,1,1,1,1.0000,1.0000,1.0000,1.0000
i_nescafe_1_4,illumination,1672,1414,7.97,0.0000,0.8535,0.9103,0.9516,1,1,1,1.0000,1.0000,1.0000,1.0000
i_nescafe_1_5,illumination,1520,1311,7.72,0.5519,0.8579,0.9243,0.9546,1,1,1,0.4481,0.8160,0.8896,0.9448
i_nescafe_1_6,illumination,1440,1114,8.34,0.4374,0.7667,0.8660,0.9153,1,1,1,0.5626,0.8542,0.9125,0.9563
i_nijmegen_1_2,illumination,2551,2120,9.29,0.6496,0.8056,0.9479,0.9831,1,1,1,0.3504,0.7835,0.8701,0.9350
i_nijmegen_1_3,illumination,2757,2425,9.15,0.5571,0.8455,0.9684,0.9946,1,1,1,0.4429,0.8143,0.8886,0.9443
i_nijmegen_1_4,illumination,1810,1113,10.01,1.0140,0.5884,0.7779,0.8740,1,1,1,0.0000,0.6620,0.7972,0.8986
i_nijmegen_1_5,illumination,2756,2387,9.54,0.6634,0.8374,0.9615,0.9877,1,1,1,0.3366,0.7789,0.8673,0.9337
i_nijmegen_1_6,illumination,2693,2322,9.72,0.5744,0.8400,0.9580,0.9892,1,1,1,0.4256,0.8085,0.8851,0.9426
i_nuts_1_2,illumination,2347,1457,10.08,1.5731,0.6080,0.7482,0.8164,1,1,1,0.0000,0.4756,0.6854,0.8427
i_nuts_1_3,illumination,1410,641,10.91,1.4732,0.4355,0.5830,0.6560,1,1,1,0.0000,0.5089,0.7054,0.8527
i_nuts_1_4,illumination,1069,336,10.42,0.7839,0.3115,0.4181,0.5070,1,1,1,0.2161,0.7387,0.8432,0.9216
i_nuts_1_5,illumination,976,152,9.91,1.0787,0.1557,0.2439,0.3053,1,1,1,0.0000,0.6404,0.7843,0.8921
i_nuts_1_6,illumination,900,95,9.67,2.7766,0.1044,0.1500,0.2167,1,1,1,0.0000,0.0745,0.4447,0.7223
i_objects_1_2,illumination,1730,1427,9.30,0.8080,0.8202,0.9428,0.9827,1,1,1,0.1920,0.7307,0.8384,0.9192
i_objects_1_3,illumination,1591,1187,8.30,1.4731,0.7329,0.8925,0.9516,1,1,1,0.0000,0.5090,0.7054,0.8527
i_objects_1_4,illumination,1380,822,9.42,1.7916,0.5870,0.7688,0.8906,1,1,1,0.0000,0.4028,0.6417,0.8208
i_objects_1_5,illumination,1386,835,9.18,2.2672,0.5974,0.7670,0.8773,1,1,1,0.0000,0.2443,0.5466,0.7733
i_objects_1_6,illumination,1938,1707,7.93,0.2218,0.8865,0.9685,0.9876,1,1,1,0.7782,0.9261,0.9556,0.9778
i_parking_1_2,illumination,2017,1701,8.38,0.3339,0.8458,0.9509,0.9812,1,1,1,0.6661,0.8887,0.9332,0.9666
i_parking_1_3,illumination,1931,1623,8.51,0.3353,0.8395,0.9482,0.9855,1,1,1,0.6647,0.8882,0.9329,0.9665
i_parking_1_4,illumination,1637,1133,9.15,1.2874,0.6610,0.8314,0.9139,1,1,1,0.0000,0.5709,0.7425,0.8713
i_parking_1_5,illumination,1404,811,9.36,1.3487,0.5434,0.7343,0.8454,1,1,1,0.0000,0.5504,0.7303,0.8651
i_parking_1_6,illumination,1624,1122,8.85,1.1212,0.6669,0.8454,0.9273,1,1,1,0.0000,0.6263,0.7758,0.8879
i_partyfood_1_2,illumination,761,751,7.76,0.1582,0.9882,0.9947,0.9961,1,1,1,0.8418,0.9473,0.9684,0.9842
i_partyfood_1_3,illumination,713,684,7.04,0.0000,0.9607,0.9888,0.9902,1,1,1,1.0000,1.0000,1.0000,1.0000
i_partyfood_1_4,illumination,684,639,7.13,1.3756,0.9313,0.9766,0.9942,1,1,1,0.0000,0.5415,0.7249,0.8624
i_partyfood_1_5,illumination,659,612,7.37,1.1745,0.9287,0.9727,0.9863,1,1,1,0.0000,0.6085,0.7651,0.8825
i_partyfood_1_6,illumination,607,535,7.08,1.9256,0.8830,0.9489,0.9736,1,1,1,0.0000,0.3581,0.6149,0.8074
i_pinard_1_2,illumination,1439,1226,8.97,1.2404,0.8450,0.9097,0.9402,1,1,1,0.0000,0.5865,0.7519,0.8760
i_pinard_1_3,illumination,1087,730,8.57,2.0287,0.6486,0.7682,0.8381,1,1,1,0.0000,0.3238,0.5943,0.7971
i_pinard_1_4,illumination,1119,774,8.85,1.5767,0.6693,0.7748,0.8534,1,1,1,0.0000,0.4744,0.6847,0.8423
i_pinard_1_5,illumination,1187,850,7.65,1.4618,0.6917,0.8029,0.8703,1,1,1,0.0000,0.5127,0.7076,0.8538
i_pinard_1_6,illumination,1329,990,8.01,0.8398,0.7201,0.8427,0.9127,1,1,1,0.1602,0.7201,0.8320,0.9160
i_pool_1_2,illumination,852,405,7.86,1.4371,0.4765,0.6526,0.7606,1,1,1,0.0000,0.5210,0.7126,0.8563
i_pool_1_3,illumination,441,102,8.18,2.8702,0.2132,0.3447,0.4739,1,1,1,0.0000,0.0433,0.4260,0.7130
i_pool_1_4,illumination,444,100,8.42,5.6976,0.2185,0.3468,0.4662,0,0,1,0.0000,0.0000,0.0000,0.4302
i_pool_1_5,illumination,638,235,8.40,2.1125,0.3574,0.5235,0.6458,1,1,1,0.0000,0.2958,0.5775,0.7888
i_pool_1_6,illumination,622,239,7.83,1.5422,0.3553,0.5257,0.6463,1,1,1,0.0000,0.4859,0.6916,0.8458
i_porta_1_2,illumination,2346,1569,9.69,0.4529,0.6598,0.8721,0.9429,1,1,1,0.5471,0.8490,0.9094,0.9547
i_porta_1_3,illumination,2355,1610,9.89,0.2197,0.6862,0.8930,0.9588,1,1,1,0.7803,0.9268,0.9561,0.9780
i_porta_1_4,illumination,1849,1125,9.31,1.3431,0.6084,0.8204,0.9135,1,1,1,0.0000,0.5523,0.7314,0.8657
i_porta_1_5,illumination,1114,691,8.38,1.3623,0.6194,0.8214,0.9039,1,1,1,0.0000,0.5459,0.7275,0.8638
i_porta_1_6,illumination,1120,548,9.11,1.4674,0.4768,0.6750,0.7804,1,1,1,0.0000,0.5109,0.7065,0.8533
i_resort_1_2,illumination,2557,2300,9.02,0.4445,0.9030,0.9777,0.9937,1,1,1,0.5555,0.8518,0.9111,0.9556
i_resort_1_3,illumination,2876,2782,8.35,0.1520,0.9677,0.9951,0.9986,1,1,1,0.8480,0.9493,0.9696,0.9848
i_resort_1_4,illumination,2864,2749,8.44,0.1888,0.9626,0.9920,0.9965,1,1,1,0.8112,0.9371,0.9622,0.9811
i_resort_1_5,illumination,2433,2119,8.60,0.6770,0.8746,0.9655,0.9885,1,1,1,0.3230,0.7743,0.8646,0.9323
i_resort_1_6,illumination,2473,2174,8.81,0.5619,0.8742,0.9737,0.9947,1,1,1,0.4381,0.8127,0.8876,0.9438
i_salon_1_2,illumination,2778,2672,8.68,0.1941,0.9532,0.9849,0.9921,1,1,1,0.8059,0.9353,0.9612,0.9806
i_salon_1_3,illumination,2456,2207,9.32,0.3877,0.8860,0.9678,0.9878,1,1,1,0.6123,0.8708,0.9225,0.9612
i_salon_1_4,illumination,2080,1637,10.30,0.6172,0.7707,0.9111,0.9678,1,1,1,0.3828,0.7943,0.8766,0.9383
i_salon_1_5,illumination,2481,2199,9.42,0.0000,0.8964,0.9678,0.9859,1,1,1,1.0000,1.0000,1.0000,1.0000
i_salon_1_6,illumination,2194,1855,10.34,0.4426,0.8309,0.9289,0.9672,1,1,1,0.5574,0.8525,0.9115,0.9557
i_santuario_1_2,illumination,2013,1620,9.69,1.0852,0.7720,0.9160,0.9642,1,1,1,0.0000,0.6383,0.7830,0.8915
i_santuario_1_3,illumination,2010,1643,9.61,1.1662,0.7706,0.9144,0.9637,1,1,1,0.0000,0.6113,0.7668,0.8834
i_santuario_1_4,illumination,1823,1383,9.63,1.4483,0.6939,0.8694,0.9259,1,1,1,0.0000,0.5172,0.7103,0.8552
i_santuario_1_5,illumination,2046,1697,9.63,0.5654,0.8177,0.9301,0.9682,1,1,1,0.4346,0.8115,0.8869,0.9435
i_santuario_1_6,illumination,1757,1348,9.46,1.2059,0.7336,0.8970,0.9465,1,1,1,0.0000,0.5980,0.7588,0.8794
i_school_1_2,illumination,2372,2154,9.15,0.1921,0.9005,0.9726,0.9869,1,1,1,0.8079,0.9360,0.9616,0.9808
i_school_1_3,illumination,2285,2043,9.87,0.2395,0.8840,0.9597,0.9821,1,1,1,0.7605,0.9202,0.9521,0.9760
i_school_1_4,illumination,1680,1259,9.71,0.5375,0.7173,0.8554,0.9143,1,1,1,0.4625,0.8208,0.8925,0.9462
i_school_1_5,illumination,1980,1515,9.45,0.5078,0.7571,0.8864,0.9348,1,1,1,0.4922,0.8307,0.8984,0.9492
i_school_1_6,illumination,1393,779,9.03,1.4441,0.5327,0.6992,0.7868,1,1,1,0.0000,0.5186,0.7112,0.8556
i_ski_1_2,illumination,2406,2259,8.57,0.2473,0.9339,0.9834,0.9921,1,1,1,0.7527,0.9176,0.9505,0.9753
i_ski_1_3,illumination,2270,2036,8.71,0.3014,0.8974,0.9705,0.9863,1,1,1,0.6986,0.8995,0.9397,0.9699
i_ski_1_4,illumination,2117,1836,8.33,0.4743,0.8602,0.9561,0.9821,1,1,1,0.5257,0.8419,0.9051,0.9526
i_ski_1_5,illumination,2039,1700,8.60,0.4683,0.8205,0.9343,0.9686,1,1,1,0.5317,0.8439,0.9063,0.9532
i_ski_1_6,illumination,1990,1618,8.38,0.5603,0.7975,0.9221,0.9608,1,1,1,0.4397,0.8132,0.8879,0.9440
i_smurf_1_2,illumination,2112,1784,8.37,0.8585,0.8348,0.9020,0.9437,1,1,1,0.1415,0.7138,0.8283,0.9141
i_smurf_1_3,illumination,2121,1798,9.65,0.4191,0.8449,0.9250,0.9491,1,1,1,0.5809,0.8603,0.9162,0.9581
i_smurf_1_4,illumination,1983,1654,9.96,0.5007,0.8260,0.9117,0.9496,1,1,1,0.4993,0.8331,0.8999,0.9499
i_smurf_1_5,illumination,1922,1539,8.68,0.5314,0.7960,0.8798,0.9266,1,1,1,0.4686,0.8229,0.8937,0.9469
i_smurf_1_6,illumination,1654,1150,9.54,0.0000,0.7044,0.8295,0.8875,1,1,1,1.0000,1.0000,1.0000,1.0000
i_steps_1_2,illumination,2064,1910,9.30,0.3700,0.9230,0.9884,0.9961,1,1,1,0.6300,0.8767,0.9260,0.9630
i_steps_1_3,illumination,2055,1889,8.83,0.5407,0.9187,0.9766,0.9917,1,1,1,0.4593,0.8198,0.8919,0.9459
i_steps_1_4,illumination,2079,1916,9.16,0.2935,0.9149,0.9827,0.9957,1,1,1,0.7065,0.9022,0.9413,0.9706
i_steps_1_5,illumination,1524,1234,8.50,0.5636,0.8071,0.9003,0.9469,1,1,1,0.4364,0.8121,0.8873,0.9436
i_steps_1_6,illumination,1798,1532,9.96,0.4424,0.8448,0.9410,0.9772,1,1,1,0.5576,0.8525,0.9115,0.9558
i_table_1_2,illumination,1730,1427,9.85,0.8080,0.8202,0.9428,0.9827,1,1,1,0.1920,0.7307,0.8384,0.9192
i_table_1_3,illumination,1591,1187,9.12,1.4731,0.7329,0.8925,0.9516,1,1,1,0.0000,0.5090,0.7054,0.8527
i_table_1_4,illumination,1380,822,9.46,1.7916,0.5870,0.7688,0.8906,1,1,1,0.0000,0.4028,0.6417,0.8208
i_table_1_5,illumination,1386,835,9.13,2.2672,0.5974,0.7670,0.8773,1,1,1,0.0000,0.2443,0.5466,0.7733
i_table_1_6,illumination,1938,1707,9.06,0.2218,0.8865,0.9685,0.9876,1,1,1,0.7782,0.9261,0.9556,0.9778
i_tools_1_2,illumination,657,249,8.03,4.8647,0.2572,0.4049,0.6027,0,1,1,0.0000,0.0000,0.0271,0.5135
i_tools_1_3,illumination,985,657,8.12,1.4880,0.6325,0.8325,0.9208,1,1,1,0.0000,0.5040,0.7024,0.8512
i_tools_1_4,illumination,713,252,9.61,3.1115,0.2749,0.4769,0.6494,0,1,1,0.0000,0.0000,0.3777,0.6888
i_tools_1_5,illumination,826,491,8.17,1.1007,0.5678,0.7179,0.8232,1,1,1,0.0000,0.6331,0.7799,0.8899
i_tools_1_6,illumination,662,236,8.11,6.4916,0.1677,0.2870,0.4728,0,0,1,0.0000,0.0000,0.0000,0.3508
i_toy_1_2,illumination,3111,2728,9.95,0.2301,0.8701,0.9540,0.9817,1,1,1,0.7699,0.9233,0.9540,0.9770
i_toy_1_3,illumination,2956,2382,11.53,0.3913,0.8007,0.9124,0.9611,1,1,1,0.6087,0.8696,0.9217,0.9609
i_toy_1_4,illumination,2534,1731,10.72,0.5293,0.6701,0.8256,0.9002,1,1,1,0.4707,0.8236,0.8941,0.9471
i_toy_1_5,illumination,1968,1012,9.71,1.0105,0.5025,0.6626,0.7754,1,1,1,0.0000,0.6632,0.7979,0.8990
i_toy_1_6,illumination,1321,403,10.19,2.5220,0.2990,0.4338,0.5572,1,1,1,0.0000,0.1593,0.4956,0.7478
i_troulos_1_2,illumination,949,758,7.59,1.1118,0.7597,0.9073,0.9463,1,1,1,0.0000,0.6294,0.7776,0.8888
i_troulos_1_3,illumination,698,430,7.41,3.4552,0.3610,0.7006,0.8510,0,1,1,0.0000,0.0000,0.3090,0.6545
i_troulos_1_4,illumination,1064,950,7.10,0.8831,0.8759,0.9568,0.9727,1,1,1,0.1169,0.7056,0.8234,0.9117
i_troulos_1_5,illumination,880,641,7.21,1.3023,0.6909,0.8670,0.9284,1,1,1,0.0000,0.5659,0.7395,0.8698
i_troulos_1_6,illumination,781,574,7.28,1.7413,0.7132,0.9052,0.9565,1,1,1,0.0000,0.4196,0.6517,0.8259
i_veggies_1_2,illumination,2004,1884,8.14,0.2815,0.9371,0.9770,0.9895,1,1,1,0.7185,0.9062,0.9437,0.9719
i_veggies_1_3,illumination,1635,1312,9.27,0.9319,0.7976,0.8869,0.9456,1,1,1,0.0681,0.6894,0.8136,0.9068
i_veggies_1_4,illumination,1816,1569,9.16,0.5495,0.8579,0.9317,0.9681,1,1,1,0.4505,0.8168,0.8901,0.9450
i_veggies_1_5,illumination,1348,835,8.63,1.0221,0.5987,0.7567,0.8657,1,1,1,0.0000,0.6593,0.7956,0.8978
i_veggies_1_6,illumination,1242,705,8.45,0.8179,0.5475,0.7110,0.8510,1,1,1,0.1821,0.7274,0.8364,0.9182
i_village_1_2,illumination,2494,1824,17.41,1.0483,0.7229,0.8673,0.9379,1,1,1,0.0000,0.6506,0.7903,0.8952
i_village_1_3,illumination,2430,1754,9.12,0.6177,0.7062,0.8617,0.9416,1,1,1,0.3823,0.7941,0.8765,0.9382
i_village_1_4,illumination,2456,1842,9.48,0.7727,0.7337,0.8766,0.9422,1,1,1,0.2273,0.7424,0.8455,0.9227
i_village_1_5,illumination,3160,2907,9.09,0.3350,0.9161,0.9801,0.9934,1,1,1,0.6650,0.8883,0.9330,0.9665
i_village_1_6,illumination,2227,1579,9.22,0.7347,0.6870,0.8379,0.9070,1,1,1,0.2653,0.7551,0.8531,0.9265
i_yellowtent_1_2,illumination,2129,2046,8.10,0.1279,0.9563,0.9789,0.9873,1,1,1,0.8721,0.9574,0.9744,0.9872
i_yellowtent_1_3,illumination,1936,1763,9.12,0.2625,0.9013,0.9633,0.9793,1,1,1,0.7375,0.9125,0.9475,0.9737
i_yellowtent_1_4,illumination,1628,1315,9.09,0.5672,0.7930,0.9109,0.9564,1,1,1,0.4328,0.8109,0.8866,0.9433
i_yellowtent_1_5,illumination,1632,1294,9.01,0.6279,0.7966,0.8952,0.9326,1,1,1,0.3721,0.7907,0.8744,0.9372
i_yellowtent_1_6,illumination,1447,1032,8.54,1.0256,0.6987,0.8300,0.8770,1,1,1,0.0000,0.6581,0.7949,0.8974
i_zion_1_2,illumination,2665,2370,9.01,0.4739,0.8901,0.9550,0.9741,1,1,1,0.5261,0.8420,0.9052,0.9526
i_zion_1_3,illumination,2001,1434,9.18,0.7364,0.6997,0.8441,0.9100,1,1,1,0.2636,0.7545,0.8527,0.9264
i_zion_1_4,illumination,1207,699,8.69,0.7738,0.5700,0.7026,0.7970,1,1,1,0.2262,0.7421,0.8452,0.9226
i_zion_1_5,illumination,927,409,8.42,1.3300,0.4283,0.5955,0.7023,1,1,1,0.0000,0.5567,0.7340,0.8670
i_zion_1_6,illumination,978,516,8.67,1.3963,0.5184,0.6892,0.7863,1,1,1,0.0000,0.5346,0.7207,0.8604
v_abstract_1_2,viewpoint,2212,1850,9.82,0.5162,0.8345,0.9539,0.9742,1,1,1,0.4838,0.8279,0.8968,0.9484
v_abstract_1_3,viewpoint,2155,1716,9.88,1.1899,0.7912,0.9248,0.9527,1,1,1,0.0000,0.6034,0.7620,0.8810
v_abstract_1_4,viewpoint,1440,919,8.93,2.2461,0.6403,0.8139,0.8785,1,1,1,0.0000,0.2513,0.5508,0.7754
v_abstract_1_5,viewpoint,1663,1237,8.99,0.8331,0.7276,0.8737,0.9248,1,1,1,0.1669,0.7223,0.8334,0.9167
v_abstract_1_6,viewpoint,1187,706,9.02,1.5356,0.5805,0.7414,0.8054,1,1,1,0.0000,0.4881,0.6929,0.8464
v_adam_1_2,viewpoint,1751,1443,8.57,0.9453,0.8218,0.9349,0.9589,1,1,1,0.0547,0.6849,0.8109,0.9055
v_adam_1_3,viewpoint,1467,1134,8.20,1.0599,0.7498,0.9134,0.9543,1,1,1,0.0000,0.6467,0.7880,0.8940
v_adam_1_4,viewpoint,872,532,8.37,1.8079,0.5975,0.7775,0.8406,1,1,1,0.0000,0.3974,0.6384,0.8192
v_adam_1_5,viewpoint,1252,937,8.39,1.2137,0.7452,0.8978,0.9409,1,1,1,0.0000,0.5954,0.7573,0.8786
v_adam_1_6,viewpoint,1222,870,8.59,1.6757,0.6825,0.8682,0.9394,1,1,1,0.0000,0.4414,0.6649,0.8324
v_apprentices_1_2,viewpoint,1883,1586,17.17,0.3084,0.8476,0.9490,0.9692,1,1,1,0.6916,0.8972,0.9383,0.9692
v_apprentices_1_3,viewpoint,1671,1364,9.51,0.8464,0.8133,0.9402,0.9719,1,1,1,0.1536,0.7179,0.8307,0.9154
v_apprentices_1_4,viewpoint,1342,1037,9.24,0.8166,0.7556,0.9054,0.9531,1,1,1,0.1834,0.7278,0.8367,0.9183
v_apprentices_1_5,viewpoint,1068,749,8.12,0.9323,0.6948,0.8811,0.9326,1,1,1,0.0677,0.6892,0.8135,0.9068
v_apprentices_1_6,viewpoint,913,617,8.21,1.0362,0.6714,0.8291,0.8883,1,1,1,0.0000,0.6546,0.7928,0.8964
v_azzola_1_2,viewpoint,1988,1525,17.09,1.3774,0.7550,0.9090,0.9562,1,1,1,0.0000,0.5409,0.7245,0.8623
v_azzola_1_3,viewpoint,1485,969,8.87,2.0102,0.6343,0.8606,0.9347,1,1,1,0.0000,0.3299,0.5980,0.7990
v_azzola_1_4,viewpoint,1971,1620,9.06,0.5869,0.8097,0.9274,0.9599,1,1,1,0.4131,0.8044,0.8826,0.9413
v_azzola_1_5,viewpoint,1248,817,8.90,1.2737,0.6234,0.8277,0.8878,1,1,1,0.0000,0.5754,0.7453,0.8726
v_azzola_1_6,viewpoint,660,336,8.36,1.9118,0.4561,0.6591,0.7561,1,1,1,0.0000,0.3627,0.6176,0.8088
v_bark_1_2,viewpoint,1335,725,11.68,0.8757,0.5251,0.6839,0.7685,1,1,1,0.1243,0.7081,0.8249,0.9124
v_bark_1_3,viewpoint,553,11,11.15,489.1631,0.0000,0.0000,0.0000,0,0,0,0.0000,0.0000,0.0000,0.0000
v_bark_1_4,viewpoint,569,15,10.04,490.3957,0.0000,0.0000,0.0000,0,0,0,0.0000,0.0000,0.0000,0.0000
v_bark_1_5,viewpoint,515,22,10.77,210.8610,0.0078,0.0117,0.0155,0,0,0,0.0000,0.0000,0.0000,0.0000
v_bark_1_6,viewpoint,521,12,8.90,350.8589,0.0000,0.0019,0.0019,0,0,0,0.0000,0.0000,0.0000,0.0000
v_bees_1_2,viewpoint,2400,2015,8.98,0.4770,0.8354,0.9521,0.9808,1,1,1,0.5230,0.8410,0.9046,0.9523
v_bees_1_3,viewpoint,2515,2123,8.89,0.5090,0.8390,0.9515,0.9789,1,1,1,0.4910,0.8303,0.8982,0.9491
v_bees_1_4,viewpoint,2191,1842,9.05,0.6989,0.8361,0.9461,0.9754,1,1,1,0.3011,0.7670,0.8602,0.9301
v_bees_1_5,viewpoint,1618,1124,8.60,1.6043,0.6959,0.8436,0.9110,1,1,1,0.0000,0.4652,0.6791,0.8396
v_bees_1_6,viewpoint,1685,1339,8.46,1.0118,0.7869,0.9163,0.9567,1,1,1,0.0000,0.6627,0.7976,0.8988
v_beyus_1_2,viewpoint,590,311,16.63,2.4460,0.5000,0.7119,0.8153,1,1,1,0.0000,0.1847,0.5108,0.7554
v_beyus_1_3,viewpoint,677,298,9.51,1.6756,0.4239,0.6160,0.7341,1,1,1,0.0000,0.4415,0.6649,0.8324
v_beyus_1_4,viewpoint,805,532,8.29,0.8407,0.6584,0.8447,0.9180,1,1,1,0.1593,0.7198,0.8319,0.9159
v_beyus_1_5,viewpoint,506,195,8.14,1.0968,0.3735,0.5534,0.6917,1,1,1,0.0000,0.6344,0.7806,0.8903
v_beyus_1_6,viewpoint,790,440,7.95,1.9545,0.5506,0.7671,0.8532,1,1,1,0.0000,0.3485,0.6091,0.8045
v_bip_1_2,viewpoint,1204,893,8.82,0.5355,0.7317,0.8829,0.9053,1,1,1,0.4645,0.8215,0.8929,0.9464
v_bip_1_3,viewpoint,1097,767,9.08,0.8999,0.6983,0.8478,0.8815,1,1,1,0.1001,0.7000,0.8200,0.9100
v_bip_1_4,viewpoint,1135,804,9.30,0.8272,0.7048,0.8493,0.8872,1,1,1,0.1728,0.7243,0.8346,0.9173
v_bip_1_5,viewpoint,495,81,9.19,3.0610,0.1576,0.2687,0.3212,0,1,1,0.0000,0.0000,0.3878,0.6939
v_bip_1_6,viewpoint,366,19,8.19,5.8177,0.0574,0.0902,0.1448,0,0,1,0.0000,0.0000,0.0000,0.4182
v_bird_1_2,viewpoint,1153,823,9.20,77.0386,0.0000,0.0000,0.0000,0,0,0,0.0000,0.0000,0.0000,0.0000
v_bird_1_3,viewpoint,1070,663,9.97,85.5273,0.0000,0.0009,0.0009,0,0,0,0.0000,0.0000,0.0000,0.0000
v_bird_1_4,viewpoint,1190,743,9.30,99.7690,0.0000,0.0000,0.0008,0,0,0,0.0000,0.0000,0.0000,0.0000
v_bird_1_5,viewpoint,1057,556,8.63,89.0685,0.0000,0.0009,0.0009,0,0,0,0.0000,0.0000,0.0000,0.0000
v_bird_1_6,viewpoint,631,139,9.26,179.8344,0.0000,0.0000,0.0000,0,0,0,0.0000,0.0000,0.0000,0.0000
v_birdwoman_1_2,viewpoint,539,84,9.13,42.7122,0.0000,0.0000,0.0019,0,0,0,0.0000,0.0000,0.0000,0.0000
v_birdwoman_1_3,viewpoint,757,341,9.11,54.0220,0.0000,0.0000,0.0000,0,0,0,0.0000,0.0000,0.0000,0.0000
v_birdwoman_1_4,viewpoint,1143,674,10.13,50.0776,0.0000,0.0009,0.0017,0,0,0,0.0000,0.0000,0.0000,0.0000
v_birdwoman_1_5,viewpoint,1937,1434,9.26,52.4200,0.0000,0.0000,0.0000,0,0,0,0.0000,0.0000,0.0000,0.0000
v_birdwoman_1_6,viewpoint,1080,652,9.05,51.1397,0.0000,0.0000,0.0000,0,0,0,0.0000,0.0000,0.0000,0.0000
v_blueprint_1_2,viewpoint,1879,1518,8.90,0.2313,0.8031,0.9468,0.9787,1,1,1,0.7687,0.9229,0.9537,0.9769
v_blueprint_1_3,viewpoint,1399,985,9.43,0.9195,0.7098,0.8692,0.9378,1,1,1,0.0805,0.6935,0.8161,0.9081
v_blueprint_1_4,viewpoint,1663,1333,9.12,0.5131,0.7871,0.9489,0.9838,1,1,1,0.4869,0.8290,0.8974,0.9487
v_blueprint_1_5,viewpoint,1159,773,8.10,1.3168,0.6290,0.8205,0.8965,1,1,1,0.0000,0.5611,0.7366,0.8683
v_blueprint_1_6,viewpoint,792,378,8.27,1.9604,0.4419,0.6111,0.6982,1,1,1,0.0000,0.3465,0.6079,0.8040
v_boat_1_2,viewpoint,2338,1897,17.57,0.8982,0.8058,0.9448,0.9709,1,1,1,0.1018,0.7006,0.8204,0.9102
v_boat_1_3,viewpoint,1231,602,9.57,1.3726,0.4825,0.7246,0.8351,1,1,1,0.0000,0.5425,0.7255,0.8627
v_boat_1_4,viewpoint,516,11,9.05,230.4758,0.0058,0.0252,0.0407,0,0,0,0.0000,0.0000,0.0000,0.0000
v_boat_1_5,viewpoint,499,15,8.97,438.4835,0.0000,0.0000,0.0020,0,0,0,0.0000,0.0000,0.0000,0.0000
v_boat_1_6,viewpoint,760,140,9.06,1.6636,0.1829,0.3224,0.3842,1,1,1,0.0000,0.4455,0.6673,0.8336
v_bricks_1_2,viewpoint,2523,2125,9.00,33.0489,0.0016,0.0103,0.0325,0,0,0,0.0000,0.0000,0.0000,0.0000
v_bricks_1_3,viewpoint,2356,1875,10.64,31.5900,0.0013,0.0081,0.0348,0,0,0,0.0000,0.0000,0.0000,0.0000
v_bricks_1_4,viewpoint,1866,1403,10.25,29.9474,0.0000,0.0064,0.0209,0,0,0,0.0000,0.0000,0.0000,0.0000
v_bricks_1_5,viewpoint,1523,990,9.12,27.0748,0.0000,0.0053,0.0190,0,0,0,0.0000,0.0000,0.0000,0.0000
v_bricks_1_6,viewpoint,946,363,8.77,26.3261,0.0000,0.0000,0.0011,0,0,0,0.0000,0.0000,0.0000,0.0000
v_busstop_1_2,viewpoint,2167,1740,9.36,0.3725,0.8006,0.9271,0.9585,1,1,1,0.6275,0.8758,0.9255,0.9627
v_busstop_1_3,viewpoint,1736,1224,9.49,0.5265,0.7039,0.8456,0.8969,1,1,1,0.4735,0.8245,0.8947,0.9473
v_busstop_1_4,viewpoint,1872,1420,9.36,0.8965,0.7484,0.8905,0.9300,1,1,1,0.1035,0.7012,0.8207,0.9103
v_busstop_1_5,viewpoint,1733,1345,9.17,0.7481,0.7715,0.9036,0.9365,1,1,1,0.2519,0.7506,0.8504,0.9252
v_busstop_1_6,viewpoint,2235,1808,10.00,1.0485,0.8022,0.9320,0.9588,1,1,1,0.0000,0.6505,0.7903,0.8951
v_calder_1_2,viewpoint,1356,939,9.96,1.0292,0.6932,0.8414,0.8938,1,1,1,0.0000,0.6569,0.7942,0.8971
v_calder_1_3,viewpoint,1786,1429,10.12,0.6687,0.7996,0.9300,0.9569,1,1,1,0.3313,0.7771,0.8663,0.9331
v_calder_1_4,viewpoint,892,487,9.08,1.4711,0.5303,0.7175,0.7892,1,1,1,0.0000,0.5096,0.7058,0.8529
v_calder_1_5,viewpoint,657,167,8.53,1.9239,0.2527,0.3881,0.4642,1,1,1,0.0000,0.3587,0.6152,0.8076
v_calder_1_6,viewpoint,437,15,9.06,158.8889,0.0252,0.0526,0.0686,0,0,0,0.0000,0.0000,0.0000,0.0000
v_cartooncity_1_2,viewpoint,1771,1454,8.52,62.0700,0.0000,0.0000,0.0017,0,0,0,0.0000,0.0000,0.0000,0.0000
v_cartooncity_1_3,viewpoint,963,498,9.12,66.0698,0.0000,0.0000,0.0000,0,0,0,0.0000,0.0000,0.0000,0.0000
v_cartooncity_1_4,viewpoint,1611,1220,8.99,74.1953,0.0000,0.0006,0.0006,0,0,0,0.0000,0.0000,0.0000,0.0000
v_cartooncity_1_5,viewpoint,943,506,9.14,75.1945,0.0000,0.0000,0.0000,0,0,0,0.0000,0.0000,0.0000,0.0000
v_cartooncity_1_6,viewpoint,963,478,8.91,69.5972,0.0000,0.0000,0.0000,0,0,0,0.0000,0.0000,0.0000,0.0000
v_charing_1_2,viewpoint,580,213,8.02,3.0717,0.3448,0.5293,0.6414,0,1,1,0.0000,0.0000,0.3857,0.6928
v_charing_1_3,viewpoint,400,101,9.51,210.4848,0.2400,0.3625,0.4675,0,0,0,0.0000,0.0000,0.0000,0.0000
v_charing_1_4,viewpoint,552,243,7.61,13.3644,0.4438,0.6087,0.7264,0,0,0,0.0000,0.0000,0.0000,0.0000
v_charing_1_5,viewpoint,553,214,7.86,209.7902,0.3797,0.5443,0.6293,0,0,0,0.0000,0.0000,0.0000,0.0000
v_charing_1_6,viewpoint,528,175,8.86,14725.8006,0.3030,0.4678,0.5814,0,0,0,0.0000,0.0000,0.0000,0.0000
v_churchill_1_2,viewpoint,1431,966,8.44,2.9981,0.6660,0.8253,0.8847,1,1,1,0.0000,0.0006,0.4004,0.7002
v_churchill_1_3,viewpoint,1224,681,8.79,4.8305,0.5613,0.7525,0.8366,0,1,1,0.0000,0.0000,0.0339,0.5170
v_churchill_1_4,viewpoint,1154,671,8.64,2.9656,0.5815,0.7851,0.8744,1,1,1,0.0000,0.0115,0.4069,0.7034
v_churchill_1_5,viewpoint,1646,1453,8.15,0.8378,0.8773,0.9611,0.9775,1,1,1,0.1622,0.7207,0.8324,0.9162
v_churchill_1_6,viewpoint,817,412,8.69,1.8835,0.4847,0.6769,0.8213,1,1,1,0.0000,0.3722,0.6233,0.8116
v_circus_1_2,viewpoint,923,742,8.02,0.8073,0.7996,0.9252,0.9491,1,1,1,0.1927,0.7309,0.8385,0.9193
v_circus_1_3,viewpoint,742,438,9.13,1.0970,0.5822,0.7480,0.8167,1,1,1,0.0000,0.6343,0.7806,0.8903
v_circus_1_4,viewpoint,674,295,8.07,1.8604,0.4377,0.6395,0.7003,1,1,1,0.0000,0.3799,0.6279,0.8140
v_circus_1_5,viewpoint,904,627,7.56,0.9222,0.6825,0.8562,0.8982,1,1,1,0.0778,0.6926,0.8156,0.9078
v_circus_1_6,viewpoint,728,387,7.79,1.1043,0.5220,0.7088,0.7665,1,1,1,0.0000,0.6319,0.7791,0.8896
v_coffeehouse_1_2,viewpoint,1163,856,7.83,0.9048,0.7274,0.8616,0.9149,1,1,1,0.0952,0.6984,0.8190,0.9095
v_coffeehouse_1_3,viewpoint,1150,793,8.28,0.7456,0.6913,0.8539,0.9113,1,1,1,0.2544,0.7515,0.8509,0.9254
v_coffeehouse_1_4,viewpoint,941,550,8.90,1.6036,0.5855,0.7492,0.8342,1,1,1,0.0000,0.4655,0.6793,0.8396
v_coffeehouse_1_5,viewpoint,1006,705,8.07,0.6127,0.6958,0.8459,0.8907,1,1,1,0.3873,0.7958,0.8775,0.9387
v_coffeehouse_1_6,viewpoint,788,385,8.96,1.5665,0.4962,0.6472,0.7272,1,1,1,0.0000,0.4778,0.6867,0.8433
v_colors_1_2,viewpoint,1015,549,9.14,1.1485,0.5409,0.7103,0.7576,1,1,1,0.0000,0.6172,0.7703,0.8851
v_colors_1_3,viewpoint,955,384,10.66,1.9475,0.3948,0.5780,0.6450,1,1,1,0.0000,0.3508,0.6105,0.8053
v_colors_1_4,viewpoint,614,161,8.68,11.3106,0.2638,0.3730,0.4007,0,0,0,0.0000,0.0000,0.0000,0.0000
v_colors_1_5,viewpoint,506,89,9.77,18.4342,0.1700,0.2609,0.3063,0,0,0,0.0000,0.0000,0.0000,0.0000
v_colors_1_6,viewpoint,393,16,10.11,1412.6568,0.0534,0.0967,0.1272,0,0,0,0.0000,0.0000,0.0000,0.0000
v_courses_1_2,viewpoint,1646,1303,8.77,1.3343,0.7861,0.9313,0.9684,1,1,1,0.0000,0.5552,0.7331,0.8666
v_courses_1_3,viewpoint,1303,884,9.78,1.6702,0.6708,0.8442,0.9217,1,1,1,0.0000,0.4433,0.6660,0.8330
v_courses_1_4,viewpoint,1301,994,8.56,1.4692,0.7471,0.9208,0.9562,1,1,1,0.0000,0.5103,0.7062,0.8531
v_courses_1_5,viewpoint,983,567,9.37,3.5118,0.5310,0.7528,0.8311,0,1,1,0.0000,0.0000,0.2976,0.6488
v_courses_1_6,viewpoint,848,385,9.54,6.9349,0.4057,0.6179,0.7264,0,0,1,0.0000,0.0000,0.0000,0.3065
v_dirtywall_1_2,viewpoint,1629,1231,18.15,0.7895,0.7551,0.9098,0.9460,1,1,1,0.2105,0.7368,0.8421,0.9211
v_dirtywall_1_3,viewpoint,1477,1058,9.66,0.5308,0.7116,0.8775,0.9343,1,1,1,0.4692,0.8231,0.8938,0.9469
v_dirtywall_1_4,viewpoint,1129,644,9.40,1.0991,0.5713,0.7449,0.8406,1,1,1,0.0000,0.6336,0.7802,0.8901
v_dirtywall_1_5,viewpoint,1309,813,10.65,1.2245,0.6150,0.8083,0.8908,1,1,1,0.0000,0.5918,0.7551,0.8775
v_dirtywall_1_6,viewpoint,805,342,9.34,1.7141,0.4161,0.6124,0.7068,1,1,1,0.0000,0.4286,0.6572,0.8286
v_dogman_1_2,viewpoint,1198,818,8.29,1.0566,0.6795,0.8280,0.8798,1,1,1,0.0000,0.6478,0.7887,0.8943
v_dogman_1_3,viewpoint,1304,971,7.97,1.2146,0.7400,0.8428,0.8758,1,1,1,0.0000,0.5951,0.7571,0.8785
v_dogman_1_4,viewpoint,772,359,7.86,3.7885,0.4650,0.6399,0.7254,0,1,1,0.0000,0.0000,0.2423,0.6212
v_dogman_1_5,viewpoint,1001,633,8.10,4.4077,0.6314,0.7772,0.8392,0,1,1,0.0000,0.0000,0.1185,0.5592
v_dogman_1_6,viewpoint,575,193,7.70,46.1481,0.3357,0.4835,0.5583,0,0,0,0.0000,0.0000,0.0000,0.0000
v_eastsouth_1_2,viewpoint,2380,2010,10.44,0.1643,0.8450,0.9466,0.9613,1,1,1,0.8357,0.9452,0.9671,0.9836
v_eastsouth_1_3,viewpoint,1200,582,10.37,0.9029,0.4858,0.7142,0.8208,1,1,1,0.0971,0.6990,0.8194,0.9097
v_eastsouth_1_4,viewpoint,550,13,9.79,427.9677,0.0164,0.0364,0.0636,0,0,0,0.0000,0.0000,0.0000,0.0000
v_eastsouth_1_5,viewpoint,674,82,10.48,4.8238,0.1128,0.2374,0.3175,0,1,1,0.0000,0.0000,0.0352,0.5176
v_eastsouth_1_6,viewpoint,601,59,10.26,4.0069,0.0815,0.1614,0.2146,0,1,1,0.0000,0.0000,0.1986,0.5993
v_feast_1_2,viewpoint,1411,1033,9.26,0.6137,0.7201,0.8887,0.9298,1,1,1,0.3863,0.7954,0.8773,0.9386
v_feast_1_3,viewpoint,1845,1358,10.20,0.6261,0.7285,0.9030,0.9350,1,1,1,0.3739,0.7913,0.8748,0.9374
v_feast_1_4,viewpoint,1002,525,10.57,1.1706,0.5070,0.6697,0.7196,1,1,1,0.0000,0.6098,0.7659,0.8829
v_feast_1_5,viewpoint,1665,1153,10.39,1.1777,0.6745,0.8541,0.9093,1,1,1,0.0000,0.6074,0.7645,0.8822
v_feast_1_6,viewpoint,1186,752,11.07,1.4092,0.5894,0.7833,0.8390,1,1,1,0.0000,0.5303,0.7182,0.8591
v_fest_1_2,viewpoint,2067,1648,11.19,0.7856,0.7925,0.9095,0.9439,1,1,1,0.2144,0.7381,0.8429,0.9214
v_fest_1_3,viewpoint,1464,883,10.70,1.6167,0.6031,0.7650,0.8422,1,1,1,0.0000,0.4611,0.6767,0.8383
v_fest_1_4,viewpoint,1492,1042,10.25,1.5156,0.6850,0.8324,0.8854,1,1,1,0.0000,0.4948,0.6969,0.8484
v_fest_1_5,viewpoint,1433,865,10.26,1.9933,0.5953,0.7725,0.8493,1,1,1,0.0000,0.3356,0.6013,0.8007
v_fest_1_6,viewpoint,1094,530,9.17,5.9205,0.4644,0.6554,0.7550,0,0,1,0.0000,0.0000,0.0000,0.4079
v_gardens_1_2,viewpoint,1570,984,11.10,2.1317,0.6172,0.8045,0.8732,1,1,1,0.0000,0.2894,0.5737,0.7868
v_gardens_1_3,viewpoint,790,297,10.64,8.3339,0.3608,0.5101,0.6013,0,0,0,0.0000,0.0000,0.0000,0.1666
v_gardens_1_4,viewpoint,2030,1523,10.26,1.0256,0.7419,0.8970,0.9438,1,1,1,0.0000,0.6581,0.7949,0.8974
v_gardens_1_5,viewpoint,1112,560,10.27,3.2984,0.4928,0.6745,0.7716,0,1,1,0.0000,0.0000,0.3403,0.6702
v_gardens_1_6,viewpoint,1620,1036,9.83,1.8864,0.6333,0.8290,0.9142,1,1,1,0.0000,0.3712,0.6227,0.8114
v_grace_1_2,viewpoint,2027,1415,10.33,0.9780,0.6936,0.8890,0.9344,1,1,1,0.0220,0.6740,0.8044,0.9022
v_grace_1_3,viewpoint,1710,1080,10.98,1.7037,0.6246,0.8222,0.9018,1,1,1,0.0000,0.4321,0.6593,0.8296
v_grace_1_4,viewpoint,1479,816,10.22,4.3320,0.5267,0.7593,0.8431,0,1,1,0.0000,0.0000,0.1336,0.5668
v_grace_1_5,viewpoint,986,434,10.52,3.9549,0.4260,0.6481,0.7272,0,1,1,0.0000,0.0000,0.2090,0.6045
v_grace_1_6,viewpoint,771,147,10.75,12.8187,0.1608,0.2996,0.3645,0,0,0,0.0000,0.0000,0.0000,0.0000
v_graffiti_1_2,viewpoint,1795,1227,9.69,1.7371,0.6786,0.8602,0.9231,1,1,1,0.0000,0.4210,0.6526,0.8263
v_graffiti_1_3,viewpoint,1431,840,10.67,2.3829,0.5716,0.7764,0.8477,1,1,1,0.0000,0.2057,0.5234,0.7617
v_graffiti_1_4,viewpoint,997,248,10.75,1.7802,0.2508,0.4263,0.5296,1,1,1,0.0000,0.4066,0.6440,0.8220
v_graffiti_1_5,viewpoint,969,344,10.34,1.6832,0.3467,0.5232,0.6017,1,1,1,0.0000,0.4389,0.6634,0.8317
v_graffiti_1_6,viewpoint,613,13,10.48,212.3858,0.0424,0.0701,0.0914,0,0,0,0.0000,0.0000,0.0000,0.0000
v_home_1_2,viewpoint,1111,776,8.65,1.2279,0.6904,0.8542,0.9001,1,1,1,0.0000,0.5907,0.7544,0.8772
v_home_1_3,viewpoint,1019,651,9.95,2.2601,0.6045,0.7674,0.8489,1,1,1,0.0000,0.2466,0.5480,0.7740
v_home_1_4,viewpoint,1166,844,9.42,0.7794,0.7084,0.8937,0.9494,1,1,1,0.2206,0.7402,0.8441,0.9221
v_home_1_5,viewpoint,975,503,10.38,5.2286,0.4831,0.6964,0.8092,0,0,1,0.0000,0.0000,0.0000,0.4771
v_home_1_6,viewpoint,723,276,8.60,2.2407,0.3458,0.6113,0.7261,1,1,1,0.0000,0.2531,0.5519,0.7759
v_laptop_1_2,viewpoint,1171,975,8.82,0.7773,0.8326,0.9368,0.9573,1,1,1,0.2227,0.7409,0.8445,0.9223
v_laptop_1_3,viewpoint,654,369,8.01,1.4938,0.5459,0.7737,0.8609,1,1,1,0.0000,0.5021,0.7012,0.8506
v_laptop_1_4,viewpoint,264,23,7.84,14.4574,0.0758,0.1364,0.1970,0,0,0,0.0000,0.0000,0.0000,0.0000
v_laptop_1_5,viewpoint,228,9,7.82,476.6246,0.0044,0.0088,0.0132,0,0,0,0.0000,0.0000,0.0000,0.0000
v_laptop_1_6,viewpoint,255,12,7.85,294.8012,0.0039,0.0196,0.0196,0,0,0,0.0000,0.0000,0.0000,0.0000
v_london_1_2,viewpoint,1891,1461,9.20,0.3915,0.7689,0.9001,0.9455,1,1,1,0.6085,0.8695,0.9217,0.9608
v_london_1_3,viewpoint,1705,1323,9.66,0.7940,0.7619,0.8985,0.9455,1,1,1,0.2060,0.7353,0.8412,0.9206
v_london_1_4,viewpoint,1552,1053,9.20,1.9750,0.6682,0.8363,0.9098,1,1,1,0.0000,0.3417,0.6050,0.8025
v_london_1_5,viewpoint,1869,1433,8.99,0.8255,0.7694,0.8973,0.9454,1,1,1,0.1745,0.7248,0.8349,0.9175
v_london_1_6,viewpoint,1999,1578,9.06,1.1405,0.7894,0.9085,0.9410,1,1,1,0.0000,0.6198,0.7719,0.8860
v_machines_1_2,viewpoint,1423,1094,8.09,1.0622,0.7625,0.9178,0.9691,1,1,1,0.0000,0.6459,0.7876,0.8938
v_machines_1_3,viewpoint,946,574,8.05,2.3279,0.5899,0.7928,0.8732,1,1,1,0.0000,0.2240,0.5344,0.7672
v_machines_1_4,viewpoint,1104,807,7.80,0.9519,0.7156,0.9076,0.9466,1,1,1,0.0481,0.6827,0.8096,0.9048
v_machines_1_5,viewpoint,792,445,7.91,1.5641,0.5556,0.7551,0.8775,1,1,1,0.0000,0.4786,0.6872,0.8436
v_machines_1_6,viewpoint,1013,769,8.14,0.8092,0.7621,0.9092,0.9546,1,1,1,0.1908,0.7303,0.8382,0.9191
v_man_1_2,viewpoint,1711,1184,10.11,1.1538,0.6721,0.8738,0.9340,1,1,1,0.0000,0.6154,0.7692,0.8846
v_man_1_3,viewpoint,1167,687,9.72,4.9988,0.5467,0.7558,0.8218,0,1,1,0.0000,0.0000,0.0002,0.5001
v_man_1_4,viewpoint,1137,586,9.35,1.8393,0.4890,0.7335,0.8487,1,1,1,0.0000,0.3869,0.6321,0.8161
v_man_1_5,viewpoint,1491,987,9.43,2.8573,0.6465,0.8605,0.9188,1,1,1,0.0000,0.0476,0.4285,0.7143
v_man_1_6,viewpoint,1448,913,8.76,2.1755,0.6222,0.8204,0.8930,1,1,1,0.0000,0.2748,0.5649,0.7825
v_maskedman_1_2,viewpoint,1235,776,8.98,1.5887,0.6202,0.7960,0.8575,1,1,1,0.0000,0.4704,0.6823,0.8411
v_maskedman_1_3,viewpoint,880,501,7.86,1.4253,0.5636,0.7227,0.7864,1,1,1,0.0000,0.5249,0.7149,0.8575
v_maskedman_1_4,viewpoint,1408,904,8.75,2.6829,0.6179,0.8011,0.8828,1,1,1,0.0000,0.1057,0.4634,0.7317
v_maskedman_1_5,viewpoint,1472,1011,9.67,2.5625,0.6664,0.8451,0.9001,1,1,1,0.0000,0.1458,0.4875,0.7438
v_maskedman_1_6,viewpoint,521,166,8.48,2.8788,0.3033,0.4127,0.4702,1,1,1,0.0000,0.0404,0.4242,0.7121
v_pomegranate_1_2,viewpoint,2130,1588,10.35,0.6459,0.7371,0.9085,0.9601,1,1,1,0.3541,0.7847,0.8708,0.9354
v_pomegranate_1_3,viewpoint,1837,1233,10.18,1.0704,0.6717,0.8688,0.9325,1,1,1,0.0000,0.6432,0.7859,0.8930
v_pomegranate_1_4,viewpoint,1632,1140,9.36,0.6687,0.7004,0.8719,0.9308,1,1,1,0.3313,0.7771,0.8663,0.9331
v_pomegranate_1_5,viewpoint,1809,1327,9.17,1.2963,0.7214,0.8944,0.9536,1,1,1,0.0000,0.5679,0.7407,0.8704
v_pomegranate_1_6,viewpoint,1804,1343,8.59,0.5483,0.7400,0.9019,0.9579,1,1,1,0.4517,0.8172,0.8903,0.9452
v_posters_1_2,viewpoint,1391,925,17.60,115.4401,0.0000,0.0000,0.0000,0,0,0,0.0000,0.0000,0.0000,0.0000
v_posters_1_3,viewpoint,1813,1333,9.83,120.7514,0.0000,0.0000,0.0000,0,0,0,0.0000,0.0000,0.0000,0.0000
v_posters_1_4,viewpoint,1578,1144,10.34,112.5257,0.0000,0.0000,0.0000,0,0,0,0.0000,0.0000,0.0000,0.0000
v_posters_1_5,viewpoint,1227,688,10.23,124.8085,0.0008,0.0008,0.0016,0,0,0,0.0000,0.0000,0.0000,0.0000
v_posters_1_6,viewpoint,1346,691,9.86,146.8183,0.0000,0.0000,0.0000,0,0,0,0.0000,0.0000,0.0000,0.0000
v_samples_1_2,viewpoint,1977,1663,10.62,68.3854,0.0000,0.0000,0.0000,0,0,0,0.0000,0.0000,0.0000,0.0000
v_samples_1_3,viewpoint,2069,1732,10.57,72.5603,0.0000,0.0000,0.0010,0,0,0,0.0000,0.0000,0.0000,0.0000
v_samples_1_4,viewpoint,1572,1173,10.42,71.8534,0.0006,0.0057,0.0095,0,0,0,0.0000,0.0000,0.0000,0.0000
v_samples_1_5,viewpoint,1825,1473,11.55,80.7642,0.0000,0.0000,0.0000,0,0,0,0.0000,0.0000,0.0000,0.0000
v_samples_1_6,viewpoint,1379,951,10.44,66.9883,0.0000,0.0029,0.0080,0,0,0,0.0000,0.0000,0.0000,0.0000
v_soldiers_1_2,viewpoint,1741,1215,10.72,2.6242,0.6996,0.8570,0.9115,1,1,1,0.0000,0.1253,0.4752,0.7376
v_soldiers_1_3,viewpoint,1322,739,9.30,1.5105,0.5545,0.7368,0.8177,1,1,1,0.0000,0.4965,0.6979,0.8490
v_soldiers_1_4,viewpoint,883,340,9.08,1.6413,0.3760,0.5028,0.5764,1,1,1,0.0000,0.4529,0.6717,0.8359
v_soldiers_1_5,viewpoint,647,83,9.16,20.2616,0.1097,0.1561,0.1808,0,0,0,0.0000,0.0000,0.0000,0.0000
v_soldiers_1_6,viewpoint,1442,968,9.05,96.2159,0.0000,0.0000,0.0000,0,0,0,0.0000,0.0000,0.0000,0.0000
v_strand_1_2,viewpoint,2003,1696,9.26,0.8129,0.8392,0.9496,0.9765,1,1,1,0.1871,0.7290,0.8374,0.9187
v_strand_1_3,viewpoint,1489,1032,10.04,1.0769,0.6622,0.8751,0.9389,1,1,1,0.0000,0.6410,0.7846,0.8923
v_strand_1_4,viewpoint,1548,1063,8.78,2.3970,0.6680,0.8669,0.9380,1,1,1,0.0000,0.2010,0.5206,0.7603
v_strand_1_5,viewpoint,1553,1047,8.82,3.0748,0.6156,0.8210,0.9118,0,1,1,0.0000,0.0000,0.3850,0.6925
v_strand_1_6,viewpoint,1219,753,9.31,4.2106,0.5587,0.8056,0.9007,0,1,1,0.0000,0.0000,0.1579,0.5789
v_sunseason_1_2,viewpoint,2370,2045,9.20,0.3076,0.8608,0.9743,0.9911,1,1,1,0.6924,0.8975,0.9385,0.9692
v_sunseason_1_3,viewpoint,1993,1580,9.06,0.8124,0.7923,0.9267,0.9503,1,1,1,0.1876,0.7292,0.8375,0.9188
v_sunseason_1_4,viewpoint,1230,715,8.74,2.2102,0.5797,0.7398,0.7772,1,1,1,0.0000,0.2633,0.5580,0.7790
v_sunseason_1_5,viewpoint,1069,531,8.54,4.2120,0.4902,0.6548,0.7072,0,1,1,0.0000,0.0000,0.1576,0.5788
v_sunseason_1_6,viewpoint,922,352,8.85,5.1397,0.3926,0.5466,0.6150,0,0,1,0.0000,0.0000,0.0000,0.4860
v_tabletop_1_2,viewpoint,1364,907,8.94,0.8232,0.6518,0.7991,0.8541,1,1,1,0.1768,0.7256,0.8354,0.9177
v_tabletop_1_3,viewpoint,741,191,9.78,2.0205,0.2497,0.3698,0.4507,1,1,1,0.0000,0.3265,0.5959,0.7979
v_tabletop_1_4,viewpoint,722,185,9.40,3.4314,0.2465,0.3712,0.4488,0,1,1,0.0000,0.0000,0.3137,0.6569
v_tabletop_1_5,viewpoint,750,194,8.69,2.6224,0.2493,0.3787,0.4440,1,1,1,0.0000,0.1259,0.4755,0.7378
v_tabletop_1_6,viewpoint,808,224,9.03,2.9951,0.2735,0.3923,0.4616,1,1,1,0.0000,0.0016,0.4010,0.7005
v_tempera_1_2,viewpoint,1174,972,8.40,0.8201,0.8177,0.9327,0.9668,1,1,1,0.1799,0.7266,0.8360,0.9180
v_tempera_1_3,viewpoint,1186,871,8.75,0.6468,0.7293,0.9148,0.9570,1,1,1,0.3532,0.7844,0.8706,0.9353
v_tempera_1_4,viewpoint,1044,791,9.14,0.7293,0.7481,0.9023,0.9511,1,1,1,0.2707,0.7569,0.8541,0.9271
v_tempera_1_5,viewpoint,1007,730,8.84,0.9952,0.7100,0.8848,0.9335,1,1,1,0.0048,0.6683,0.8010,0.9005
v_tempera_1_6,viewpoint,588,265,9.73,3.2903,0.4184,0.5969,0.6820,0,1,1,0.0000,0.0000,0.3419,0.6710
v_there_1_2,viewpoint,1757,1151,10.33,2.3261,0.6431,0.8611,0.9249,1,1,1,0.0000,0.2246,0.5348,0.7674
v_there_1_3,viewpoint,649,118,10.70,2.5966,0.1803,0.2974,0.3667,1,1,1,0.0000,0.1345,0.4807,0.7403
v_there_1_4,viewpoint,458,11,11.55,159.9016,0.0262,0.0524,0.0721,0,0,0,0.0000,0.0000,0.0000,0.0000
v_there_1_5,viewpoint,440,12,9.93,285.4572,0.0045,0.0068,0.0182,0,0,0,0.0000,0.0000,0.0000,0.0000
v_there_1_6,viewpoint,451,12,10.59,235.3668,0.0000,0.0000,0.0000,0,0,0,0.0000,0.0000,0.0000,0.0000
v_underground_1_2,viewpoint,1618,1198,9.72,0.5559,0.7379,0.8869,0.9345,1,1,1,0.4441,0.8147,0.8888,0.9444
v_underground_1_3,viewpoint,1319,781,9.54,1.3534,0.5929,0.7824,0.8597,1,1,1,0.0000,0.5489,0.7293,0.8647
v_underground_1_4,viewpoint,1020,455,9.74,3.2215,0.4529,0.6157,0.7049,0,1,1,0.0000,0.0000,0.3557,0.6779
v_underground_1_5,viewpoint,788,264,9.00,7.0420,0.3528,0.5000,0.5876,0,0,0,0.0000,0.0000,0.0000,0.2958
v_underground_1_6,viewpoint,579,133,9.53,4.0581,0.2280,0.3592,0.4611,0,1,1,0.0000,0.0000,0.1884,0.5942
v_vitro_1_2,viewpoint,1824,1576,8.67,0.2626,0.8662,0.9737,0.9857,1,1,1,0.7374,0.9125,0.9475,0.9737
v_vitro_1_3,viewpoint,1596,1225,9.05,0.5907,0.7744,0.9041,0.9342,1,1,1,0.4093,0.8031,0.8819,0.9409
v_vitro_1_4,viewpoint,1216,840,9.27,1.1095,0.6842,0.8273,0.8734,1,1,1,0.0000,0.6302,0.7781,0.8890
v_vitro_1_5,viewpoint,1713,1353,9.35,0.5870,0.7776,0.9440,0.9720,1,1,1,0.4130,0.8043,0.8826,0.9413
v_vitro_1_6,viewpoint,1456,1047,9.59,0.7012,0.7054,0.8908,0.9375,1,1,1,0.2988,0.7663,0.8598,0.9299
v_wall_1_2,viewpoint,1901,1468,8.67,0.9951,0.7706,0.8974,0.9295,1,1,1,0.0049,0.6683,0.8010,0.9005
v_wall_1_3,viewpoint,1563,1021,9.08,3.5124,0.6552,0.8061,0.8804,0,1,1,0.0000,0.0000,0.2975,0.6488
v_wall_1_4,viewpoint,1853,1510,8.41,0.2845,0.8144,0.9169,0.9385,1,1,1,0.7155,0.9052,0.9431,0.9716
v_wall_1_5,viewpoint,1442,938,9.88,2.3618,0.6325,0.8044,0.8752,1,1,1,0.0000,0.2127,0.5276,0.7638
v_wall_1_6,viewpoint,1249,756,9.57,4.7367,0.5909,0.7550,0.8255,0,1,1,0.0000,0.0000,0.0527,0.5263
v_wapping_1_2,viewpoint,2091,1346,11.14,1.4811,0.6404,0.8441,0.9039,1,1,1,0.0000,0.5063,0.7038,0.8519
v_wapping_1_3,viewpoint,1218,537,10.49,2.5146,0.4392,0.6396,0.7233,1,1,1,0.0000,0.1618,0.4971,0.7485
v_wapping_1_4,viewpoint,1284,566,9.64,2.2353,0.4330,0.6534,0.7617,1,1,1,0.0000,0.2549,0.5529,0.7765
v_wapping_1_5,viewpoint,892,320,9.27,2.1943,0.3587,0.5135,0.5942,1,1,1,0.0000,0.2686,0.5611,0.7806
v_wapping_1_6,viewpoint,622,105,9.04,7.0283,0.1383,0.2733,0.3376,0,0,0,0.0000,0.0000,0.0000,0.2972
v_war_1_2,viewpoint,1138,747,9.16,0.9543,0.6476,0.8480,0.9200,1,1,1,0.0457,0.6819,0.8091,0.9046
v_war_1_3,viewpoint,908,530,8.63,1.8934,0.5782,0.7731,0.8689,1,1,1,0.0000,0.3689,0.6213,0.8107
v_war_1_4,viewpoint,1514,1259,8.89,0.4444,0.8309,0.9557,0.9789,1,1,1,0.5556,0.8519,0.9111,0.9556
v_war_1_5,viewpoint,1438,1113,8.52,0.5656,0.7747,0.9409,0.9743,1,1,1,0.4344,0.8115,0.8869,0.9434
v_war_1_6,viewpoint,873,478,8.80,1.7173,0.5475,0.7285,0.8087,1,1,1,0.0000,0.4276,0.6565,0.8283
v_weapons_1_2,viewpoint,1284,1055,8.14,0.8180,0.8201,0.9556,0.9844,1,1,1,0.1820,0.7273,0.8364,0.9182
v_weapons_1_3,viewpoint,1084,752,9.65,1.0848,0.6928,0.8690,0.9336,1,1,1,0.0000,0.6384,0.7830,0.8915
v_weapons_1_4,viewpoint,1327,922,8.72,1.7809,0.6865,0.8644,0.9344,1,1,1,0.0000,0.4064,0.6438,0.8219
v_weapons_1_5,viewpoint,1296,1014,7.98,1.5207,0.7755,0.9336,0.9715,1,1,1,0.0000,0.4931,0.6959,0.8479
v_weapons_1_6,viewpoint,1110,815,8.20,1.4501,0.7189,0.9207,0.9622,1,1,1,0.0000,0.5166,0.7100,0.8550
v_woman_1_2,viewpoint,849,511,8.15,46.2714,0.0000,0.0000,0.0000,0,0,0,0.0000,0.0000,0.0000,0.0000
v_woman_1_3,viewpoint,993,615,8.26,49.8673,0.0000,0.0000,0.0000,0,0,0,0.0000,0.0000,0.0000,0.0000
v_woman_1_4,viewpoint,942,493,8.14,51.6231,0.0000,0.0000,0.0000,0,0,0,0.0000,0.0000,0.0000,0.0000
v_woman_1_5,viewpoint,667,318,8.05,44.4576,0.0015,0.0015,0.0015,0,0,0,0.0000,0.0000,0.0000,0.0000
v_woman_1_6,viewpoint,835,395,8.23,48.0787,0.0000,0.0000,0.0000,0,0,0,0.0000,0.0000,0.0000,0.0000
v_wormhole_1_2,viewpoint,1320,1021,8.69,0.4710,0.7705,0.8985,0.9333,1,1,1,0.5290,0.8430,0.9058,0.9529
v_wormhole_1_3,viewpoint,1553,1140,9.14,0.8523,0.7238,0.9124,0.9601,1,1,1,0.1477,0.7159,0.8295,0.9148
v_wormhole_1_4,viewpoint,1669,1307,8.59,0.6168,0.7789,0.9161,0.9581,1,1,1,0.3832,0.7944,0.8766,0.9383
v_wormhole_1_5,viewpoint,1093,631,8.58,4.3319,0.5663,0.7210,0.8015,0,1,1,0.0000,0.0000,0.1336,0.5668
v_wormhole_1_6,viewpoint,741,237,8.91,13.1104,0.3131,0.4710,0.5655,0,0,0,0.0000,0.0000,0.0000,0.0000
v_wounded_1_2,viewpoint,1085,715,8.05,1.7363,0.6627,0.8129,0.8719,1,1,1,0.0000,0.4212,0.6527,0.8264
v_wounded_1_3,viewpoint,732,376,8.27,12.6165,0.5055,0.6831,0.7527,0,0,0,0.0000,0.0000,0.0000,0.0000
v_wounded_1_4,viewpoint,445,164,7.91,17.2519,0.3685,0.5371,0.6449,0,0,0,0.0000,0.0000,0.0000,0.0000
v_wounded_1_5,viewpoint,663,315,7.91,10.3996,0.4585,0.6410,0.7315,0,0,0,0.0000,0.0000,0.0000,0.0000
v_wounded_1_6,viewpoint,463,161,8.41,29.1385,0.3564,0.5076,0.6199,0,0,0,0.0000,0.0000,0.0000,0.0000
v_yard_1_2,viewpoint,1999,1600,10.28,0.4744,0.7874,0.9310,0.9650,1,1,1,0.5256,0.8419,0.9051,0.9526
v_yard_1_3,viewpoint,1056,526,10.63,1.2096,0.4830,0.6439,0.7566,1,1,1,0.0000,0.5968,0.7581,0.8790
v_yard_1_4,viewpoint,1786,1377,9.30,0.6614,0.7699,0.9149,0.9614,1,1,1,0.3386,0.7795,0.8677,0.9339
v_yard_1_5,viewpoint,1381,774,9.80,2.7580,0.5561,0.7552,0.8400,1,1,1,0.0000,0.0807,0.4484,0.7242
v_yard_1_6,viewpoint,834,226,9.98,7.9948,0.2614,0.4065,0.4748,0,0,0,0.0000,0.0000,0.0000,0.2005
v_yuri_1_2,viewpoint,1238,906,8.30,1.4235,0.7044,0.8683,0.9265,1,1,1,0.0000,0.5255,0.7153,0.8576
v_yuri_1_3,viewpoint,860,470,9.23,4.2218,0.5326,0.6756,0.7733,0,1,1,0.0000,0.0000,0.1556,0.5778
v_yuri_1_4,viewpoint,683,265,8.33,15.7262,0.3558,0.5432,0.6471,0,0,0,0.0000,0.0000,0.0000,0.0000
v_yuri_1_5,viewpoint,1020,617,8.17,4.8336,0.5971,0.7627,0.8598,0,1,1,0.0000,0.0000,0.0333,0.5166
v_yuri_1_6,viewpoint,739,327,8.14,20.2863,0.4425,0.6387,0.7510,0,0,0,0.0000,0.0000,0.0000,0.0000
