PairName,SeqType,NumMatches,Inliers,TimeMS,H_Error,MMA@3,MMA@5,MMA@7,MHA_Acc@3,MHA_Acc@5,MHA_Acc@7,AUC@1,AUC@3,AUC@5,AUC@10
i_ajuntament_1_2,illumination,889,767,190.23,0.2406,0.8628,0.8864,0.8898,1,1,1,0.7594,0.9198,0.9519,0.9759
i_ajuntament_1_3,illumination,330,75,8.24,1.5776,0.2152,0.2394,0.2424,1,1,1,0.0000,0.4741,0.6845,0.8422
i_ajuntament_1_4,illumination,244,6,7.81,246.7846,0.0533,0.0656,0.0697,0,0,0,0.0000,0.0000,0.0000,0.0000
i_ajuntament_1_5,illumination,224,8,7.34,297.7600,0.0893,0.1027,0.1071,0,0,0,0.0000,0.0000,0.0000,0.0000
i_ajuntament_1_6,illumination,246,8,8.35,413.1491,0.0854,0.0854,0.0854,0,0,0,0.0000,0.0000,0.0000,0.0000
i_autannes_1_2,illumination,357,205,7.86,0.0000,0.5742,0.5854,0.5882,1,1,1,1.0000,1.0000,1.0000,1.0000
i_autannes_1_3,illumination,329,109,8.19,0.0000,0.3313,0.3374,0.3435,1,1,1,1.0000,1.0000,1.0000,1.0000
i_autannes_1_4,illumination,314,104,8.77,2.9691,0.3185,0.3694,0.3694,1,1,1,0.0000,0.0103,0.4062,0.7031
i_autannes_1_5,illumination,302,71,10.48,2.1153,0.2318,0.2682,0.2914,1,1,1,0.0000,0.2949,0.5769,0.7885
i_autannes_1_6,illumination,349,207,7.22,2.3658,0.5874,0.6418,0.6533,1,1,1,0.0000,0.2114,0.5268,0.7634
i_bologna_1_2,illumination,287,232,5.50,0.9539,0.8084,0.8362,0.8502,1,1,1,0.0461,0.6820,0.8092,0.9046
i_bologna_1_3,illumination,255,135,5.71,3.2910,0.5255,0.5765,0.5882,0,1,1,0.0000,0.0000,0.3418,0.6709
i_bologna_1_4,illumination,260,161,6.87,2.6304,0.6154,0.6654,0.6769,1,1,1,0.0000,0.1232,0.4739,0.7370
i_bologna_1_5,illumination,252,134,6.40,1.7700,0.5278,0.5556,0.5833,1,1,1,0.0000,0.4100,0.6460,0.8230
i_bologna_1_6,illumination,248,130,6.24,3.1736,0.5161,0.5685,0.5927,0,1,1,0.0000,0.0000,0.3653,0.6826
i_books_1_2,illumination,608,533,7.90,0.0000,0.8766,0.8964,0.9046,1,1,1,1.0000,1.0000,1.0000,1.0000
i_books_1_3,illumination,598,419,10.06,0.0000,0.7007,0.7207,0.7291,1,1,1,1.0000,1.0000,1.0000,1.0000
i_books_1_4,illumination,686,553,9.47,0.0000,0.8061,0.8309,0.8367,1,1,1,1.0000,1.0000,1.0000,1.0000
i_books_1_5,illumination,776,679,9.21,0.0000,0.8750,0.8918,0.8956,1,1,1,1.0000,1.0000,1.0000,1.0000
i_books_1_6,illumination,815,738,8.54,0.0000,0.9067,0.9141,0.9227,1,1,1,1.0000,1.0000,1.0000,1.0000
i_boutique_1_2,illumination,994,792,16.95,0.4790,0.7948,0.8360,0.8441,1,1,1,0.5210,0.8403,0.9042,0.9521
i_boutique_1_3,illumination,735,349,14.85,0.9994,0.4735,0.5333,0.5442,1,1,1,0.0006,0.6669,0.8001,0.9001
i_boutique_1_4,illumination,754,391,14.74,0.0000,0.5199,0.5862,0.6233,1,1,1,1.0000,1.0000,1.0000,1.0000
i_boutique_1_5,illumination,618,8,18.18,442.2215,0.0566,0.0647,0.0761,0,0,0,0.0000,0.0000,0.0000,0.0000
i_boutique_1_6,illumination,602,46,13.91,3.3979,0.0781,0.0947,0.1047,0,1,1,0.0000,0.0000,0.3204,0.6602
i_bridger_1_2,illumination,838,619,14.97,0.0000,0.7399,0.8162,0.8496,1,1,1,1.0000,1.0000,1.0000,1.0000
i_bridger_1_3,illumination,872,677,12.26,0.0000,0.7775,0.8303,0.8417,1,1,1,1.0000,1.0000,1.0000,1.0000
i_bridger_1_4,illumination,732,511,12.36,0.6233,0.6981,0.7678,0.7883,1,1,1,0.3767,0.7922,0.8753,0.9377
i_bridger_1_5,illumination,519,282,9.48,0.9388,0.5376,0.5838,0.5992,1,1,1,0.0612,0.6871,0.8122,0.9061
i_bridger_1_6,illumination,60,16,5.99,17.3866,0.2500,0.2833,0.2833,0,0,0,0.0000,0.0000,0.0000,0.0000
i_brooklyn_1_2,illumination,622,377,11.19,1.4487,0.6013,0.6752,0.7042,1,1,1,0.0000,0.5171,0.7103,0.8551
i_brooklyn_1_3,illumination,925,846,10.54,1.2226,0.8897,0.9438,0.9578,1,1,1,0.0000,0.5925,0.7555,0.8777
i_brooklyn_1_4,illumination,468,146,10.60,1.3937,0.2927,0.3397,0.3675,1,1,1,0.0000,0.5354,0.7213,0.8606
i_brooklyn_1_5,illumination,870,773,10.27,1.4533,0.8506,0.9333,0.9483,1,1,1,0.0000,0.5156,0.7093,0.8547
i_brooklyn_1_6,illumination,572,315,10.80,2.0546,0.5052,0.6049,0.6486,1,1,1,0.0000,0.3151,0.5891,0.7945
i_castle_1_2,illumination,580,95,14.31,2.8797,0.1638,0.1966,0.2121,1,1,1,0.0000,0.0401,0.4241,0.7120
i_castle_1_3,illumination,549,190,13.98,2.5131,0.3497,0.3825,0.3953,1,1,1,0.0000,0.1623,0.4974,0.7487
i_castle_1_4,illumination,469,178,11.02,2.7704,0.3753,0.4051,0.4264,1,1,1,0.0000,0.0765,0.4459,0.7230
i_castle_1_5,illumination,458,66,11.37,1.9935,0.1354,0.1638,0.1878,1,1,1,0.0000,0.3355,0.6013,0.8007
i_castle_1_6,illumination,515,21,13.77,439.1132,0.0990,0.1301,0.1398,0,0,0,0.0000,0.0000,0.0000,0.0000
i_chestnuts_1_2,illumination,781,509,13.38,0.9465,0.6517,0.7017,0.7298,1,1,1,0.0535,0.6845,0.8107,0.9053
i_chestnuts_1_3,illumination,783,523,13.16,0.0000,0.6679,0.7229,0.7535,1,1,1,1.0000,1.0000,1.0000,1.0000
i_chestnuts_1_4,illumination,797,520,13.29,0.0000,0.6524,0.7102,0.7327,1,1,1,1.0000,1.0000,1.0000,1.0000
i_chestnuts_1_5,illumination,653,366,12.45,0.0000,0.5605,0.6309,0.6524,1,1,1,1.0000,1.0000,1.0000,1.0000
i_chestnuts_1_6,illumination,562,172,12.25,2.6787,0.3078,0.3612,0.3915,1,1,1,0.0000,0.1071,0.4643,0.7321
i_crownday_1_2,illumination,460,134,10.27,2.2095,0.2804,0.3043,0.3196,1,1,1,0.0000,0.2635,0.5581,0.7790
i_crownday_1_3,illumination,485,256,9.91,1.0431,0.5237,0.5567,0.5608,1,1,1,0.0000,0.6523,0.7914,0.8957
i_crownday_1_4,illumination,525,339,9.44,0.0000,0.6457,0.6686,0.6819,1,1,1,1.0000,1.0000,1.0000,1.0000
i_crownday_1_5,illumination,721,635,9.02,0.5014,0.8821,0.9112,0.9154,1,1,1,0.4986,0.8329,0.8997,0.9499
i_crownday_1_6,illumination,459,125,10.67,3.0822,0.2702,0.2832,0.2876,0,1,1,0.0000,0.0000,0.3836,0.6918
i_dome_1_2,illumination,838,702,12.30,0.0000,0.8377,0.8652,0.8771,1,1,1,1.0000,1.0000,1.0000,1.0000
i_dome_1_3,illumination,512,86,12.07,1.3460,0.1680,0.1777,0.1797,1,1,1,0.0000,0.5513,0.7308,0.8654
i_dome_1_4,illumination,517,81,11.65,5.5828,0.1586,0.1721,0.1721,0,0,1,0.0000,0.0000,0.0000,0.4417
i_dome_1_5,illumination,508,35,11.65,190.7197,0.1535,0.1693,0.1732,0,0,0,0.0000,0.0000,0.0000,0.0000
i_dome_1_6,illumination,517,154,11.67,1.9514,0.2979,0.3308,0.3462,1,1,1,0.0000,0.3495,0.6097,0.8049
i_duda_1_2,illumination,983,940,9.21,0.1355,0.9563,0.9817,0.9858,1,1,1,0.8645,0.9548,0.9729,0.9865
i_duda_1_3,illumination,743,666,8.24,0.3422,0.8991,0.9300,0.9394,1,1,1,0.6578,0.8859,0.9316,0.9658
i_duda_1_4,illumination,567,490,7.71,0.4656,0.8677,0.9048,0.9136,1,1,1,0.5344,0.8448,0.9069,0.9534
i_duda_1_5,illumination,456,360,7.31,1.2963,0.7829,0.8377,0.8553,1,1,1,0.0000,0.5679,0.7407,0.8704
i_duda_1_6,illumination,268,162,6.43,0.0000,0.6045,0.6828,0.6978,1,1,1,1.0000,1.0000,1.0000,1.0000
i_fenis_1_2,illumination,923,770,11.17,0.0000,0.8353,0.8765,0.8917,1,1,1,1.0000,1.0000,1.0000,1.0000
i_fenis_1_3,illumination,582,120,11.42,0.8072,0.2182,0.2440,0.2543,1,1,1,0.1928,0.7309,0.8386,0.9193
i_fenis_1_4,illumination,453,7,10.48,292.0674,0.0221,0.0243,0.0265,0,0,0,0.0000,0.0000,0.0000,0.0000
i_fenis_1_5,illumination,407,12,9.43,238.0075,0.0295,0.0295,0.0393,0,0,0,0.0000,0.0000,0.0000,0.0000
i_fenis_1_6,illumination,372,7,9.30,293.8066,0.0108,0.0161,0.0161,0,0,0,0.0000,0.0000,0.0000,0.0000
i_fog_1_2,illumination,453,238,8.65,0.5069,0.5254,0.5276,0.5276,1,1,1,0.4931,0.8310,0.8986,0.9493
i_fog_1_3,illumination,400,174,8.41,0.3118,0.4350,0.4425,0.4425,1,1,1,0.6882,0.8961,0.9376,0.9688
i_fog_1_4,illumination,402,162,7.79,0.0000,0.4030,0.4104,0.4104,1,1,1,1.0000,1.0000,1.0000,1.0000
i_fog_1_5,illumination,347,142,7.61,1.2214,0.4063,0.4092,0.4121,1,1,1,0.0000,0.5929,0.7557,0.8779
i_fog_1_6,illumination,327,126,7.39,3.3084,0.3823,0.4067,0.4128,0,1,1,0.0000,0.0000,0.3383,0.6692
i_fruits_1_2,illumination,691,662,8.98,0.1588,0.9580,0.9624,0.9653,1,1,1,0.8412,0.9471,0.9682,0.9841
i_fruits_1_3,illumination,541,493,9.53,0.3182,0.9094,0.9168,0.9205,1,1,1,0.6818,0.8939,0.9364,0.9682
i_fruits_1_4,illumination,525,453,9.45,0.0000,0.8629,0.8762,0.8838,1,1,1,1.0000,1.0000,1.0000,1.0000
i_fruits_1_5,illumination,510,393,9.76,0.3805,0.7725,0.7804,0.7863,1,1,1,0.6195,0.8732,0.9239,0.9619
i_fruits_1_6,illumination,533,445,8.99,0.5482,0.8349,0.8612,0.8687,1,1,1,0.4518,0.8173,0.8904,0.9452
i_gonnenberg_1_2,illumination,1114,1010,11.64,0.0000,0.9066,0.9336,0.9399,1,1,1,1.0000,1.0000,1.0000,1.0000
i_gonnenberg_1_3,illumination,1098,983,11.61,0.0000,0.8953,0.9399,0.9499,1,1,1,1.0000,1.0000,1.0000,1.0000
i_gonnenberg_1_4,illumination,873,744,13.28,0.8396,0.8545,0.8958,0.9049,1,1,1,0.1604,0.7201,0.8321,0.9160
i_gonnenberg_1_5,illumination,1008,895,11.62,0.0000,0.8879,0.9286,0.9395,1,1,1,1.0000,1.0000,1.0000,1.0000
i_gonnenberg_1_6,illumination,1079,984,12.58,0.0000,0.9120,0.9342,0.9435,1,1,1,1.0000,1.0000,1.0000,1.0000
i_greenhouse_1_2,illumination,704,296,14.23,0.0000,0.4205,0.4773,0.4957,1,1,1,1.0000,1.0000,1.0000,1.0000
i_greenhouse_1_3,illumination,797,394,16.02,1.3275,0.4981,0.5634,0.5822,1,1,1,0.0000,0.5575,0.7345,0.8672
i_greenhouse_1_4,illumination,692,269,14.63,1.8181,0.3815,0.4451,0.4639,1,1,1,0.0000,0.3940,0.6364,0.8182
i_greenhouse_1_5,illumination,700,257,14.00,2.5885,0.3643,0.4171,0.4371,1,1,1,0.0000,0.1372,0.4823,0.7411
i_greenhouse_1_6,illumination,666,196,14.48,3.7662,0.2778,0.3393,0.3589,0,1,1,0.0000,0.0000,0.2468,0.6234
i_greentea_1_2,illumination,798,515,12.83,0.0000,0.6454,0.6717,0.6805,1,1,1,1.0000,1.0000,1.0000,1.0000
i_greentea_1_3,illumination,922,712,13.15,0.0000,0.7722,0.8037,0.8124,1,1,1,1.0000,1.0000,1.0000,1.0000
i_greentea_1_4,illumination,982,762,12.85,0.0000,0.7770,0.7933,0.8065,1,1,1,1.0000,1.0000,1.0000,1.0000
i_greentea_1_5,illumination,952,767,12.34,0.0000,0.8057,0.8204,0.8330,1,1,1,1.0000,1.0000,1.0000,1.0000
i_greentea_1_6,illumination,693,418,11.73,0.0000,0.6032,0.6335,0.6479,1,1,1,1.0000,1.0000,1.0000,1.0000
i_indiana_1_2,illumination,651,336,12.14,0.0000,0.5161,0.5607,0.5699,1,1,1,1.0000,1.0000,1.0000,1.0000
i_indiana_1_3,illumination,596,222,12.06,1.9115,0.3658,0.4111,0.4295,1,1,1,0.0000,0.3628,0.6177,0.8088
i_indiana_1_4,illumination,510,103,11.40,2.5512,0.1961,0.2294,0.2451,1,1,1,0.0000,0.1496,0.4898,0.7449
i_indiana_1_5,illumination,498,80,13.67,5.3082,0.1546,0.1767,0.1948,0,0,1,0.0000,0.0000,0.0000,0.4692
i_indiana_1_6,illumination,520,21,21.29,71.8280,0.0731,0.0865,0.0942,0,0,0,0.0000,0.0000,0.0000,0.0000
i_kions_1_2,illumination,498,168,12.14,2.5228,0.3293,0.3695,0.3956,1,1,1,0.0000,0.1591,0.4954,0.7477
i_kions_1_3,illumination,491,116,11.89,1.0826,0.2342,0.2566,0.2688,1,1,1,0.0000,0.6391,0.7835,0.8917
i_kions_1_4,illumination,401,88,9.80,2.6531,0.2195,0.2294,0.2344,1,1,1,0.0000,0.1156,0.4694,0.7347
i_kions_1_5,illumination,427,101,9.80,2.1419,0.2342,0.2459,0.2600,1,1,1,0.0000,0.2860,0.5716,0.7858
i_kions_1_6,illumination,515,116,12.35,3.6896,0.2252,0.2563,0.2718,0,1,1,0.0000,0.0000,0.2621,0.6310
i_ktirio_1_2,illumination,1499,1482,12.24,0.1089,0.9887,0.9900,0.9913,1,1,1,0.8911,0.9637,0.9782,0.9891
i_ktirio_1_3,illumination,636,362,11.45,0.6456,0.5692,0.6069,0.6179,1,1,1,0.3544,0.7848,0.8709,0.9354
i_ktirio_1_4,illumination,433,105,10.84,1.3487,0.2448,0.2633,0.2933,1,1,1,0.0000,0.5504,0.7303,0.8651
i_ktirio_1_5,illumination,562,229,11.56,1.4629,0.4075,0.4377,0.4502,1,1,1,0.0000,0.5124,0.7074,0.8537
i_ktirio_1_6,illumination,421,40,11.18,27.0230,0.1283,0.1544,0.1615,0,0,0,0.0000,0.0000,0.0000,0.0000
i_kurhaus_1_2,illumination,1308,1256,12.35,0.0000,0.9602,0.9809,0.9855,1,1,1,1.0000,1.0000,1.0000,1.0000
i_kurhaus_1_3,illumination,1063,939,12.38,0.0000,0.8833,0.9200,0.9332,1,1,1,1.0000,1.0000,1.0000,1.0000
i_kurhaus_1_4,illumination,963,832,12.20,0.4480,0.8660,0.8993,0.9055,1,1,1,0.5520,0.8507,0.9104,0.9552
i_kurhaus_1_5,illumination,873,681,12.30,0.2507,0.7869,0.8339,0.8431,1,1,1,0.7493,0.9164,0.9499,0.9749
i_kurhaus_1_6,illumination,777,572,12.33,1.2279,0.7387,0.7851,0.8069,1,1,1,0.0000,0.5907,0.7544,0.8772
i_leuven_1_2,illumination,787,764,7.82,1.0618,0.9720,0.9873,0.9911,1,1,1,0.0000,0.6461,0.7876,0.8938
i_leuven_1_3,illumination,703,659,8.52,0.6148,0.9374,0.9559,0.9602,1,1,1,0.3852,0.7951,0.8770,0.9385
i_leuven_1_4,illumination,599,517,8.73,1.7122,0.8564,0.8915,0.8998,1,1,1,0.0000,0.4293,0.6576,0.8288
i_leuven_1_5,illumination,468,332,8.71,1.0171,0.7158,0.7521,0.7671,1,1,1,0.0000,0.6610,0.7966,0.8983
i_leuven_1_6,illumination,374,170,8.84,6.5384,0.3610,0.4599,0.4920,0,0,1,0.0000,0.0000,0.0000,0.3462
i_lionday_1_2,illumination,456,166,10.01,0.7680,0.3509,0.3991,0.4123,1,1,1,0.2320,0.7440,0.8464,0.9232
i_lionday_1_3,illumination,610,310,11.51,2.6384,0.5016,0.5984,0.6525,1,1,1,0.0000,0.1205,0.4723,0.7362
i_lionday_1_4,illumination,372,43,9.72,3.0620,0.1129,0.1371,0.1425,0,1,1,0.0000,0.0000,0.3876,0.6938
i_lionday_1_5,illumination,429,99,10.45,2.5744,0.2191,0.2657,0.2984,1,1,1,0.0000,0.1419,0.4851,0.7426
i_lionday_1_6,illumination,595,312,11.14,2.5821,0.4958,0.6017,0.6571,1,1,1,0.0000,0.1393,0.4836,0.7418
i_lionnight_1_2,illumination,654,247,14.57,1.2332,0.3761,0.3930,0.4067,1,1,1,0.0000,0.5889,0.7534,0.8767
i_lionnight_1_3,illumination,617,153,14.36,1.2566,0.2334,0.2626,0.2674,1,1,1,0.0000,0.5811,0.7487,0.8743
i_lionnight_1_4,illumination,726,230,14.97,1.3635,0.3072,0.3333,0.3388,1,1,1,0.0000,0.5455,0.7273,0.8636
i_lionnight_1_5,illumination,755,266,14.54,1.2493,0.3417,0.3788,0.3974,1,1,1,0.0000,0.5836,0.7501,0.8751
i_lionnight_1_6,illumination,718,271,14.42,1.0724,0.3663,0.3942,0.4109,1,1,1,0.0000,0.6425,0.7855,0.8928
i_londonbridge_1_2,illumination,1179,1082,12.13,1.0744,0.9075,0.9517,0.9644,1,1,1,0.0000,0.6419,0.7851,0.8926
i_londonbridge_1_3,illumination,750,570,12.19,1.0668,0.7467,0.8053,0.8280,1,1,1,0.0000,0.6444,0.7866,0.8933
i_londonbridge_1_4,illumination,543,242,11.55,1.7801,0.4162,0.4678,0.4843,1,1,1,0.0000,0.4066,0.6440,0.8220
i_londonbridge_1_5,illumination,439,9,11.04,309.1286,0.0524,0.0661,0.0706,0,0,0,0.0000,0.0000,0.0000,0.0000
i_londonbridge_1_6,illumination,492,175,11.78,0.9751,0.3516,0.4024,0.4268,1,1,1,0.0249,0.6750,0.8050,0.9025
i_melon_1_2,illumination,1105,1025,11.45,0.0000,0.9276,0.9683,0.9801,1,1,1,1.0000,1.0000,1.0000,1.0000
i_melon_1_3,illumination,789,613,11.08,1.1213,0.7744,0.8542,0.8872,1,1,1,0.0000,0.6262,0.7757,0.8879
i_melon_1_4,illumination,423,151,10.54,1.8565,0.3357,0.4208,0.4728,1,1,1,0.0000,0.3812,0.6287,0.8144
i_melon_1_5,illumination,734,523,10.70,0.0000,0.7139,0.7875,0.8174,1,1,1,1.0000,1.0000,1.0000,1.0000
i_melon_1_6,illumination,635,395,10.79,1.4993,0.6283,0.7039,0.7512,1,1,1,0.0000,0.5002,0.7001,0.8501
i_miniature_1_2,illumination,1124,951,13.77,0.8164,0.8514,0.9021,0.9075,1,1,1,0.1836,0.7279,0.8367,0.9184
i_miniature_1_3,illumination,661,286,13.62,1.2051,0.4297,0.4841,0.5129,1,1,1,0.0000,0.5983,0.7590,0.8795
i_miniature_1_4,illumination,536,45,15.55,2.8883,0.0877,0.0970,0.1045,1,1,1,0.0000,0.0372,0.4223,0.7112
i_miniature_1_5,illumination,450,8,12.48,370.4286,0.0267,0.0311,0.0356,0,0,0,0.0000,0.0000,0.0000,0.0000
i_miniature_1_6,illumination,725,370,13.43,1.0099,0.5034,0.5614,0.5697,1,1,1,0.0000,0.6634,0.7980,0.8990
i_nescafe_1_2,illumination,971,773,13.22,0.0000,0.7961,0.8280,0.8332,1,1,1,1.0000,1.0000,1.0000,1.0000
i_nescafe_1_3,illumination,933,713,12.91,0.0000,0.7663,0.7964,0.8049,1,1,1,1.0000,1.0000,1.0000,1.0000
i_nescafe_1_4,illumination,1035,867,12.60,0.0000,0.8386,0.8667,0.8754,1,1,1,1.0000,1.0000,1.0000,1.0000
i_nescafe_1_5,illumination,900,694,12.05,0.0000,0.7711,0.7922,0.7956,1,1,1,1.0000,1.0000,1.0000,1.0000
i_nescafe_1_6,illumination,782,503,12.82,0.0000,0.6432,0.6752,0.6829,1,1,1,1.0000,1.0000,1.0000,1.0000
i_nijmegen_1_2,illumination,575,325,12.14,2.5221,0.5478,0.6174,0.6800,1,1,1,0.0000,0.1593,0.4956,0.7478
i_nijmegen_1_3,illumination,832,595,12.55,2.1535,0.7019,0.8053,0.8474,1,1,1,0.0000,0.2822,0.5693,0.7846
i_nijmegen_1_4,illumination,414,55,12.32,5.2619,0.1304,0.1498,0.1522,0,0,1,0.0000,0.0000,0.0000,0.4738
i_nijmegen_1_5,illumination,781,581,11.33,2.5459,0.7196,0.8041,0.8412,1,1,1,0.0000,0.1514,0.4908,0.7454
i_nijmegen_1_6,illumination,617,373,11.40,2.8844,0.5835,0.6710,0.7180,1,1,1,0.0000,0.0385,0.4231,0.7116
i_nuts_1_2,illumination,251,96,6.44,2.1878,0.3625,0.4622,0.5100,1,1,1,0.0000,0.2707,0.5624,0.7812
i_nuts_1_3,illumination,214,22,6.78,5.1884,0.0935,0.1075,0.1075,0,0,1,0.0000,0.0000,0.0000,0.4812
i_nuts_1_4,illumination,211,8,6.97,349.1335,0.0237,0.0284,0.0427,0,0,0,0.0000,0.0000,0.0000,0.0000
i_nuts_1_5,illumination,235,7,7.05,384.9380,0.0043,0.0085,0.0085,0,0,0,0.0000,0.0000,0.0000,0.0000
i_nuts_1_6,illumination,199,7,6.71,201.4623,0.0101,0.0151,0.0151,0,0,0,0.0000,0.0000,0.0000,0.0000
i_objects_1_2,illumination,713,348,14.33,1.6668,0.4951,0.5624,0.5891,1,1,1,0.0000,0.4444,0.6666,0.8333
i_objects_1_3,illumination,668,201,14.26,1.3340,0.3039,0.3563,0.3802,1,1,1,0.0000,0.5553,0.7332,0.8666
i_objects_1_4,illumination,611,108,14.34,2.0207,0.1849,0.2324,0.2586,1,1,1,0.0000,0.3264,0.5959,0.7979
i_objects_1_5,illumination,591,78,14.10,5.8755,0.1354,0.1591,0.1760,0,0,1,0.0000,0.0000,0.0000,0.4124
i_objects_1_6,illumination,891,670,14.34,0.6904,0.7553,0.8058,0.8260,1,1,1,0.3096,0.7699,0.8619,0.9310
i_parking_1_2,illumination,553,438,8.31,0.7625,0.7920,0.8517,0.8662,1,1,1,0.2375,0.7458,0.8475,0.9237
i_parking_1_3,illumination,551,396,8.53,0.5250,0.7187,0.7786,0.7949,1,1,1,0.4750,0.8250,0.8950,0.9475
i_parking_1_4,illumination,391,185,7.77,1.1717,0.4604,0.5192,0.5601,1,1,1,0.0000,0.6094,0.7657,0.8828
i_parking_1_5,illumination,380,94,8.57,1.6577,0.2368,0.2605,0.2763,1,1,1,0.0000,0.4474,0.6685,0.8342
i_parking_1_6,illumination,346,130,7.88,1.0993,0.3642,0.4277,0.4393,1,1,1,0.0000,0.6336,0.7801,0.8901
i_partyfood_1_2,illumination,926,885,8.55,0.0000,0.9568,0.9676,0.9687,1,1,1,1.0000,1.0000,1.0000,1.0000
i_partyfood_1_3,illumination,691,602,8.11,0.0000,0.8712,0.8886,0.8929,1,1,1,1.0000,1.0000,1.0000,1.0000
i_partyfood_1_4,illumination,579,472,8.13,0.7974,0.8169,0.8307,0.8342,1,1,1,0.2026,0.7342,0.8405,0.9203
i_partyfood_1_5,illumination,530,400,8.43,1.0310,0.7585,0.7887,0.7943,1,1,1,0.0000,0.6563,0.7938,0.8969
i_partyfood_1_6,illumination,431,278,7.42,1.7468,0.6473,0.6659,0.6705,1,1,1,0.0000,0.4177,0.6506,0.8253
i_pinard_1_2,illumination,534,434,8.30,0.8707,0.8109,0.8577,0.8708,1,1,1,0.1293,0.7098,0.8259,0.9129
i_pinard_1_3,illumination,572,360,9.86,0.0000,0.6294,0.6731,0.6906,1,1,1,1.0000,1.0000,1.0000,1.0000
i_pinard_1_4,illumination,547,363,11.50,0.0000,0.6636,0.7130,0.7331,1,1,1,1.0000,1.0000,1.0000,1.0000
i_pinard_1_5,illumination,582,387,11.28,0.0000,0.6649,0.7182,0.7491,1,1,1,1.0000,1.0000,1.0000,1.0000
i_pinard_1_6,illumination,586,420,9.14,2.3124,0.7116,0.7560,0.7884,1,1,1,0.0000,0.2292,0.5375,0.7688
i_pool_1_2,illumination,146,6,6.19,1336.5836,0.0616,0.0685,0.0753,0,0,0,0.0000,0.0000,0.0000,0.0000
i_pool_1_3,illumination,127,6,6.03,291.5876,0.0079,0.0079,0.0157,0,0,0,0.0000,0.0000,0.0000,0.0000
i_pool_1_4,illumination,145,8,6.01,291.1430,0.0069,0.0069,0.0069,0,0,0,0.0000,0.0000,0.0000,0.0000
i_pool_1_5,illumination,126,6,5.84,286.5600,0.0079,0.0079,0.0079,0,0,0,0.0000,0.0000,0.0000,0.0000
i_pool_1_6,illumination,115,9,5.67,285.6352,0.0087,0.0087,0.0087,0,0,0,0.0000,0.0000,0.0000,0.0000
i_porta_1_2,illumination,734,693,7.73,0.1866,0.9455,0.9619,0.9659,1,1,1,0.8134,0.9378,0.9627,0.9813
i_porta_1_3,illumination,736,689,7.38,0.2175,0.9375,0.9484,0.9565,1,1,1,0.7825,0.9275,0.9565,0.9782
i_porta_1_4,illumination,542,412,8.14,0.5779,0.7638,0.7897,0.8155,1,1,1,0.4221,0.8074,0.8844,0.9422
i_porta_1_5,illumination,496,363,7.68,0.8256,0.7278,0.7601,0.7823,1,1,1,0.1744,0.7248,0.8349,0.9174
i_porta_1_6,illumination,480,333,7.97,3.1606,0.6917,0.7208,0.7354,0,1,1,0.0000,0.0000,0.3679,0.6839
i_resort_1_2,illumination,817,693,11.87,0.0000,0.8482,0.8837,0.8935,1,1,1,1.0000,1.0000,1.0000,1.0000
i_resort_1_3,illumination,1200,1169,12.76,0.0000,0.9742,0.9867,0.9892,1,1,1,1.0000,1.0000,1.0000,1.0000
i_resort_1_4,illumination,1052,986,10.76,0.0000,0.9392,0.9601,0.9639,1,1,1,1.0000,1.0000,1.0000,1.0000
i_resort_1_5,illumination,773,631,11.23,0.0000,0.8163,0.8577,0.8680,1,1,1,1.0000,1.0000,1.0000,1.0000
i_resort_1_6,illumination,761,652,10.60,0.8939,0.8449,0.8936,0.9041,1,1,1,0.1061,0.7020,0.8212,0.9106
i_salon_1_2,illumination,1231,1089,14.62,0.4449,0.8846,0.9163,0.9236,1,1,1,0.5551,0.8517,0.9110,0.9555
i_salon_1_3,illumination,759,371,14.37,1.1253,0.4835,0.5362,0.5692,1,1,1,0.0000,0.6249,0.7749,0.8875
i_salon_1_4,illumination,562,91,13.53,2.2486,0.1548,0.1868,0.2135,1,1,1,0.0000,0.2505,0.5503,0.7751
i_salon_1_5,illumination,906,644,14.42,0.0000,0.7108,0.7605,0.7781,1,1,1,1.0000,1.0000,1.0000,1.0000
i_salon_1_6,illumination,705,303,13.84,2.0179,0.4128,0.4667,0.4894,1,1,1,0.0000,0.3274,0.5964,0.7982
i_santuario_1_2,illumination,694,421,12.25,1.5205,0.5836,0.6599,0.6772,1,1,1,0.0000,0.4932,0.6959,0.8480
i_santuario_1_3,illumination,684,403,12.65,1.4755,0.5643,0.6447,0.6696,1,1,1,0.0000,0.5082,0.7049,0.8525
i_santuario_1_4,illumination,588,197,16.61,1.6002,0.3265,0.3724,0.3929,1,1,1,0.0000,0.4666,0.6800,0.8400
i_santuario_1_5,illumination,628,232,17.97,0.9159,0.3678,0.4156,0.4395,1,1,1,0.0841,0.6947,0.8168,0.9084
i_santuario_1_6,illumination,488,96,11.54,1.6422,0.1926,0.2152,0.2234,1,1,1,0.0000,0.4526,0.6716,0.8358
i_school_1_2,illumination,767,668,9.85,0.2064,0.8722,0.9022,0.9100,1,1,1,0.7936,0.9312,0.9587,0.9794
i_school_1_3,illumination,788,698,10.57,0.1912,0.8871,0.9150,0.9239,1,1,1,0.8088,0.9363,0.9618,0.9809
i_school_1_4,illumination,423,163,8.94,1.2470,0.3830,0.4184,0.4303,1,1,1,0.0000,0.5843,0.7506,0.8753
i_school_1_5,illumination,552,367,9.40,0.6417,0.6685,0.6975,0.6993,1,1,1,0.3583,0.7861,0.8717,0.9358
i_school_1_6,illumination,423,165,8.61,1.6276,0.3901,0.4208,0.4232,1,1,1,0.0000,0.4575,0.6745,0.8372
i_ski_1_2,illumination,1148,1008,12.84,0.0000,0.8798,0.9347,0.9460,1,1,1,1.0000,1.0000,1.0000,1.0000
i_ski_1_3,illumination,929,709,12.82,1.4936,0.7589,0.8353,0.8590,1,1,1,0.0000,0.5021,0.7013,0.8506
i_ski_1_4,illumination,795,510,12.67,2.1450,0.6302,0.7157,0.7585,1,1,1,0.0000,0.2850,0.5710,0.7855
i_ski_1_5,illumination,720,372,12.72,2.5985,0.5056,0.6167,0.6542,1,1,1,0.0000,0.1338,0.4803,0.7402
i_ski_1_6,illumination,663,245,12.63,4.5535,0.3605,0.4540,0.4796,0,1,1,0.0000,0.0000,0.0893,0.5447
i_smurf_1_2,illumination,893,676,13.52,0.0000,0.7570,0.8208,0.8466,1,1,1,1.0000,1.0000,1.0000,1.0000
i_smurf_1_3,illumination,825,601,13.49,0.6031,0.7248,0.7782,0.7952,1,1,1,0.3969,0.7990,0.8794,0.9397
i_smurf_1_4,illumination,817,558,13.33,0.0000,0.6842,0.7368,0.7638,1,1,1,1.0000,1.0000,1.0000,1.0000
i_smurf_1_5,illumination,740,495,13.09,0.0000,0.6703,0.7243,0.7405,1,1,1,1.0000,1.0000,1.0000,1.0000
i_smurf_1_6,illumination,606,279,13.09,1.6849,0.4571,0.4901,0.4967,1,1,1,0.0000,0.4384,0.6630,0.8315
i_steps_1_2,illumination,780,766,7.92,0.6417,0.9769,0.9910,0.9936,1,1,1,0.3583,0.7861,0.8717,0.9358
i_steps_1_3,illumination,796,726,7.99,0.0000,0.9121,0.9497,0.9673,1,1,1,1.0000,1.0000,1.0000,1.0000
i_steps_1_4,illumination,775,729,10.09,0.6293,0.9432,0.9639,0.9665,1,1,1,0.3707,0.7902,0.8741,0.9371
i_steps_1_5,illumination,419,190,9.50,1.6008,0.4582,0.5036,0.5227,1,1,1,0.0000,0.4664,0.6798,0.8399
i_steps_1_6,illumination,541,387,9.44,0.7965,0.7190,0.7763,0.7893,1,1,1,0.2035,0.7345,0.8407,0.9203
i_table_1_2,illumination,713,348,15.26,1.6668,0.4951,0.5624,0.5891,1,1,1,0.0000,0.4444,0.6666,0.8333
i_table_1_3,illumination,668,201,14.18,1.3340,0.3039,0.3563,0.3802,1,1,1,0.0000,0.5553,0.7332,0.8666
i_table_1_4,illumination,611,108,14.46,2.0207,0.1849,0.2324,0.2586,1,1,1,0.0000,0.3264,0.5959,0.7979
i_table_1_5,illumination,591,78,14.27,5.8755,0.1354,0.1591,0.1760,0,0,1,0.0000,0.0000,0.0000,0.4124
i_table_1_6,illumination,891,670,14.99,0.6904,0.7553,0.8058,0.8260,1,1,1,0.3096,0.7699,0.8619,0.9310
i_tools_1_2,illumination,459,7,11.35,266.8755,0.0370,0.0501,0.0588,0,0,0,0.0000,0.0000,0.0000,0.0000
i_tools_1_3,illumination,419,67,10.42,2.7598,0.1551,0.1981,0.2124,1,1,1,0.0000,0.0801,0.4480,0.7240
i_tools_1_4,illumination,461,14,13.26,60.6922,0.0477,0.0781,0.0976,0,0,0,0.0000,0.0000,0.0000,0.0000
i_tools_1_5,illumination,502,147,17.20,6.6207,0.2888,0.3028,0.3068,0,0,1,0.0000,0.0000,0.0000,0.3379
i_tools_1_6,illumination,502,85,11.19,7.2020,0.0418,0.1076,0.1753,0,0,0,0.0000,0.0000,0.0000,0.2798
i_toy_1_2,illumination,1184,1109,11.66,0.0000,0.9367,0.9578,0.9654,1,1,1,1.0000,1.0000,1.0000,1.0000
i_toy_1_3,illumination,968,843,11.91,0.9495,0.8750,0.9008,0.9153,1,1,1,0.0505,0.6835,0.8101,0.9051
i_toy_1_4,illumination,770,577,14.23,2.1781,0.7455,0.7857,0.8091,1,1,1,0.0000,0.2740,0.5644,0.7822
i_toy_1_5,illumination,630,347,11.68,2.0759,0.5460,0.5841,0.6048,1,1,1,0.0000,0.3080,0.5848,0.7924
i_toy_1_6,illumination,461,116,13.33,31.6456,0.2820,0.3297,0.3579,0,0,0,0.0000,0.0000,0.0000,0.0000
i_troulos_1_2,illumination,258,218,5.45,0.8783,0.8333,0.8915,0.8953,1,1,1,0.1217,0.7072,0.8243,0.9122
i_troulos_1_3,illumination,273,218,7.44,3.1386,0.5238,0.8059,0.8425,0,1,1,0.0000,0.0000,0.3723,0.6861
i_troulos_1_4,illumination,457,411,6.06,0.3445,0.9037,0.9212,0.9300,1,1,1,0.6555,0.8852,0.9311,0.9655
i_troulos_1_5,illumination,314,121,7.38,1.8047,0.3790,0.4363,0.4618,1,1,1,0.0000,0.3984,0.6391,0.8195
i_troulos_1_6,illumination,356,294,5.76,1.1978,0.8062,0.8483,0.8596,1,1,1,0.0000,0.6007,0.7604,0.8802
i_veggies_1_2,illumination,1282,1204,17.49,0.5712,0.9407,0.9743,0.9805,1,1,1,0.4288,0.8096,0.8858,0.9429
i_veggies_1_3,illumination,791,557,14.35,0.0000,0.7067,0.7775,0.8243,1,1,1,1.0000,1.0000,1.0000,1.0000
i_veggies_1_4,illumination,803,509,14.22,1.4939,0.6339,0.7136,0.7509,1,1,1,0.0000,0.5020,0.7012,0.8506
i_veggies_1_5,illumination,539,87,15.92,4.2979,0.1558,0.1929,0.2245,0,1,1,0.0000,0.0000,0.1404,0.5702
i_veggies_1_6,illumination,501,44,13.07,9.1986,0.0818,0.1218,0.1617,0,0,0,0.0000,0.0000,0.0000,0.0801
i_village_1_2,illumination,595,182,14.74,1.3939,0.2958,0.3613,0.3782,1,1,1,0.0000,0.5354,0.7212,0.8606
i_village_1_3,illumination,600,121,15.34,1.6881,0.2100,0.2383,0.2583,1,1,1,0.0000,0.4373,0.6624,0.8312
i_village_1_4,illumination,591,161,14.93,1.8527,0.2741,0.3215,0.3418,1,1,1,0.0000,0.3824,0.6295,0.8147
i_village_1_5,illumination,809,583,18.60,0.0000,0.7206,0.7738,0.7862,1,1,1,1.0000,1.0000,1.0000,1.0000
i_village_1_6,illumination,646,142,16.89,0.9292,0.2198,0.2693,0.2879,1,1,1,0.0708,0.6903,0.8142,0.9071
i_yellowtent_1_2,illumination,1317,1178,14.46,0.4222,0.8967,0.9142,0.9157,1,1,1,0.5778,0.8593,0.9156,0.9578
i_yellowtent_1_3,illumination,808,480,13.98,0.7378,0.5718,0.6349,0.6473,1,1,1,0.2622,0.7541,0.8524,0.9262
i_yellowtent_1_4,illumination,552,176,13.30,1.5041,0.3080,0.3388,0.3478,1,1,1,0.0000,0.4986,0.6992,0.8496
i_yellowtent_1_5,illumination,689,219,14.13,1.5637,0.3222,0.3396,0.3498,1,1,1,0.0000,0.4788,0.6873,0.8436
i_yellowtent_1_6,illumination,612,104,13.80,1.1533,0.1716,0.1797,0.1846,1,1,1,0.0000,0.6156,0.7693,0.8847
i_zion_1_2,illumination,823,678,11.22,0.4006,0.8275,0.8688,0.8821,1,1,1,0.5994,0.8665,0.9199,0.9599
i_zion_1_3,illumination,505,199,10.65,1.5083,0.3822,0.4376,0.4475,1,1,1,0.0000,0.4972,0.6983,0.8492
i_zion_1_4,illumination,479,125,10.60,2.2873,0.2484,0.3132,0.3299,1,1,1,0.0000,0.2376,0.5425,0.7713
i_zion_1_5,illumination,379,22,10.32,269.5686,0.0765,0.1266,0.1451,0,0,0,0.0000,0.0000,0.0000,0.0000
i_zion_1_6,illumination,316,7,8.76,344.5410,0.0253,0.0348,0.0348,0,0,0,0.0000,0.0000,0.0000,0.0000
v_abstract_1_2,viewpoint,803,687,10.87,0.4438,0.8555,0.8854,0.8966,1,1,1,0.5562,0.8521,0.9112,0.9556
v_abstract_1_3,viewpoint,700,546,11.15,0.7820,0.7743,0.8386,0.8457,1,1,1,0.2180,0.7393,0.8436,0.9218
v_abstract_1_4,viewpoint,519,199,10.96,1.4147,0.3796,0.4412,0.4663,1,1,1,0.0000,0.5284,0.7171,0.8585
v_abstract_1_5,viewpoint,608,412,10.49,1.5345,0.6743,0.7368,0.7434,1,1,1,0.0000,0.4885,0.6931,0.8465
v_abstract_1_6,viewpoint,469,148,11.04,2.3635,0.3134,0.3561,0.3710,1,1,1,0.0000,0.2122,0.5273,0.7636
v_adam_1_2,viewpoint,297,234,5.83,1.0504,0.7811,0.8182,0.8249,1,1,1,0.0000,0.6499,0.7899,0.8950
v_adam_1_3,viewpoint,272,206,6.60,1.3834,0.7426,0.7721,0.7721,1,1,1,0.0000,0.5389,0.7233,0.8617
v_adam_1_4,viewpoint,192,49,5.85,3.1153,0.2448,0.2708,0.2760,0,1,1,0.0000,0.0000,0.3769,0.6885
v_adam_1_5,viewpoint,233,122,5.87,3.5785,0.5150,0.5494,0.5579,0,1,1,0.0000,0.0000,0.2843,0.6421
v_adam_1_6,viewpoint,218,138,5.73,1.7535,0.5917,0.6651,0.6697,1,1,1,0.0000,0.4155,0.6493,0.8246
v_apprentices_1_2,viewpoint,1162,1056,15.61,0.4643,0.9079,0.9423,0.9561,1,1,1,0.5357,0.8452,0.9071,0.9536
v_apprentices_1_3,viewpoint,943,714,16.04,1.4003,0.7603,0.8155,0.8324,1,1,1,0.0000,0.5332,0.7199,0.8600
v_apprentices_1_4,viewpoint,737,381,15.49,1.4377,0.5210,0.5645,0.5862,1,1,1,0.0000,0.5208,0.7125,0.8562
v_apprentices_1_5,viewpoint,625,147,15.41,2.1095,0.2256,0.2624,0.2880,1,1,1,0.0000,0.2968,0.5781,0.7891
v_apprentices_1_6,viewpoint,656,247,14.61,2.0780,0.3659,0.4238,0.4375,1,1,1,0.0000,0.3073,0.5844,0.7922
v_azzola_1_2,viewpoint,880,652,16.25,1.3578,0.7239,0.8148,0.8409,1,1,1,0.0000,0.5474,0.7284,0.8642
v_azzola_1_3,viewpoint,693,229,15.54,2.5583,0.3131,0.4185,0.4574,1,1,1,0.0000,0.1472,0.4883,0.7442
v_azzola_1_4,viewpoint,950,794,15.83,0.4975,0.8274,0.8747,0.8811,1,1,1,0.5025,0.8342,0.9005,0.9503
v_azzola_1_5,viewpoint,705,388,15.18,2.5662,0.5291,0.6142,0.6284,1,1,1,0.0000,0.1446,0.4868,0.7434
v_azzola_1_6,viewpoint,599,72,14.63,9.7430,0.1035,0.1503,0.1553,0,0,0,0.0000,0.0000,0.0000,0.0257
v_bark_1_2,viewpoint,697,359,12.80,0.3470,0.5194,0.5423,0.5481,1,1,1,0.6530,0.8843,0.9306,0.9653
v_bark_1_3,viewpoint,596,115,11.78,2.1398,0.1829,0.1963,0.1980,1,1,1,0.0000,0.2867,0.5720,0.7860
v_bark_1_4,viewpoint,632,81,12.15,3.7787,0.1282,0.1282,0.1297,0,1,1,0.0000,0.0000,0.2443,0.6221
v_bark_1_5,viewpoint,597,40,11.94,13.3408,0.0637,0.0653,0.0653,0,0,0,0.0000,0.0000,0.0000,0.0000
v_bark_1_6,viewpoint,554,7,11.95,317.3945,0.0126,0.0126,0.0126,0,0,0,0.0000,0.0000,0.0000,0.0000
v_bees_1_2,viewpoint,1152,1057,14.17,0.9399,0.9132,0.9575,0.9618,1,1,1,0.0601,0.6867,0.8120,0.9060
v_bees_1_3,viewpoint,1215,1112,12.99,0.7465,0.9160,0.9523,0.9646,1,1,1,0.2535,0.7512,0.8507,0.9254
v_bees_1_4,viewpoint,1144,1036,13.03,0.5956,0.9047,0.9362,0.9432,1,1,1,0.4044,0.8015,0.8809,0.9404
v_bees_1_5,viewpoint,842,605,12.67,1.1928,0.7173,0.7755,0.7815,1,1,1,0.0000,0.6024,0.7614,0.8807
v_bees_1_6,viewpoint,828,579,13.33,0.6297,0.6944,0.7500,0.7645,1,1,1,0.3703,0.7901,0.8741,0.9370
v_beyus_1_2,viewpoint,574,327,11.40,1.6856,0.5627,0.6289,0.6498,1,1,1,0.0000,0.4381,0.6629,0.8314
v_beyus_1_3,viewpoint,433,22,10.30,1989.4749,0.0739,0.1132,0.1409,0,0,0,0.0000,0.0000,0.0000,0.0000
v_beyus_1_4,viewpoint,794,649,11.66,0.9362,0.8123,0.8564,0.8690,1,1,1,0.0638,0.6879,0.8128,0.9064
v_beyus_1_5,viewpoint,428,95,10.26,4.0933,0.2033,0.2617,0.3084,0,1,1,0.0000,0.0000,0.1813,0.5907
v_beyus_1_6,viewpoint,549,176,11.19,1.6264,0.3242,0.3862,0.4317,1,1,1,0.0000,0.4579,0.6747,0.8374
v_bip_1_2,viewpoint,682,389,12.49,0.5205,0.5689,0.5733,0.5748,1,1,1,0.4795,0.8265,0.8959,0.9480
v_bip_1_3,viewpoint,582,285,12.06,0.8180,0.4897,0.4948,0.4948,1,1,1,0.1820,0.7273,0.8364,0.9182
v_bip_1_4,viewpoint,662,331,13.01,0.4049,0.5015,0.5091,0.5121,1,1,1,0.5951,0.8650,0.9190,0.9595
v_bip_1_5,viewpoint,534,55,12.43,3.5852,0.1011,0.1030,0.1086,0,1,1,0.0000,0.0000,0.2830,0.6415
v_bip_1_6,viewpoint,544,48,12.95,6.4525,0.0882,0.0919,0.0919,0,0,1,0.0000,0.0000,0.0000,0.3547
v_bird_1_2,viewpoint,744,332,15.49,76.7274,0.0000,0.0000,0.0013,0,0,0,0.0000,0.0000,0.0000,0.0000
v_bird_1_3,viewpoint,638,146,15.02,85.4418,0.0000,0.0000,0.0031,0,0,0,0.0000,0.0000,0.0000,0.0000
v_bird_1_4,viewpoint,668,137,15.55,98.8524,0.0000,0.0000,0.0000,0,0,0,0.0000,0.0000,0.0000,0.0000
v_bird_1_5,viewpoint,646,75,15.62,91.7464,0.0000,0.0000,0.0000,0,0,0,0.0000,0.0000,0.0000,0.0000
v_bird_1_6,viewpoint,597,7,14.58,1448.9875,0.0000,0.0000,0.0017,0,0,0,0.0000,0.0000,0.0000,0.0000
v_birdwoman_1_2,viewpoint,570,160,13.10,43.8162,0.0000,0.0000,0.0000,0,0,0,0.0000,0.0000,0.0000,0.0000
v_birdwoman_1_3,viewpoint,602,86,13.62,57.0082,0.0000,0.0000,0.0000,0,0,0,0.0000,0.0000,0.0000,0.0000
v_birdwoman_1_4,viewpoint,628,293,13.64,50.8067,0.0000,0.0000,0.0000,0,0,0,0.0000,0.0000,0.0000,0.0000
v_birdwoman_1_5,viewpoint,875,711,14.60,52.9042,0.0000,0.0000,0.0000,0,0,0,0.0000,0.0000,0.0000,0.0000
v_birdwoman_1_6,viewpoint,692,423,13.47,51.3151,0.0000,0.0000,0.0000,0,0,0,0.0000,0.0000,0.0000,0.0000
v_blueprint_1_2,viewpoint,846,675,13.82,0.9533,0.7943,0.8357,0.8428,1,1,1,0.0467,0.6822,0.8093,0.9047
v_blueprint_1_3,viewpoint,737,483,14.69,2.5020,0.6499,0.7123,0.7246,1,1,1,0.0000,0.1660,0.4996,0.7498
v_blueprint_1_4,viewpoint,714,412,14.14,0.4527,0.5840,0.6148,0.6176,1,1,1,0.5473,0.8491,0.9095,0.9547
v_blueprint_1_5,viewpoint,550,144,12.97,1.4806,0.2618,0.2764,0.2873,1,1,1,0.0000,0.5065,0.7039,0.8519
v_blueprint_1_6,viewpoint,483,49,12.26,3.9139,0.1056,0.1284,0.1408,0,1,1,0.0000,0.0000,0.2172,0.6086
v_boat_1_2,viewpoint,1029,865,15.83,1.1315,0.8387,0.9048,0.9145,1,1,1,0.0000,0.6228,0.7737,0.8868
v_boat_1_3,viewpoint,870,670,15.59,1.7252,0.7575,0.8057,0.8218,1,1,1,0.0000,0.4249,0.6550,0.8275
v_boat_1_4,viewpoint,784,540,15.09,2.1637,0.6760,0.7321,0.7385,1,1,1,0.0000,0.2788,0.5673,0.7836
v_boat_1_5,viewpoint,710,413,15.00,1.6131,0.5718,0.6113,0.6155,1,1,1,0.0000,0.4623,0.6774,0.8387
v_boat_1_6,viewpoint,700,276,14.41,0.7816,0.3943,0.4243,0.4357,1,1,1,0.2184,0.7395,0.8437,0.9218
v_bricks_1_2,viewpoint,1050,889,14.27,33.5052,0.0000,0.0000,0.0038,0,0,0,0.0000,0.0000,0.0000,0.0000
v_bricks_1_3,viewpoint,941,739,14.94,32.3385,0.0000,0.0000,0.0032,0,0,0,0.0000,0.0000,0.0000,0.0000
v_bricks_1_4,viewpoint,798,413,13.81,30.8606,0.0000,0.0013,0.0013,0,0,0,0.0000,0.0000,0.0000,0.0000
v_bricks_1_5,viewpoint,690,195,13.73,27.6253,0.0000,0.0000,0.0014,0,0,0,0.0000,0.0000,0.0000,0.0000
v_bricks_1_6,viewpoint,692,7,13.94,410.6275,0.0000,0.0029,0.0029,0,0,0,0.0000,0.0000,0.0000,0.0000
v_busstop_1_2,viewpoint,1016,816,15.65,1.7405,0.8031,0.8514,0.8681,1,1,1,0.0000,0.4198,0.6519,0.8259
v_busstop_1_3,viewpoint,822,499,15.65,2.9746,0.5876,0.6569,0.6825,1,1,1,0.0000,0.0085,0.4051,0.7025
v_busstop_1_4,viewpoint,825,523,17.15,2.5917,0.6327,0.6764,0.6909,1,1,1,0.0000,0.1361,0.4817,0.7408
v_busstop_1_5,viewpoint,863,612,18.47,2.1985,0.7080,0.7439,0.7567,1,1,1,0.0000,0.2672,0.5603,0.7802
v_busstop_1_6,viewpoint,1046,899,15.71,1.2199,0.8566,0.8958,0.9149,1,1,1,0.0000,0.5934,0.7560,0.8780
v_calder_1_2,viewpoint,750,497,13.70,1.9427,0.6533,0.7107,0.7307,1,1,1,0.0000,0.3524,0.6115,0.8057
v_calder_1_3,viewpoint,1011,857,14.06,0.4557,0.8447,0.8843,0.8932,1,1,1,0.5443,0.8481,0.9089,0.9544
v_calder_1_4,viewpoint,565,129,14.63,4.1198,0.2301,0.2690,0.2991,0,1,1,0.0000,0.0000,0.1760,0.5880
v_calder_1_5,viewpoint,577,136,13.69,2.1727,0.2305,0.2669,0.2808,1,1,1,0.0000,0.2758,0.5655,0.7827
v_calder_1_6,viewpoint,529,8,12.78,189.2252,0.0265,0.0397,0.0510,0,0,0,0.0000,0.0000,0.0000,0.0000
v_cartooncity_1_2,viewpoint,971,826,14.93,62.1758,0.0000,0.0000,0.0000,0,0,0,0.0000,0.0000,0.0000,0.0000
v_cartooncity_1_3,viewpoint,605,91,14.22,75.7106,0.0017,0.0033,0.0033,0,0,0,0.0000,0.0000,0.0000,0.0000
v_cartooncity_1_4,viewpoint,882,654,14.72,74.1707,0.0000,0.0000,0.0000,0,0,0,0.0000,0.0000,0.0000,0.0000
v_cartooncity_1_5,viewpoint,646,140,14.66,75.3758,0.0000,0.0015,0.0015,0,0,0,0.0000,0.0000,0.0000,0.0000
v_cartooncity_1_6,viewpoint,617,83,14.47,75.0454,0.0016,0.0016,0.0032,0,0,0,0.0000,0.0000,0.0000,0.0000
v_charing_1_2,viewpoint,394,73,10.95,6.0190,0.1802,0.2487,0.2944,0,0,1,0.0000,0.0000,0.0000,0.3981
v_charing_1_3,viewpoint,312,10,11.06,1172.7964,0.0353,0.0673,0.0865,0,0,0,0.0000,0.0000,0.0000,0.0000
v_charing_1_4,viewpoint,322,107,10.22,64.9938,0.3199,0.3944,0.4317,0,0,0,0.0000,0.0000,0.0000,0.0000
v_charing_1_5,viewpoint,314,53,10.15,25.1774,0.1561,0.2325,0.2675,0,0,0,0.0000,0.0000,0.0000,0.0000
v_charing_1_6,viewpoint,317,49,10.41,655.1238,0.1325,0.1893,0.2145,0,0,0,0.0000,0.0000,0.0000,0.0000
v_churchill_1_2,viewpoint,867,639,12.87,2.8550,0.7370,0.8374,0.8743,1,1,1,0.0000,0.0483,0.4290,0.7145
v_churchill_1_3,viewpoint,698,310,12.96,3.3258,0.4484,0.5616,0.6304,0,1,1,0.0000,0.0000,0.3348,0.6674
v_churchill_1_4,viewpoint,602,177,12.57,2.2989,0.2774,0.3621,0.4153,1,1,1,0.0000,0.2337,0.5402,0.7701
v_churchill_1_5,viewpoint,1111,1022,12.78,0.4720,0.9217,0.9604,0.9667,1,1,1,0.5280,0.8427,0.9056,0.9528
v_churchill_1_6,viewpoint,553,31,12.37,10.6433,0.0506,0.0940,0.1230,0,0,0,0.0000,0.0000,0.0000,0.0000
v_circus_1_2,viewpoint,784,532,13.91,0.7989,0.6786,0.7015,0.7105,1,1,1,0.2011,0.7337,0.8402,0.9201
v_circus_1_3,viewpoint,719,328,13.93,2.1456,0.4534,0.5118,0.5438,1,1,1,0.0000,0.2848,0.5709,0.7854
v_circus_1_4,viewpoint,607,136,13.49,4.5068,0.2257,0.2702,0.2916,0,1,1,0.0000,0.0000,0.0986,0.5493
v_circus_1_5,viewpoint,796,485,14.12,0.9506,0.6093,0.6671,0.6884,1,1,1,0.0494,0.6831,0.8099,0.9049
v_circus_1_6,viewpoint,642,220,13.64,1.6984,0.3396,0.3738,0.3863,1,1,1,0.0000,0.4339,0.6603,0.8302
v_coffeehouse_1_2,viewpoint,759,492,13.39,0.9659,0.6469,0.6733,0.6825,1,1,1,0.0341,0.6780,0.8068,0.9034
v_coffeehouse_1_3,viewpoint,833,619,13.46,0.7841,0.7407,0.7791,0.7863,1,1,1,0.2159,0.7386,0.8432,0.9216
v_coffeehouse_1_4,viewpoint,768,510,13.31,1.0277,0.6641,0.7253,0.7396,1,1,1,0.0000,0.6574,0.7945,0.8972
v_coffeehouse_1_5,viewpoint,723,431,13.05,1.0486,0.5934,0.6238,0.6307,1,1,1,0.0000,0.6505,0.7903,0.8951
v_coffeehouse_1_6,viewpoint,626,262,13.26,1.7450,0.4137,0.4601,0.4776,1,1,1,0.0000,0.4183,0.6510,0.8255
v_colors_1_2,viewpoint,160,106,5.10,0.9232,0.6625,0.7500,0.7750,1,1,1,0.0768,0.6923,0.8154,0.9077
v_colors_1_3,viewpoint,179,108,5.20,1.5246,0.5978,0.6816,0.6983,1,1,1,0.0000,0.4918,0.6951,0.8475
v_colors_1_4,viewpoint,139,41,5.16,16.7019,0.2806,0.3597,0.3813,0,0,0,0.0000,0.0000,0.0000,0.0000
v_colors_1_5,viewpoint,120,24,5.25,17.8823,0.1833,0.2667,0.2917,0,0,0,0.0000,0.0000,0.0000,0.0000
v_colors_1_6,viewpoint,118,15,5.29,41.3499,0.1186,0.1780,0.2119,0,0,0,0.0000,0.0000,0.0000,0.0000
v_courses_1_2,viewpoint,1075,892,13.93,1.6730,0.8288,0.8819,0.9023,1,1,1,0.0000,0.4423,0.6654,0.8327
v_courses_1_3,viewpoint,758,433,13.98,7.9272,0.5660,0.6425,0.6768,0,0,0,0.0000,0.0000,0.0000,0.2073
v_courses_1_4,viewpoint,875,639,13.98,2.3702,0.7234,0.8011,0.8297,1,1,1,0.0000,0.2099,0.5260,0.7630
v_courses_1_5,viewpoint,666,307,13.55,2.9836,0.4625,0.5090,0.5450,1,1,1,0.0000,0.0055,0.4033,0.7016
v_courses_1_6,viewpoint,618,217,13.47,9.4208,0.3511,0.3916,0.4191,0,0,0,0.0000,0.0000,0.0000,0.0579
v_dirtywall_1_2,viewpoint,934,749,14.90,0.5602,0.7998,0.8373,0.8448,1,1,1,0.4398,0.8133,0.8880,0.9440
v_dirtywall_1_3,viewpoint,881,641,14.89,0.6603,0.7230,0.7594,0.7719,1,1,1,0.3397,0.7799,0.8679,0.9340
v_dirtywall_1_4,viewpoint,748,293,14.58,2.2732,0.3890,0.4398,0.4599,1,1,1,0.0000,0.2423,0.5454,0.7727
v_dirtywall_1_5,viewpoint,785,389,15.13,0.7610,0.4943,0.5338,0.5503,1,1,1,0.2390,0.7463,0.8478,0.9239
v_dirtywall_1_6,viewpoint,668,59,14.16,25.0339,0.0973,0.1183,0.1243,0,0,0,0.0000,0.0000,0.0000,0.0000
v_dogman_1_2,viewpoint,969,860,12.08,1.6671,0.8813,0.9288,0.9432,1,1,1,0.0000,0.4443,0.6666,0.8333
v_dogman_1_3,viewpoint,1119,1054,12.07,0.4175,0.9410,0.9705,0.9750,1,1,1,0.5825,0.8608,0.9165,0.9583
v_dogman_1_4,viewpoint,525,75,13.83,8.3239,0.1410,0.1924,0.2171,0,0,0,0.0000,0.0000,0.0000,0.1676
v_dogman_1_5,viewpoint,757,522,11.97,4.2711,0.6764,0.7715,0.7992,0,1,1,0.0000,0.0000,0.1458,0.5729
v_dogman_1_6,viewpoint,471,10,11.29,880.9031,0.0510,0.0892,0.1040,0,0,0,0.0000,0.0000,0.0000,0.0000
v_eastsouth_1_2,viewpoint,1054,923,15.94,0.2459,0.8757,0.8975,0.9051,1,1,1,0.7541,0.9180,0.9508,0.9754
v_eastsouth_1_3,viewpoint,868,654,15.01,0.5080,0.7465,0.7788,0.7857,1,1,1,0.4920,0.8307,0.8984,0.9492
v_eastsouth_1_4,viewpoint,713,438,14.66,0.6171,0.6059,0.6396,0.6438,1,1,1,0.3829,0.7943,0.8766,0.9383
v_eastsouth_1_5,viewpoint,660,188,14.78,0.8320,0.2848,0.2909,0.2939,1,1,1,0.1680,0.7227,0.8336,0.9168
v_eastsouth_1_6,viewpoint,573,129,14.17,1.9594,0.2234,0.2321,0.2356,1,1,1,0.0000,0.3469,0.6081,0.8041
v_feast_1_2,viewpoint,875,632,13.78,0.2494,0.7257,0.7543,0.7691,1,1,1,0.7506,0.9169,0.9501,0.9751
v_feast_1_3,viewpoint,848,598,14.48,0.5407,0.7064,0.7594,0.7712,1,1,1,0.4593,0.8198,0.8919,0.9459
v_feast_1_4,viewpoint,693,250,13.15,1.5480,0.3593,0.4055,0.4199,1,1,1,0.0000,0.4840,0.6904,0.8452
v_feast_1_5,viewpoint,782,484,13.82,2.0519,0.6189,0.6496,0.6573,1,1,1,0.0000,0.3160,0.5896,0.7948
v_feast_1_6,viewpoint,673,244,13.58,1.2220,0.3596,0.3908,0.4027,1,1,1,0.0000,0.5927,0.7556,0.8778
v_fest_1_2,viewpoint,928,706,14.37,1.0895,0.7575,0.8114,0.8276,1,1,1,0.0000,0.6368,0.7821,0.8911
v_fest_1_3,viewpoint,689,214,14.23,3.2907,0.3033,0.3701,0.3846,0,1,1,0.0000,0.0000,0.3419,0.6709
v_fest_1_4,viewpoint,816,558,16.43,2.8388,0.6593,0.7304,0.7341,1,1,1,0.0000,0.0537,0.4322,0.7161
v_fest_1_5,viewpoint,733,340,20.75,3.8129,0.4393,0.5061,0.5280,0,1,1,0.0000,0.0000,0.2374,0.6187
v_fest_1_6,viewpoint,650,139,13.97,3.7908,0.2000,0.2508,0.2662,0,1,1,0.0000,0.0000,0.2418,0.6209
v_gardens_1_2,viewpoint,809,531,12.89,1.6118,0.6477,0.7330,0.7639,1,1,1,0.0000,0.4627,0.6776,0.8388
v_gardens_1_3,viewpoint,550,72,14.04,19.7841,0.1182,0.1727,0.1964,0,0,0,0.0000,0.0000,0.0000,0.0000
v_gardens_1_4,viewpoint,972,801,13.09,0.6558,0.8189,0.8796,0.9002,1,1,1,0.3442,0.7814,0.8688,0.9344
v_gardens_1_5,viewpoint,590,121,12.85,4.9656,0.2034,0.2542,0.2763,0,1,1,0.0000,0.0000,0.0069,0.5034
v_gardens_1_6,viewpoint,1030,862,12.69,0.9913,0.8214,0.8981,0.9136,1,1,1,0.0087,0.6696,0.8017,0.9009
v_grace_1_2,viewpoint,1043,903,11.67,0.8603,0.8619,0.9233,0.9358,1,1,1,0.1397,0.7132,0.8279,0.9140
v_grace_1_3,viewpoint,873,649,11.39,2.6957,0.7434,0.8259,0.8442,1,1,1,0.0000,0.1014,0.4609,0.7304
v_grace_1_4,viewpoint,724,398,11.30,3.9061,0.5373,0.6298,0.6533,0,1,1,0.0000,0.0000,0.2188,0.6094
v_grace_1_5,viewpoint,555,88,11.04,19.9582,0.1604,0.2018,0.2198,0,0,0,0.0000,0.0000,0.0000,0.0000
v_grace_1_6,viewpoint,483,16,10.64,577.4183,0.0538,0.0683,0.0849,0,0,0,0.0000,0.0000,0.0000,0.0000
v_graffiti_1_2,viewpoint,1003,851,15.04,0.5903,0.8465,0.8963,0.9093,1,1,1,0.4097,0.8032,0.8819,0.9410
v_graffiti_1_3,viewpoint,765,404,14.42,2.3591,0.5046,0.5817,0.6013,1,1,1,0.0000,0.2136,0.5282,0.7641
v_graffiti_1_4,viewpoint,642,97,14.47,6.4932,0.1511,0.1885,0.2087,0,0,1,0.0000,0.0000,0.0000,0.3507
v_graffiti_1_5,viewpoint,639,8,14.44,867.9408,0.0266,0.0360,0.0454,0,0,0,0.0000,0.0000,0.0000,0.0000
v_graffiti_1_6,viewpoint,637,8,14.58,501.0757,0.0078,0.0141,0.0173,0,0,0,0.0000,0.0000,0.0000,0.0000
v_home_1_2,viewpoint,697,388,13.30,0.7706,0.5552,0.6083,0.6356,1,1,1,0.2294,0.7431,0.8459,0.9229
v_home_1_3,viewpoint,626,170,12.61,1.8349,0.2620,0.3067,0.3259,1,1,1,0.0000,0.3884,0.6330,0.8165
v_home_1_4,viewpoint,709,485,12.74,1.2460,0.6798,0.7405,0.7602,1,1,1,0.0000,0.5847,0.7508,0.8754
v_home_1_5,viewpoint,530,108,11.94,4.8570,0.2000,0.2792,0.3226,0,1,1,0.0000,0.0000,0.0286,0.5143
v_home_1_6,viewpoint,850,703,12.80,1.0279,0.8153,0.8471,0.8529,1,1,1,0.0000,0.6574,0.7944,0.8972
v_laptop_1_2,viewpoint,1125,1065,11.98,0.2855,0.9467,0.9813,0.9884,1,1,1,0.7145,0.9048,0.9429,0.9715
v_laptop_1_3,viewpoint,953,874,11.69,0.3965,0.9171,0.9412,0.9454,1,1,1,0.6035,0.8678,0.9207,0.9604
v_laptop_1_4,viewpoint,813,733,11.37,0.6050,0.8930,0.9237,0.9274,1,1,1,0.3950,0.7983,0.8790,0.9395
v_laptop_1_5,viewpoint,846,773,11.52,0.7290,0.8983,0.9374,0.9397,1,1,1,0.2710,0.7570,0.8542,0.9271
v_laptop_1_6,viewpoint,930,841,14.25,0.8630,0.8796,0.9376,0.9452,1,1,1,0.1370,0.7123,0.8274,0.9137
v_london_1_2,viewpoint,884,623,14.53,0.5584,0.7059,0.7511,0.7579,1,1,1,0.4416,0.8139,0.8883,0.9442
v_london_1_3,viewpoint,838,585,13.87,0.3157,0.6969,0.7446,0.7578,1,1,1,0.6843,0.8948,0.9369,0.9684
v_london_1_4,viewpoint,765,466,13.54,1.5419,0.6026,0.6458,0.6641,1,1,1,0.0000,0.4860,0.6916,0.8458
v_london_1_5,viewpoint,890,673,13.88,0.5143,0.7573,0.8112,0.8225,1,1,1,0.4857,0.8286,0.8971,0.9486
v_london_1_6,viewpoint,881,653,13.49,0.4703,0.7412,0.8082,0.8218,1,1,1,0.5297,0.8432,0.9059,0.9530
v_machines_1_2,viewpoint,907,730,13.40,1.2368,0.7916,0.8820,0.8975,1,1,1,0.0000,0.5877,0.7526,0.8763
v_machines_1_3,viewpoint,565,154,13.10,4.8356,0.2496,0.3327,0.3699,0,1,1,0.0000,0.0000,0.0329,0.5164
v_machines_1_4,viewpoint,715,496,15.28,0.7974,0.6881,0.7399,0.7566,1,1,1,0.2026,0.7342,0.8405,0.9203
v_machines_1_5,viewpoint,553,138,18.30,2.4675,0.2387,0.2984,0.3418,1,1,1,0.0000,0.1775,0.5065,0.7532
v_machines_1_6,viewpoint,769,578,13.02,0.6118,0.7490,0.7854,0.7945,1,1,1,0.3882,0.7961,0.8776,0.9388
v_man_1_2,viewpoint,868,714,12.57,1.0242,0.8157,0.8687,0.8802,1,1,1,0.0000,0.6586,0.7952,0.8976
v_man_1_3,viewpoint,623,216,12.45,2.9420,0.3371,0.3804,0.3949,1,1,1,0.0000,0.0193,0.4116,0.7058
v_man_1_4,viewpoint,513,86,11.20,11.7130,0.1559,0.1969,0.2222,0,0,0,0.0000,0.0000,0.0000,0.0000
v_man_1_5,viewpoint,741,552,11.73,1.5477,0.7382,0.7908,0.8043,1,1,1,0.0000,0.4841,0.6905,0.8452
v_man_1_6,viewpoint,760,548,12.44,0.8592,0.7224,0.7868,0.8053,1,1,1,0.1408,0.7136,0.8282,0.9141
v_maskedman_1_2,viewpoint,429,240,7.62,1.3380,0.5571,0.5851,0.5967,1,1,1,0.0000,0.5540,0.7324,0.8662
v_maskedman_1_3,viewpoint,369,181,7.88,2.1681,0.4932,0.5122,0.5176,1,1,1,0.0000,0.2773,0.5664,0.7832
v_maskedman_1_4,viewpoint,461,264,8.51,2.3663,0.5727,0.6356,0.6508,1,1,1,0.0000,0.2112,0.5267,0.7634
v_maskedman_1_5,viewpoint,515,380,7.82,2.2513,0.7301,0.7845,0.7942,1,1,1,0.0000,0.2496,0.5497,0.7749
v_maskedman_1_6,viewpoint,388,9,9.15,508.4507,0.0412,0.0490,0.0515,0,0,0,0.0000,0.0000,0.0000,0.0000
v_pomegranate_1_2,viewpoint,881,751,13.06,0.8055,0.8502,0.8910,0.9001,1,1,1,0.1945,0.7315,0.8389,0.9195
v_pomegranate_1_3,viewpoint,833,665,12.76,0.8181,0.7899,0.8619,0.8715,1,1,1,0.1819,0.7273,0.8364,0.9182
v_pomegranate_1_4,viewpoint,754,587,12.61,0.6473,0.7759,0.8236,0.8369,1,1,1,0.3527,0.7842,0.8705,0.9353
v_pomegranate_1_5,viewpoint,771,626,11.97,1.4627,0.8016,0.8482,0.8547,1,1,1,0.0000,0.5124,0.7075,0.8537
v_pomegranate_1_6,viewpoint,805,685,11.98,0.6023,0.8497,0.8882,0.8919,1,1,1,0.3977,0.7992,0.8795,0.9398
v_posters_1_2,viewpoint,655,258,17.34,115.2413,0.0000,0.0000,0.0000,0,0,0,0.0000,0.0000,0.0000,0.0000
v_posters_1_3,viewpoint,700,288,17.13,121.0846,0.0000,0.0000,0.0000,0,0,0,0.0000,0.0000,0.0000,0.0000
v_posters_1_4,viewpoint,712,347,17.18,112.4606,0.0000,0.0000,0.0000,0,0,0,0.0000,0.0000,0.0000,0.0000
v_posters_1_5,viewpoint,609,60,16.67,122.1255,0.0000,0.0000,0.0000,0,0,0,0.0000,0.0000,0.0000,0.0000
v_posters_1_6,viewpoint,604,14,16.56,281.0938,0.0000,0.0000,0.0000,0,0,0,0.0000,0.0000,0.0000,0.0000
v_samples_1_2,viewpoint,771,429,15.74,67.7122,0.0013,0.0013,0.0026,0,0,0,0.0000,0.0000,0.0000,0.0000
v_samples_1_3,viewpoint,797,489,15.41,72.4821,0.0000,0.0000,0.0000,0,0,0,0.0000,0.0000,0.0000,0.0000
v_samples_1_4,viewpoint,711,268,16.13,71.6598,0.0000,0.0000,0.0000,0,0,0,0.0000,0.0000,0.0000,0.0000
v_samples_1_5,viewpoint,818,493,17.65,80.3595,0.0000,0.0012,0.0012,0,0,0,0.0000,0.0000,0.0000,0.0000
v_samples_1_6,viewpoint,722,248,18.69,66.8312,0.0014,0.0014,0.0028,0,0,0,0.0000,0.0000,0.0000,0.0000
v_soldiers_1_2,viewpoint,339,256,7.43,0.7418,0.7522,0.7994,0.8112,1,1,1,0.2582,0.7527,0.8516,0.9258
v_soldiers_1_3,viewpoint,406,315,7.08,0.8859,0.7783,0.8153,0.8276,1,1,1,0.1141,0.7047,0.8228,0.9114
v_soldiers_1_4,viewpoint,350,208,7.21,1.9238,0.5971,0.6171,0.6257,1,1,1,0.0000,0.3587,0.6152,0.8076
v_soldiers_1_5,viewpoint,323,108,7.33,6.2776,0.3282,0.3560,0.3653,0,0,1,0.0000,0.0000,0.0000,0.3722
v_soldiers_1_6,viewpoint,421,308,8.10,97.0228,0.0000,0.0000,0.0000,0,0,0,0.0000,0.0000,0.0000,0.0000
v_strand_1_2,viewpoint,1241,1179,12.83,0.2511,0.9500,0.9807,0.9831,1,1,1,0.7489,0.9163,0.9498,0.9749
v_strand_1_3,viewpoint,914,788,12.23,1.0225,0.8621,0.9190,0.9278,1,1,1,0.0000,0.6592,0.7955,0.8977
v_strand_1_4,viewpoint,871,741,11.91,1.7435,0.8450,0.8852,0.8978,1,1,1,0.0000,0.4188,0.6513,0.8257
v_strand_1_5,viewpoint,724,534,11.43,1.4273,0.7307,0.7914,0.7970,1,1,1,0.0000,0.5242,0.7145,0.8573
v_strand_1_6,viewpoint,635,371,11.62,5.0426,0.5780,0.6457,0.6709,0,0,1,0.0000,0.0000,0.0000,0.4957
v_sunseason_1_2,viewpoint,1296,1143,15.06,0.9208,0.8827,0.9321,0.9414,1,1,1,0.0792,0.6931,0.8158,0.9079
v_sunseason_1_3,viewpoint,1083,906,16.96,0.7625,0.8347,0.8855,0.8994,1,1,1,0.2375,0.7458,0.8475,0.9238
v_sunseason_1_4,viewpoint,731,403,14.76,0.5017,0.5527,0.5828,0.5964,1,1,1,0.4983,0.8328,0.8997,0.9498
v_sunseason_1_5,viewpoint,713,220,14.77,3.7727,0.3072,0.3562,0.3689,0,1,1,0.0000,0.0000,0.2455,0.6227
v_sunseason_1_6,viewpoint,649,74,14.65,8.9645,0.1079,0.1479,0.1618,0,0,0,0.0000,0.0000,0.0000,0.1036
v_tabletop_1_2,viewpoint,870,590,15.33,3.5413,0.6644,0.7299,0.7506,0,1,1,0.0000,0.0000,0.2917,0.6459
v_tabletop_1_3,viewpoint,632,52,14.93,9.8515,0.0870,0.1060,0.1266,0,0,0,0.0000,0.0000,0.0000,0.0149
v_tabletop_1_4,viewpoint,606,26,14.80,422.0835,0.0314,0.0396,0.0462,0,0,0,0.0000,0.0000,0.0000,0.0000
v_tabletop_1_5,viewpoint,622,39,15.00,573.0013,0.0563,0.0707,0.0852,0,0,0,0.0000,0.0000,0.0000,0.0000
v_tabletop_1_6,viewpoint,640,33,14.50,421.9732,0.0500,0.0672,0.0797,0,0,0,0.0000,0.0000,0.0000,0.0000
v_tempera_1_2,viewpoint,537,395,9.32,0.3349,0.7356,0.7672,0.7728,1,1,1,0.6651,0.8884,0.9330,0.9665
v_tempera_1_3,viewpoint,547,425,9.19,0.6619,0.7733,0.8026,0.8154,1,1,1,0.3381,0.7794,0.8676,0.9338
v_tempera_1_4,viewpoint,483,287,9.53,0.9730,0.5921,0.6356,0.6522,1,1,1,0.0270,0.6757,0.8054,0.9027
v_tempera_1_5,viewpoint,436,197,9.20,1.0211,0.4495,0.5183,0.5298,1,1,1,0.0000,0.6596,0.7958,0.8979
v_tempera_1_6,viewpoint,279,29,7.56,14.9692,0.0824,0.1290,0.1541,0,0,0,0.0000,0.0000,0.0000,0.0000
v_there_1_2,viewpoint,304,238,6.08,0.7200,0.7796,0.8421,0.8520,1,1,1,0.2800,0.7600,0.8560,0.9280
v_there_1_3,viewpoint,245,8,7.47,133.0274,0.0408,0.0531,0.0653,0,0,0,0.0000,0.0000,0.0000,0.0000
v_there_1_4,viewpoint,251,5,7.85,121.6921,0.0040,0.0040,0.0040,0,0,0,0.0000,0.0000,0.0000,0.0000
v_there_1_5,viewpoint,262,7,7.88,208.3307,0.0000,0.0000,0.0038,0,0,0,0.0000,0.0000,0.0000,0.0000
v_there_1_6,viewpoint,235,6,7.89,1106.2408,0.0000,0.0000,0.0085,0,0,0,0.0000,0.0000,0.0000,0.0000
v_underground_1_2,viewpoint,1074,883,14.16,0.2460,0.8240,0.8631,0.8706,1,1,1,0.7540,0.9180,0.9508,0.9754
v_underground_1_3,viewpoint,795,489,14.25,2.3940,0.6138,0.6843,0.7057,1,1,1,0.0000,0.2020,0.5212,0.7606
v_underground_1_4,viewpoint,657,229,13.78,4.4423,0.3455,0.4049,0.4307,0,1,1,0.0000,0.0000,0.1115,0.5558
v_underground_1_5,viewpoint,611,70,13.26,22.1417,0.1097,0.1571,0.1751,0,0,0,0.0000,0.0000,0.0000,0.0000
v_underground_1_6,viewpoint,533,10,12.51,347.1066,0.0281,0.0450,0.0638,0,0,0,0.0000,0.0000,0.0000,0.0000
v_vitro_1_2,viewpoint,974,615,16.96,0.4176,0.6304,0.6581,0.6704,1,1,1,0.5824,0.8608,0.9165,0.9582
v_vitro_1_3,viewpoint,833,394,16.10,0.6883,0.4742,0.5006,0.5126,1,1,1,0.3117,0.7706,0.8623,0.9312
v_vitro_1_4,viewpoint,641,141,15.18,0.7172,0.2200,0.2402,0.2559,1,1,1,0.2828,0.7609,0.8566,0.9283
v_vitro_1_5,viewpoint,840,546,15.81,1.3124,0.6476,0.6786,0.6893,1,1,1,0.0000,0.5625,0.7375,0.8688
v_vitro_1_6,viewpoint,702,257,15.39,0.9163,0.3689,0.4060,0.4160,1,1,1,0.0837,0.6946,0.8167,0.9084
v_wall_1_2,viewpoint,685,608,8.49,0.9113,0.8891,0.9139,0.9182,1,1,1,0.0887,0.6962,0.8177,0.9089
v_wall_1_3,viewpoint,569,411,8.64,2.2534,0.7206,0.7610,0.7663,1,1,1,0.0000,0.2489,0.5493,0.7747
v_wall_1_4,viewpoint,686,609,8.48,0.4726,0.8907,0.9111,0.9125,1,1,1,0.5274,0.8425,0.9055,0.9527
v_wall_1_5,viewpoint,484,234,8.22,0.9483,0.4773,0.5124,0.5207,1,1,1,0.0517,0.6839,0.8103,0.9052
v_wall_1_6,viewpoint,520,309,8.59,1.5366,0.5808,0.6231,0.6365,1,1,1,0.0000,0.4878,0.6927,0.8463
v_wapping_1_2,viewpoint,857,660,18.94,0.5664,0.7748,0.8588,0.8810,1,1,1,0.4336,0.8112,0.8867,0.9434
v_wapping_1_3,viewpoint,622,268,14.88,3.3236,0.4148,0.4984,0.5305,0,1,1,0.0000,0.0000,0.3353,0.6676
v_wapping_1_4,viewpoint,600,145,15.20,2.6695,0.2367,0.3017,0.3367,1,1,1,0.0000,0.1102,0.4661,0.7330
v_wapping_1_5,viewpoint,581,102,14.01,4.5579,0.1670,0.2220,0.2530,0,1,1,0.0000,0.0000,0.0884,0.5442
v_wapping_1_6,viewpoint,536,39,13.84,7.0540,0.0709,0.0989,0.1194,0,0,0,0.0000,0.0000,0.0000,0.2946
v_war_1_2,viewpoint,716,400,13.31,3.2214,0.5279,0.6089,0.6313,0,1,1,0.0000,0.0000,0.3557,0.6779
v_war_1_3,viewpoint,615,130,12.79,3.3097,0.2146,0.2894,0.3138,0,1,1,0.0000,0.0000,0.3381,0.6690
v_war_1_4,viewpoint,987,812,13.58,0.6196,0.8156,0.8531,0.8673,1,1,1,0.3804,0.7935,0.8761,0.9380
v_war_1_5,viewpoint,823,576,13.45,1.0823,0.6938,0.7618,0.7752,1,1,1,0.0000,0.6392,0.7835,0.8918
v_war_1_6,viewpoint,619,73,12.85,2.4557,0.1163,0.1341,0.1519,1,1,1,0.0000,0.1814,0.5089,0.7544
v_weapons_1_2,viewpoint,969,843,13.03,1.5332,0.8710,0.9195,0.9309,1,1,1,0.0000,0.4889,0.6934,0.8467
v_weapons_1_3,viewpoint,735,467,13.10,1.3968,0.6381,0.7170,0.7456,1,1,1,0.0000,0.5344,0.7206,0.8603
v_weapons_1_4,viewpoint,815,605,13.09,1.7481,0.7399,0.7951,0.8025,1,1,1,0.0000,0.4173,0.6504,0.8252
v_weapons_1_5,viewpoint,923,750,12.79,0.8520,0.8115,0.8765,0.8906,1,1,1,0.1480,0.7160,0.8296,0.9148
v_weapons_1_6,viewpoint,771,561,12.66,1.1389,0.7250,0.7990,0.8275,1,1,1,0.0000,0.6204,0.7722,0.8861
v_woman_1_2,viewpoint,634,238,12.43,46.4432,0.0000,0.0000,0.0016,0,0,0,0.0000,0.0000,0.0000,0.0000
v_woman_1_3,viewpoint,585,225,12.21,51.0961,0.0000,0.0000,0.0000,0,0,0,0.0000,0.0000,0.0000,0.0000
v_woman_1_4,viewpoint,561,143,12.17,51.2668,0.0000,0.0000,0.0018,0,0,0,0.0000,0.0000,0.0000,0.0000
v_woman_1_5,viewpoint,557,59,12.33,45.6960,0.0000,0.0054,0.0090,0,0,0,0.0000,0.0000,0.0000,0.0000
v_woman_1_6,viewpoint,547,74,11.65,46.5204,0.0037,0.0037,0.0037,0,0,0,0.0000,0.0000,0.0000,0.0000
v_wormhole_1_2,viewpoint,783,582,13.24,1.6987,0.7382,0.7842,0.7995,1,1,1,0.0000,0.4338,0.6603,0.8301
v_wormhole_1_3,viewpoint,877,688,12.88,1.4817,0.7811,0.8369,0.8529,1,1,1,0.0000,0.5061,0.7037,0.8518
v_wormhole_1_4,viewpoint,1036,891,13.26,1.5464,0.8571,0.9160,0.9373,1,1,1,0.0000,0.4845,0.6907,0.8454
v_wormhole_1_5,viewpoint,699,409,13.37,6.0461,0.5608,0.6638,0.6953,0,0,1,0.0000,0.0000,0.0000,0.3954
v_wormhole_1_6,viewpoint,547,39,12.62,29.2553,0.0695,0.0841,0.1115,0,0,0,0.0000,0.0000,0.0000,0.0000
v_wounded_1_2,viewpoint,506,342,11.01,2.1042,0.6680,0.7194,0.7352,1,1,1,0.0000,0.2986,0.5792,0.7896
v_wounded_1_3,viewpoint,426,188,10.42,7.0355,0.4390,0.5188,0.5610,0,0,0,0.0000,0.0000,0.0000,0.2965
v_wounded_1_4,viewpoint,196,21,7.91,1998.6217,0.1071,0.1480,0.1735,0,0,0,0.0000,0.0000,0.0000,0.0000
v_wounded_1_5,viewpoint,403,126,9.83,8.1634,0.3151,0.3846,0.4218,0,0,0,0.0000,0.0000,0.0000,0.1837
v_wounded_1_6,viewpoint,285,31,9.01,31.9770,0.1123,0.1439,0.1930,0,0,0,0.0000,0.0000,0.0000,0.0000
v_yard_1_2,viewpoint,825,582,13.48,1.0599,0.6982,0.7491,0.7576,1,1,1,0.0000,0.6467,0.7880,0.8940
v_yard_1_3,viewpoint,623,284,13.17,3.6255,0.4526,0.5233,0.5393,0,1,1,0.0000,0.0000,0.2749,0.6374
v_yard_1_4,viewpoint,715,467,13.23,0.6406,0.6503,0.6965,0.7035,1,1,1,0.3594,0.7865,0.8719,0.9359
v_yard_1_5,viewpoint,645,251,13.16,2.1635,0.3736,0.4419,0.4589,1,1,1,0.0000,0.2788,0.5673,0.7836
v_yard_1_6,viewpoint,576,51,12.56,14.7008,0.0868,0.1146,0.1319,0,0,0,0.0000,0.0000,0.0000,0.0000
v_yuri_1_2,viewpoint,670,522,10.13,1.2580,0.7731,0.8239,0.8463,1,1,1,0.0000,0.5807,0.7484,0.8742
v_yuri_1_3,viewpoint,492,347,8.15,3.2113,0.6829,0.7764,0.8028,0,1,1,0.0000,0.0000,0.3577,0.6789
v_yuri_1_4,viewpoint,339,97,7.86,113.2260,0.2625,0.3481,0.3835,0,0,0,0.0000,0.0000,0.0000,0.0000
v_yuri_1_5,viewpoint,517,386,8.15,4.0101,0.7408,0.8240,0.8627,0,1,1,0.0000,0.0000,0.1980,0.5990
v_yuri_1_6,viewpoint,367,128,8.04,18.3966,0.3324,0.4251,0.4659,0,0,0,0.0000,0.0000,0.0000,0.0000
