PairName,SeqType,NumMatches,Inliers,TimeMS,H_Error,MMA@3,MMA@5,MMA@7,MHA_Acc@3,MHA_Acc@5,MHA_Acc@7,AUC@1,AUC@3,AUC@5,AUC@10
i_ajuntament_1_2,illumination,3213,3176,242.57,1.7132,0.9144,0.9960,0.9997,1,1,1,0.0000,0.4289,0.6574,0.8287
i_ajuntament_1_3,illumination,1850,1743,12.95,1.3876,0.8914,0.9757,0.9849,1,1,1,0.0000,0.5375,0.7225,0.8612
i_ajuntament_1_4,illumination,1015,899,13.20,1.7514,0.8148,0.9330,0.9537,1,1,1,0.0000,0.4162,0.6497,0.8249
i_ajuntament_1_5,illumination,1095,960,13.04,1.4017,0.8100,0.9306,0.9525,1,1,1,0.0000,0.5328,0.7197,0.8598
i_ajuntament_1_6,illumination,1156,990,13.05,1.3574,0.8010,0.9170,0.9472,1,1,1,0.0000,0.5475,0.7285,0.8643
i_autannes_1_2,illumination,2122,2107,22.75,1.3414,0.9180,0.9981,1.0000,1,1,1,0.0000,0.5529,0.7317,0.8659
i_autannes_1_3,illumination,1773,1742,12.92,1.3854,0.9171,0.9938,0.9989,1,1,1,0.0000,0.5382,0.7229,0.8615
i_autannes_1_4,illumination,678,612,12.65,1.4119,0.8392,0.9499,0.9690,1,1,1,0.0000,0.5294,0.7176,0.8588
i_autannes_1_5,illumination,698,639,11.29,1.6129,0.8381,0.9370,0.9585,1,1,1,0.0000,0.4624,0.6774,0.8387
i_autannes_1_6,illumination,1311,1262,13.46,1.7565,0.8841,0.9718,0.9924,1,1,1,0.0000,0.4145,0.6487,0.8243
i_bologna_1_2,illumination,1579,1569,35.19,1.2698,0.9595,0.9994,0.9994,1,1,1,0.0000,0.5767,0.7460,0.8730
i_bologna_1_3,illumination,1318,1294,13.01,1.3355,0.9492,0.9879,0.9947,1,1,1,0.0000,0.5548,0.7329,0.8665
i_bologna_1_4,illumination,1272,1251,12.17,1.6104,0.9520,0.9921,0.9969,1,1,1,0.0000,0.4632,0.6779,0.8390
i_bologna_1_5,illumination,1076,1033,13.15,1.6013,0.9266,0.9777,0.9916,1,1,1,0.0000,0.4662,0.6797,0.8399
i_bologna_1_6,illumination,1044,1001,12.79,1.4431,0.9148,0.9732,0.9828,1,1,1,0.0000,0.5190,0.7114,0.8557
i_books_1_2,illumination,1177,1138,12.83,1.2842,0.9031,0.9839,0.9898,1,1,1,0.0000,0.5719,0.7432,0.8716
i_books_1_3,illumination,1501,1458,13.26,1.4020,0.9081,0.9780,0.9907,1,1,1,0.0000,0.5327,0.7196,0.8598
i_books_1_4,illumination,1637,1600,12.99,1.4810,0.9078,0.9884,0.9982,1,1,1,0.0000,0.5063,0.7038,0.8519
i_books_1_5,illumination,1603,1566,12.97,1.4979,0.8971,0.9888,0.9963,1,1,1,0.0000,0.5007,0.7004,0.8502
i_books_1_6,illumination,1177,1121,12.46,1.3886,0.8887,0.9652,0.9856,1,1,1,0.0000,0.5371,0.7223,0.8611
i_boutique_1_2,illumination,3006,2922,12.44,1.9007,0.8583,0.9787,0.9963,1,1,1,0.0000,0.3664,0.6199,0.8099
i_boutique_1_3,illumination,2863,2730,13.08,1.5711,0.8784,0.9797,0.9951,1,1,1,0.0000,0.4763,0.6858,0.8429
i_boutique_1_4,illumination,2977,2836,13.40,1.7646,0.8609,0.9731,0.9923,1,1,1,0.0000,0.4118,0.6471,0.8235
i_boutique_1_5,illumination,1582,1319,12.93,2.3663,0.7320,0.8906,0.9520,1,1,1,0.0000,0.2112,0.5267,0.7634
i_boutique_1_6,illumination,1481,1245,12.93,2.2227,0.7184,0.8798,0.9365,1,1,1,0.0000,0.2591,0.5555,0.7777
i_bridger_1_2,illumination,2535,2479,28.25,1.9170,0.8564,0.9846,0.9980,1,1,1,0.0000,0.3610,0.6166,0.8083
i_bridger_1_3,illumination,2111,2031,12.29,1.2943,0.9218,0.9811,0.9910,1,1,1,0.0000,0.5686,0.7411,0.8706
i_bridger_1_4,illumination,2248,2186,13.06,1.7815,0.8981,0.9818,0.9960,1,1,1,0.0000,0.4062,0.6437,0.8218
i_bridger_1_5,illumination,1992,1912,11.84,1.5276,0.9001,0.9859,0.9945,1,1,1,0.0000,0.4908,0.6945,0.8472
i_bridger_1_6,illumination,973,851,11.17,1.5337,0.7934,0.9260,0.9661,1,1,1,0.0000,0.4888,0.6933,0.8466
i_brooklyn_1_2,illumination,1952,1814,12.43,1.5382,0.8730,0.9585,0.9785,1,1,1,0.0000,0.4873,0.6924,0.8462
i_brooklyn_1_3,illumination,2819,2769,12.82,2.2064,0.8404,0.9823,0.9982,1,1,1,0.0000,0.2645,0.5587,0.7794
i_brooklyn_1_4,illumination,1490,1340,12.38,1.7346,0.8168,0.9443,0.9846,1,1,1,0.0000,0.4218,0.6531,0.8265
i_brooklyn_1_5,illumination,2779,2722,13.94,2.3968,0.7927,0.9798,0.9978,1,1,1,0.0000,0.2011,0.5206,0.7603
i_brooklyn_1_6,illumination,1868,1729,14.83,2.2234,0.7479,0.9502,0.9829,1,1,1,0.0000,0.2589,0.5553,0.7777
i_castle_1_2,illumination,1116,960,13.84,1.3442,0.8127,0.9032,0.9346,1,1,1,0.0000,0.5519,0.7312,0.8656
i_castle_1_3,illumination,1549,1453,12.51,1.1597,0.8993,0.9684,0.9852,1,1,1,0.0000,0.6134,0.7681,0.8840
i_castle_1_4,illumination,1444,1353,12.42,1.6373,0.8490,0.9619,0.9882,1,1,1,0.0000,0.4542,0.6725,0.8363
i_castle_1_5,illumination,856,755,11.23,1.2666,0.8586,0.9334,0.9556,1,1,1,0.0000,0.5778,0.7467,0.8733
i_castle_1_6,illumination,906,790,11.77,1.4276,0.8433,0.9338,0.9669,1,1,1,0.0000,0.5241,0.7145,0.8572
i_chestnuts_1_2,illumination,2208,2104,12.73,1.3272,0.8809,0.9724,0.9932,1,1,1,0.0000,0.5576,0.7346,0.8673
i_chestnuts_1_3,illumination,2181,2070,13.38,1.4047,0.8812,0.9688,0.9931,1,1,1,0.0000,0.5318,0.7191,0.8595
i_chestnuts_1_4,illumination,2058,1923,12.36,1.2334,0.8761,0.9514,0.9830,1,1,1,0.0000,0.5889,0.7533,0.8767
i_chestnuts_1_5,illumination,1773,1680,12.00,1.6726,0.8866,0.9650,0.9825,1,1,1,0.0000,0.4425,0.6655,0.8327
i_chestnuts_1_6,illumination,1483,1369,11.82,1.4508,0.8759,0.9521,0.9744,1,1,1,0.0000,0.5164,0.7098,0.8549
i_crownday_1_2,illumination,1126,999,11.38,1.6203,0.8197,0.9458,0.9831,1,1,1,0.0000,0.4599,0.6759,0.8380
i_crownday_1_3,illumination,1850,1750,11.75,1.5674,0.8751,0.9719,0.9903,1,1,1,0.0000,0.4775,0.6865,0.8433
i_crownday_1_4,illumination,2317,2225,11.72,1.5609,0.8956,0.9801,0.9944,1,1,1,0.0000,0.4797,0.6878,0.8439
i_crownday_1_5,illumination,2984,2929,12.07,1.4292,0.9172,0.9910,0.9997,1,1,1,0.0000,0.5236,0.7142,0.8571
i_crownday_1_6,illumination,1066,958,11.54,1.6035,0.8471,0.9456,0.9737,1,1,1,0.0000,0.4655,0.6793,0.8397
i_dome_1_2,illumination,2175,2132,12.46,1.5531,0.9090,0.9908,0.9959,1,1,1,0.0000,0.4823,0.6894,0.8447
i_dome_1_3,illumination,676,601,11.87,2.4815,0.8210,0.9320,0.9660,1,1,1,0.0000,0.1728,0.5037,0.7518
i_dome_1_4,illumination,677,593,12.01,2.7461,0.8050,0.9188,0.9601,1,1,1,0.0000,0.0846,0.4508,0.7254
i_dome_1_5,illumination,731,652,12.18,1.8784,0.8167,0.9275,0.9644,1,1,1,0.0000,0.3739,0.6243,0.8122
i_dome_1_6,illumination,1366,1283,12.64,1.4424,0.8521,0.9671,0.9912,1,1,1,0.0000,0.5192,0.7115,0.8558
i_duda_1_2,illumination,1754,1749,11.57,1.5354,0.9396,0.9994,1.0000,1,1,1,0.0000,0.4882,0.6929,0.8465
i_duda_1_3,illumination,1636,1626,11.08,1.4729,0.9285,1.0000,1.0000,1,1,1,0.0000,0.5090,0.7054,0.8527
i_duda_1_4,illumination,1521,1496,12.08,1.4144,0.9270,0.9954,1.0000,1,1,1,0.0000,0.5285,0.7171,0.8586
i_duda_1_5,illumination,1419,1391,12.08,1.4473,0.9197,0.9887,1.0000,1,1,1,0.0000,0.5176,0.7105,0.8553
i_duda_1_6,illumination,1017,984,12.56,1.5816,0.8977,0.9813,0.9990,1,1,1,0.0000,0.4728,0.6837,0.8418
i_fenis_1_2,illumination,2462,2410,12.51,1.5951,0.9086,0.9882,0.9976,1,1,1,0.0000,0.4683,0.6810,0.8405
i_fenis_1_3,illumination,1581,1472,13.28,1.5502,0.8444,0.9500,0.9715,1,1,1,0.0000,0.4833,0.6900,0.8450
i_fenis_1_4,illumination,502,401,11.96,1.4432,0.7530,0.8367,0.8606,1,1,1,0.0000,0.5189,0.7114,0.8557
i_fenis_1_5,illumination,321,250,11.36,1.9589,0.7290,0.8069,0.8318,1,1,1,0.0000,0.3470,0.6082,0.8041
i_fenis_1_6,illumination,428,350,11.70,2.0112,0.7336,0.8318,0.8575,1,1,1,0.0000,0.3296,0.5978,0.7989
i_fog_1_2,illumination,2839,2779,21.16,1.3617,0.9257,0.9933,0.9975,1,1,1,0.0000,0.5461,0.7277,0.8638
i_fog_1_3,illumination,1871,1801,11.64,1.2744,0.9294,0.9786,0.9877,1,1,1,0.0000,0.5752,0.7451,0.8726
i_fog_1_4,illumination,1954,1873,11.93,1.2967,0.9150,0.9759,0.9893,1,1,1,0.0000,0.5678,0.7407,0.8703
i_fog_1_5,illumination,1148,1102,11.72,1.4403,0.9294,0.9695,0.9800,1,1,1,0.0000,0.5199,0.7119,0.8560
i_fog_1_6,illumination,1078,1028,11.21,1.3905,0.9249,0.9657,0.9712,1,1,1,0.0000,0.5365,0.7219,0.8609
i_fruits_1_2,illumination,3552,3532,32.66,1.3303,0.9398,0.9972,1.0000,1,1,1,0.0000,0.5566,0.7339,0.8670
i_fruits_1_3,illumination,3138,3068,13.78,1.3336,0.9254,0.9930,0.9994,1,1,1,0.0000,0.5555,0.7333,0.8666
i_fruits_1_4,illumination,3065,2980,14.02,1.3364,0.9191,0.9902,0.9990,1,1,1,0.0000,0.5545,0.7327,0.8664
i_fruits_1_5,illumination,2992,2923,13.30,1.1436,0.9385,0.9926,0.9983,1,1,1,0.0000,0.6188,0.7713,0.8856
i_fruits_1_6,illumination,3076,2993,13.48,1.1701,0.9311,0.9951,0.9980,1,1,1,0.0000,0.6100,0.7660,0.8830
i_gonnenberg_1_2,illumination,2294,2274,12.02,1.2654,0.9429,0.9961,0.9978,1,1,1,0.0000,0.5782,0.7469,0.8735
i_gonnenberg_1_3,illumination,2279,2257,11.45,1.2283,0.9421,0.9978,0.9991,1,1,1,0.0000,0.5906,0.7543,0.8772
i_gonnenberg_1_4,illumination,2060,2002,11.08,1.3549,0.9175,0.9869,0.9971,1,1,1,0.0000,0.5484,0.7290,0.8645
i_gonnenberg_1_5,illumination,2203,2183,11.08,1.5081,0.9419,0.9977,0.9995,1,1,1,0.0000,0.4973,0.6984,0.8492
i_gonnenberg_1_6,illumination,2222,2200,11.31,1.3873,0.9424,0.9964,0.9968,1,1,1,0.0000,0.5376,0.7225,0.8613
i_greenhouse_1_2,illumination,2590,2507,11.99,1.3554,0.8842,0.9888,0.9977,1,1,1,0.0000,0.5482,0.7289,0.8645
i_greenhouse_1_3,illumination,2411,2283,12.76,1.3906,0.8893,0.9764,0.9913,1,1,1,0.0000,0.5365,0.7219,0.8609
i_greenhouse_1_4,illumination,2284,2136,12.91,1.2088,0.8822,0.9707,0.9856,1,1,1,0.0000,0.5971,0.7582,0.8791
i_greenhouse_1_5,illumination,2194,2059,12.35,1.2815,0.8856,0.9690,0.9868,1,1,1,0.0000,0.5728,0.7437,0.8719
i_greenhouse_1_6,illumination,1995,1864,12.33,1.1541,0.8737,0.9679,0.9885,1,1,1,0.0000,0.6153,0.7692,0.8846
i_greentea_1_2,illumination,1819,1759,11.42,1.4885,0.8774,0.9775,0.9907,1,1,1,0.0000,0.5038,0.7023,0.8512
i_greentea_1_3,illumination,2626,2566,11.84,1.5301,0.9014,0.9848,0.9954,1,1,1,0.0000,0.4900,0.6940,0.8470
i_greentea_1_4,illumination,2783,2728,12.09,1.5171,0.9138,0.9889,0.9964,1,1,1,0.0000,0.4943,0.6966,0.8483
i_greentea_1_5,illumination,2826,2758,12.32,1.4755,0.9130,0.9851,0.9926,1,1,1,0.0000,0.5082,0.7049,0.8525
i_greentea_1_6,illumination,2522,2416,12.87,1.5289,0.8921,0.9774,0.9897,1,1,1,0.0000,0.4904,0.6942,0.8471
i_indiana_1_2,illumination,2027,1901,12.03,1.5567,0.8648,0.9635,0.9867,1,1,1,0.0000,0.4811,0.6887,0.8443
i_indiana_1_3,illumination,1853,1691,12.15,1.4512,0.8473,0.9417,0.9811,1,1,1,0.0000,0.5163,0.7098,0.8549
i_indiana_1_4,illumination,1646,1503,12.10,1.3633,0.8578,0.9502,0.9806,1,1,1,0.0000,0.5456,0.7273,0.8637
i_indiana_1_5,illumination,1464,1316,11.76,1.4089,0.8388,0.9399,0.9720,1,1,1,0.0000,0.5304,0.7182,0.8591
i_indiana_1_6,illumination,1323,1204,10.88,1.2607,0.8481,0.9433,0.9667,1,1,1,0.0000,0.5798,0.7479,0.8739
i_kions_1_2,illumination,1804,1683,19.81,2.6629,0.7040,0.9185,0.9861,1,1,1,0.0000,0.1124,0.4674,0.7337
i_kions_1_3,illumination,1204,1059,11.19,2.1522,0.7566,0.9028,0.9684,1,1,1,0.0000,0.2826,0.5696,0.7848
i_kions_1_4,illumination,1258,1108,11.93,1.6661,0.7734,0.9300,0.9762,1,1,1,0.0000,0.4446,0.6668,0.8334
i_kions_1_5,illumination,1292,1151,11.15,1.7737,0.7817,0.9272,0.9799,1,1,1,0.0000,0.4088,0.6453,0.8226
i_kions_1_6,illumination,1064,915,11.16,1.5301,0.7641,0.9041,0.9577,1,1,1,0.0000,0.4900,0.6940,0.8470
i_ktirio_1_2,illumination,3214,3205,12.86,1.7714,0.9203,0.9991,1.0000,1,1,1,0.0000,0.4095,0.6457,0.8229
i_ktirio_1_3,illumination,1978,1866,12.51,1.5948,0.8852,0.9722,0.9949,1,1,1,0.0000,0.4684,0.6810,0.8405
i_ktirio_1_4,illumination,1143,996,12.61,1.8101,0.8259,0.9221,0.9685,1,1,1,0.0000,0.3966,0.6380,0.8190
i_ktirio_1_5,illumination,1632,1527,12.09,1.5163,0.8713,0.9700,0.9847,1,1,1,0.0000,0.4946,0.6967,0.8484
i_ktirio_1_6,illumination,984,840,11.30,2.1787,0.8018,0.9167,0.9644,1,1,1,0.0000,0.2738,0.5643,0.7821
i_kurhaus_1_2,illumination,2465,2440,11.93,1.3740,0.9371,0.9923,0.9955,1,1,1,0.0000,0.5420,0.7252,0.8626
i_kurhaus_1_3,illumination,2064,2014,11.39,1.4286,0.9201,0.9898,0.9966,1,1,1,0.0000,0.5238,0.7143,0.8571
i_kurhaus_1_4,illumination,1798,1735,11.28,1.3734,0.9088,0.9766,0.9917,1,1,1,0.0000,0.5422,0.7253,0.8627
i_kurhaus_1_5,illumination,1570,1499,11.26,1.4223,0.8854,0.9739,0.9860,1,1,1,0.0000,0.5259,0.7155,0.8578
i_kurhaus_1_6,illumination,1394,1321,11.24,1.5783,0.8795,0.9641,0.9813,1,1,1,0.0000,0.4739,0.6843,0.8422
i_leuven_1_2,illumination,1981,1893,11.82,1.1847,0.9288,0.9904,0.9985,1,1,1,0.0000,0.6051,0.7631,0.8815
i_leuven_1_3,illumination,2816,2659,12.54,1.6005,0.9148,0.9688,0.9943,1,1,1,0.0000,0.4665,0.6799,0.8399
i_leuven_1_4,illumination,1940,1729,12.46,2.4463,0.8036,0.9263,0.9809,1,1,1,0.0000,0.1846,0.5107,0.7554
i_leuven_1_5,illumination,1839,1742,11.57,1.4108,0.8755,0.9728,0.9848,1,1,1,0.0000,0.5297,0.7178,0.8589
i_leuven_1_6,illumination,1805,1678,11.57,6.7755,0.6726,0.8593,0.9391,0,0,1,0.0000,0.0000,0.0000,0.3224
i_lionday_1_2,illumination,1039,888,11.36,1.2723,0.7700,0.9201,0.9740,1,1,1,0.0000,0.5759,0.7455,0.8728
i_lionday_1_3,illumination,1399,1269,12.09,1.3953,0.8399,0.9435,0.9807,1,1,1,0.0000,0.5349,0.7209,0.8605
i_lionday_1_4,illumination,396,221,11.53,2.5729,0.3838,0.6111,0.8081,1,1,1,0.0000,0.1424,0.4854,0.7427
i_lionday_1_5,illumination,676,501,11.69,2.7430,0.5104,0.7500,0.8950,1,1,1,0.0000,0.0857,0.4514,0.7257
i_lionday_1_6,illumination,1338,1211,12.10,1.8730,0.7474,0.9290,0.9843,1,1,1,0.0000,0.3757,0.6254,0.8127
i_lionnight_1_2,illumination,2075,2016,12.07,1.2031,0.8973,0.9870,0.9981,1,1,1,0.0000,0.5990,0.7594,0.8797
i_lionnight_1_3,illumination,1204,1147,11.71,1.8000,0.8696,0.9693,0.9850,1,1,1,0.0000,0.4000,0.6400,0.8200
i_lionnight_1_4,illumination,2201,2166,13.03,1.5769,0.9146,0.9932,0.9991,1,1,1,0.0000,0.4744,0.6846,0.8423
i_lionnight_1_5,illumination,2210,2165,12.86,1.9590,0.8665,0.9851,0.9959,1,1,1,0.0000,0.3470,0.6082,0.8041
i_lionnight_1_6,illumination,2185,2148,12.31,1.3634,0.8957,0.9922,0.9973,1,1,1,0.0000,0.5455,0.7273,0.8637
i_londonbridge_1_2,illumination,2374,2348,12.37,2.1880,0.8437,0.9853,0.9992,1,1,1,0.0000,0.2707,0.5624,0.7812
i_londonbridge_1_3,illumination,2194,2146,11.87,1.7154,0.8797,0.9868,0.9995,1,1,1,0.0000,0.4282,0.6569,0.8285
i_londonbridge_1_4,illumination,1476,1371,11.47,2.3006,0.7636,0.9438,0.9919,1,1,1,0.0000,0.2331,0.5399,0.7699
i_londonbridge_1_5,illumination,555,386,11.42,4.1736,0.3477,0.7477,0.9099,0,1,1,0.0000,0.0000,0.1653,0.5826
i_londonbridge_1_6,illumination,1822,1745,11.57,1.6570,0.8694,0.9720,0.9967,1,1,1,0.0000,0.4477,0.6686,0.8343
i_melon_1_2,illumination,1886,1870,12.18,1.2110,0.9507,0.9963,0.9989,1,1,1,0.0000,0.5963,0.7578,0.8789
i_melon_1_3,illumination,1325,1283,12.07,1.1370,0.9291,0.9834,0.9940,1,1,1,0.0000,0.6210,0.7726,0.8863
i_melon_1_4,illumination,462,395,11.72,1.9932,0.8139,0.9113,0.9459,1,1,1,0.0000,0.3356,0.6014,0.8007
i_melon_1_5,illumination,1312,1229,12.25,1.9881,0.8529,0.9588,0.9848,1,1,1,0.0000,0.3373,0.6024,0.8012
i_melon_1_6,illumination,1084,994,11.41,1.9917,0.8487,0.9483,0.9788,1,1,1,0.0000,0.3361,0.6017,0.8008
i_miniature_1_2,illumination,3120,3082,12.14,2.0060,0.9125,0.9923,0.9990,1,1,1,0.0000,0.3313,0.5988,0.7994
i_miniature_1_3,illumination,2448,2332,11.88,2.1335,0.8578,0.9755,0.9910,1,1,1,0.0000,0.2888,0.5733,0.7867
i_miniature_1_4,illumination,1215,1083,11.38,1.9844,0.8099,0.9267,0.9720,1,1,1,0.0000,0.3385,0.6031,0.8016
i_miniature_1_5,illumination,647,541,11.67,1.8754,0.7682,0.8980,0.9320,1,1,1,0.0000,0.3749,0.6249,0.8125
i_miniature_1_6,illumination,2392,2262,11.82,1.7321,0.8758,0.9741,0.9916,1,1,1,0.0000,0.4226,0.6536,0.8268
i_nescafe_1_2,illumination,1922,1808,11.89,1.4252,0.8746,0.9677,0.9844,1,1,1,0.0000,0.5249,0.7150,0.8575
i_nescafe_1_3,illumination,2342,2211,11.93,1.4914,0.8668,0.9633,0.9821,1,1,1,0.0000,0.5029,0.7017,0.8509
i_nescafe_1_4,illumination,2533,2426,12.70,1.5014,0.8800,0.9826,0.9925,1,1,1,0.0000,0.4995,0.6997,0.8499
i_nescafe_1_5,illumination,2249,2150,12.25,1.6852,0.8795,0.9715,0.9889,1,1,1,0.0000,0.4383,0.6630,0.8315
i_nescafe_1_6,illumination,1838,1705,11.45,1.7354,0.8536,0.9483,0.9799,1,1,1,0.0000,0.4215,0.6529,0.8265
i_nijmegen_1_2,illumination,2571,2447,11.96,1.1000,0.8981,0.9708,0.9934,1,1,1,0.0000,0.6333,0.7800,0.8900
i_nijmegen_1_3,illumination,2929,2841,12.12,1.2645,0.9088,0.9836,0.9980,1,1,1,0.0000,0.5785,0.7471,0.8736
i_nijmegen_1_4,illumination,917,815,11.36,1.8417,0.7972,0.9324,0.9640,1,1,1,0.0000,0.3861,0.6317,0.8158
i_nijmegen_1_5,illumination,2887,2782,12.63,1.2371,0.9099,0.9785,0.9941,1,1,1,0.0000,0.5876,0.7526,0.8763
i_nijmegen_1_6,illumination,2708,2580,12.26,1.1762,0.8929,0.9767,0.9978,1,1,1,0.0000,0.6079,0.7648,0.8824
i_nuts_1_2,illumination,2146,1866,14.09,1.7329,0.8271,0.9259,0.9492,1,1,1,0.0000,0.4224,0.6534,0.8267
i_nuts_1_3,illumination,843,671,13.13,1.1864,0.7378,0.8375,0.8802,1,1,1,0.0000,0.6045,0.7627,0.8814
i_nuts_1_4,illumination,496,306,12.33,1.7087,0.5625,0.6754,0.7440,1,1,1,0.0000,0.4304,0.6583,0.8291
i_nuts_1_5,illumination,333,150,12.42,1.8951,0.4054,0.4985,0.5495,1,1,1,0.0000,0.3683,0.6210,0.8105
i_nuts_1_6,illumination,282,88,12.38,2.6009,0.2695,0.3440,0.4007,1,1,1,0.0000,0.1330,0.4798,0.7399
i_objects_1_2,illumination,2732,2604,12.12,1.1702,0.8931,0.9821,0.9963,1,1,1,0.0000,0.6099,0.7660,0.8830
i_objects_1_3,illumination,2102,1895,11.73,1.2595,0.8539,0.9610,0.9862,1,1,1,0.0000,0.5802,0.7481,0.8741
i_objects_1_4,illumination,1525,1282,11.32,1.5759,0.7895,0.9102,0.9646,1,1,1,0.0000,0.4747,0.6848,0.8424
i_objects_1_5,illumination,1420,1168,11.26,1.3285,0.7634,0.8979,0.9542,1,1,1,0.0000,0.5572,0.7343,0.8671
i_objects_1_6,illumination,3032,2971,12.00,1.5841,0.8948,0.9885,0.9977,1,1,1,0.0000,0.4720,0.6832,0.8416
i_parking_1_2,illumination,2182,2151,11.75,1.4304,0.9271,0.9922,0.9973,1,1,1,0.0000,0.5232,0.7139,0.8570
i_parking_1_3,illumination,2021,1974,13.14,1.4838,0.9114,0.9837,0.9926,1,1,1,0.0000,0.5054,0.7032,0.8516
i_parking_1_4,illumination,1144,1064,13.56,2.1099,0.8086,0.9406,0.9843,1,1,1,0.0000,0.2967,0.5780,0.7890
i_parking_1_5,illumination,660,590,10.98,2.0286,0.7212,0.9227,0.9621,1,1,1,0.0000,0.3238,0.5943,0.7971
i_parking_1_6,illumination,1105,1042,10.82,1.7129,0.8344,0.9584,0.9855,1,1,1,0.0000,0.4290,0.6574,0.8287
i_partyfood_1_2,illumination,1187,1187,10.84,1.4318,0.9360,1.0000,1.0000,1,1,1,0.0000,0.5227,0.7136,0.8568
i_partyfood_1_3,illumination,1110,1106,10.80,1.4733,0.9234,0.9991,1.0000,1,1,1,0.0000,0.5089,0.7053,0.8527
i_partyfood_1_4,illumination,998,986,10.60,1.4504,0.9289,0.9980,1.0000,1,1,1,0.0000,0.5165,0.7099,0.8550
i_partyfood_1_5,illumination,934,916,11.21,1.4432,0.9176,0.9914,0.9979,1,1,1,0.0000,0.5189,0.7114,0.8557
i_partyfood_1_6,illumination,759,739,10.92,1.8426,0.9209,0.9868,1.0000,1,1,1,0.0000,0.3858,0.6315,0.8157
i_pinard_1_2,illumination,2092,2040,11.55,1.7108,0.9163,0.9914,0.9995,1,1,1,0.0000,0.4297,0.6578,0.8289
i_pinard_1_3,illumination,1059,947,12.25,1.9654,0.8215,0.9093,0.9462,1,1,1,0.0000,0.3449,0.6069,0.8035
i_pinard_1_4,illumination,1102,985,11.67,1.8181,0.8367,0.9093,0.9528,1,1,1,0.0000,0.3940,0.6364,0.8182
i_pinard_1_5,illumination,1242,1116,11.64,1.9631,0.8325,0.9179,0.9605,1,1,1,0.0000,0.3456,0.6074,0.8037
i_pinard_1_6,illumination,1369,1256,11.61,1.8193,0.8561,0.9357,0.9774,1,1,1,0.0000,0.3936,0.6361,0.8181
i_pool_1_2,illumination,529,444,10.79,1.4163,0.7788,0.8847,0.9244,1,1,1,0.0000,0.5279,0.7167,0.8584
i_pool_1_3,illumination,190,128,11.58,2.2158,0.6474,0.7158,0.7421,1,1,1,0.0000,0.2614,0.5568,0.7784
i_pool_1_4,illumination,181,117,10.57,2.5987,0.6022,0.6961,0.7459,1,1,1,0.0000,0.1338,0.4803,0.7401
i_pool_1_5,illumination,328,242,10.50,1.4751,0.6982,0.7866,0.8445,1,1,1,0.0000,0.5083,0.7050,0.8525
i_pool_1_6,illumination,319,243,10.67,1.3533,0.7179,0.7900,0.8339,1,1,1,0.0000,0.5489,0.7293,0.8647
i_porta_1_2,illumination,1778,1686,12.48,1.8869,0.8594,0.9629,0.9854,1,1,1,0.0000,0.3710,0.6226,0.8113
i_porta_1_3,illumination,1802,1719,12.56,1.7691,0.8718,0.9711,0.9922,1,1,1,0.0000,0.4103,0.6462,0.8231
i_porta_1_4,illumination,1236,1153,12.31,1.8889,0.8374,0.9620,0.9854,1,1,1,0.0000,0.3704,0.6222,0.8111
i_porta_1_5,illumination,994,926,11.30,1.8754,0.8280,0.9648,0.9940,1,1,1,0.0000,0.3749,0.6249,0.8125
i_porta_1_6,illumination,611,571,10.92,1.7964,0.8625,0.9640,0.9885,1,1,1,0.0000,0.4012,0.6407,0.8204
i_resort_1_2,illumination,2923,2862,11.76,1.3885,0.9138,0.9932,0.9979,1,1,1,0.0000,0.5372,0.7223,0.8611
i_resort_1_3,illumination,3668,3640,12.06,1.4847,0.9397,0.9975,0.9997,1,1,1,0.0000,0.5051,0.7031,0.8515
i_resort_1_4,illumination,3565,3544,12.00,1.4838,0.9422,0.9980,0.9994,1,1,1,0.0000,0.5054,0.7032,0.8516
i_resort_1_5,illumination,2803,2734,11.79,1.4565,0.9051,0.9864,0.9946,1,1,1,0.0000,0.5145,0.7087,0.8543
i_resort_1_6,illumination,3119,3065,12.10,1.8508,0.8971,0.9891,0.9987,1,1,1,0.0000,0.3831,0.6298,0.8149
i_salon_1_2,illumination,3739,3653,12.34,1.7890,0.8794,0.9821,0.9963,1,1,1,0.0000,0.4037,0.6422,0.8211
i_salon_1_3,illumination,3126,2977,13.44,1.9726,0.8548,0.9619,0.9923,1,1,1,0.0000,0.3425,0.6055,0.8027
i_salon_1_4,illumination,2161,1915,12.42,1.9913,0.7603,0.9061,0.9625,1,1,1,0.0000,0.3362,0.6017,0.8009
i_salon_1_5,illumination,3163,3065,12.70,1.4861,0.8906,0.9911,0.9978,1,1,1,0.0000,0.5046,0.7028,0.8514
i_salon_1_6,illumination,2721,2517,11.99,1.6951,0.8331,0.9474,0.9688,1,1,1,0.0000,0.4350,0.6610,0.8305
i_santuario_1_2,illumination,2675,2547,11.46,1.8948,0.8400,0.9656,0.9869,1,1,1,0.0000,0.3684,0.6210,0.8105
i_santuario_1_3,illumination,2632,2517,11.34,2.0852,0.8226,0.9639,0.9901,1,1,1,0.0000,0.3049,0.5830,0.7915
i_santuario_1_4,illumination,2033,1873,11.54,2.1571,0.7723,0.9341,0.9833,1,1,1,0.0000,0.2810,0.5686,0.7843
i_santuario_1_5,illumination,2476,2349,11.42,1.3758,0.8861,0.9697,0.9891,1,1,1,0.0000,0.5414,0.7248,0.8624
i_santuario_1_6,illumination,1930,1777,11.27,1.6726,0.8342,0.9461,0.9798,1,1,1,0.0000,0.4425,0.6655,0.8327
i_school_1_2,illumination,2735,2701,12.12,1.4279,0.9342,0.9938,0.9996,1,1,1,0.0000,0.5240,0.7144,0.8572
i_school_1_3,illumination,2699,2666,12.73,1.3138,0.9378,0.9937,0.9989,1,1,1,0.0000,0.5621,0.7372,0.8686
i_school_1_4,illumination,1451,1384,11.84,1.6286,0.8663,0.9669,0.9862,1,1,1,0.0000,0.4571,0.6743,0.8371
i_school_1_5,illumination,1753,1677,11.52,1.6724,0.8682,0.9709,0.9937,1,1,1,0.0000,0.4425,0.6655,0.8328
i_school_1_6,illumination,813,735,11.20,2.0152,0.7675,0.9287,0.9594,1,1,1,0.0000,0.3283,0.5970,0.7985
i_ski_1_2,illumination,3091,3056,11.83,1.3286,0.9434,0.9955,0.9997,1,1,1,0.0000,0.5571,0.7343,0.8671
i_ski_1_3,illumination,2843,2786,11.70,1.2717,0.9377,0.9919,0.9982,1,1,1,0.0000,0.5761,0.7457,0.8728
i_ski_1_4,illumination,2608,2503,12.06,1.2271,0.9229,0.9839,0.9939,1,1,1,0.0000,0.5910,0.7546,0.8773
i_ski_1_5,illumination,2409,2296,11.95,1.2274,0.9074,0.9797,0.9913,1,1,1,0.0000,0.5909,0.7545,0.8773
i_ski_1_6,illumination,2176,2045,11.82,1.2223,0.8925,0.9692,0.9885,1,1,1,0.0000,0.5926,0.7555,0.8778
i_smurf_1_2,illumination,2640,2518,12.38,1.6815,0.8742,0.9621,0.9818,1,1,1,0.0000,0.4395,0.6637,0.8318
i_smurf_1_3,illumination,2620,2509,12.76,1.5084,0.8931,0.9748,0.9836,1,1,1,0.0000,0.4972,0.6983,0.8492
i_smurf_1_4,illumination,2501,2386,12.81,1.5989,0.8752,0.9772,0.9844,1,1,1,0.0000,0.4670,0.6802,0.8401
i_smurf_1_5,illumination,2331,2194,11.85,1.6957,0.8649,0.9713,0.9816,1,1,1,0.0000,0.4348,0.6609,0.8304
i_smurf_1_6,illumination,1645,1509,11.51,1.7201,0.8365,0.9422,0.9720,1,1,1,0.0000,0.4266,0.6560,0.8280
i_steps_1_2,illumination,2859,2843,11.69,1.6177,0.9349,0.9990,1.0000,1,1,1,0.0000,0.4608,0.6765,0.8382
i_steps_1_3,illumination,2798,2755,12.00,1.3682,0.9282,0.9893,0.9971,1,1,1,0.0000,0.5439,0.7264,0.8632
i_steps_1_4,illumination,2800,2774,11.85,1.5924,0.9354,0.9943,0.9993,1,1,1,0.0000,0.4692,0.6815,0.8408
i_steps_1_5,illumination,1943,1876,11.38,1.5697,0.8971,0.9789,0.9938,1,1,1,0.0000,0.4768,0.6861,0.8430
i_steps_1_6,illumination,2338,2284,11.77,1.5869,0.9145,0.9889,0.9987,1,1,1,0.0000,0.4710,0.6826,0.8413
i_table_1_2,illumination,2732,2604,12.35,1.1702,0.8931,0.9821,0.9963,1,1,1,0.0000,0.6099,0.7660,0.8830
i_table_1_3,illumination,2102,1895,12.62,1.2595,0.8539,0.9610,0.9862,1,1,1,0.0000,0.5802,0.7481,0.8741
i_table_1_4,illumination,1525,1282,12.24,1.5759,0.7895,0.9102,0.9646,1,1,1,0.0000,0.4747,0.6848,0.8424
i_table_1_5,illumination,1420,1168,12.32,1.3285,0.7634,0.8979,0.9542,1,1,1,0.0000,0.5572,0.7343,0.8671
i_table_1_6,illumination,3032,2971,13.14,1.5841,0.8948,0.9885,0.9977,1,1,1,0.0000,0.4720,0.6832,0.8416
i_tools_1_2,illumination,521,311,12.19,6.6576,0.3839,0.5777,0.7140,0,0,1,0.0000,0.0000,0.0000,0.3342
i_tools_1_3,illumination,1139,1061,11.88,1.3070,0.7814,0.9456,0.9842,1,1,1,0.0000,0.5643,0.7386,0.8693
i_tools_1_4,illumination,647,413,12.11,3.9455,0.3833,0.5672,0.7558,0,1,1,0.0000,0.0000,0.2109,0.6054
i_tools_1_5,illumination,660,572,11.15,2.0070,0.8030,0.9136,0.9500,1,1,1,0.0000,0.3310,0.5986,0.7993
i_tools_1_6,illumination,688,387,11.09,4.7025,0.2137,0.4346,0.7529,0,1,1,0.0000,0.0000,0.0595,0.5297
i_toy_1_2,illumination,3276,3180,14.92,1.6912,0.9063,0.9792,0.9930,1,1,1,0.0000,0.4363,0.6618,0.8309
i_toy_1_3,illumination,2671,2523,13.39,1.6815,0.8701,0.9588,0.9768,1,1,1,0.0000,0.4395,0.6637,0.8318
i_toy_1_4,illumination,1821,1636,12.92,1.8258,0.8138,0.9347,0.9709,1,1,1,0.0000,0.3914,0.6348,0.8174
i_toy_1_5,illumination,980,765,12.31,2.1059,0.7082,0.8449,0.9041,1,1,1,0.0000,0.2980,0.5788,0.7894
i_toy_1_6,illumination,488,270,12.41,2.7440,0.4816,0.6393,0.7152,1,1,1,0.0000,0.0853,0.4512,0.7256
i_troulos_1_2,illumination,1373,1331,10.93,1.5060,0.9213,0.9876,0.9956,1,1,1,0.0000,0.4980,0.6988,0.8494
i_troulos_1_3,illumination,709,596,12.20,3.5946,0.4302,0.7729,0.9492,0,1,1,0.0000,0.0000,0.2811,0.6405
i_troulos_1_4,illumination,1653,1632,11.10,1.4536,0.9135,0.9909,0.9964,1,1,1,0.0000,0.5155,0.7093,0.8546
i_troulos_1_5,illumination,1076,1005,10.89,1.8206,0.8225,0.9610,0.9823,1,1,1,0.0000,0.3931,0.6359,0.8179
i_troulos_1_6,illumination,1079,1014,11.11,2.0536,0.7729,0.9500,0.9954,1,1,1,0.0000,0.3155,0.5893,0.7946
i_veggies_1_2,illumination,2960,2919,12.57,1.2717,0.9453,0.9936,0.9986,1,1,1,0.0000,0.5761,0.7457,0.8728
i_veggies_1_3,illumination,1819,1722,12.30,1.2425,0.9087,0.9714,0.9874,1,1,1,0.0000,0.5858,0.7515,0.8758
i_veggies_1_4,illumination,2340,2231,12.33,1.6655,0.8637,0.9718,0.9957,1,1,1,0.0000,0.4448,0.6669,0.8335
i_veggies_1_5,illumination,1110,953,11.32,1.9648,0.7658,0.9027,0.9604,1,1,1,0.0000,0.3451,0.6070,0.8035
i_veggies_1_6,illumination,942,793,11.32,1.7845,0.7463,0.8800,0.9448,1,1,1,0.0000,0.4052,0.6431,0.8216
i_village_1_2,illumination,1937,1781,28.46,1.6281,0.8369,0.9463,0.9788,1,1,1,0.0000,0.4573,0.6744,0.8372
i_village_1_3,illumination,1863,1671,12.72,1.5431,0.8417,0.9383,0.9764,1,1,1,0.0000,0.4856,0.6914,0.8457
i_village_1_4,illumination,1972,1832,13.60,1.6149,0.8565,0.9625,0.9873,1,1,1,0.0000,0.4617,0.6770,0.8385
i_village_1_5,illumination,3276,3200,12.92,1.4474,0.9038,0.9893,0.9985,1,1,1,0.0000,0.5175,0.7105,0.8553
i_village_1_6,illumination,1654,1495,12.79,1.2795,0.8652,0.9474,0.9734,1,1,1,0.0000,0.5735,0.7441,0.8721
i_yellowtent_1_2,illumination,3449,3386,12.08,1.5171,0.9014,0.9870,0.9986,1,1,1,0.0000,0.4943,0.6966,0.8483
i_yellowtent_1_3,illumination,3014,2901,12.63,1.8379,0.8490,0.9695,0.9960,1,1,1,0.0000,0.3874,0.6324,0.8162
i_yellowtent_1_4,illumination,2077,1834,12.31,2.0618,0.7559,0.8946,0.9567,1,1,1,0.0000,0.3127,0.5876,0.7938
i_yellowtent_1_5,illumination,2334,2137,11.98,1.6614,0.8269,0.9469,0.9756,1,1,1,0.0000,0.4462,0.6677,0.8339
i_yellowtent_1_6,illumination,1822,1565,11.96,1.8844,0.7618,0.8930,0.9341,1,1,1,0.0000,0.3719,0.6231,0.8116
i_zion_1_2,illumination,3433,3385,12.26,1.5394,0.9409,0.9956,1.0000,1,1,1,0.0000,0.4869,0.6921,0.8461
i_zion_1_3,illumination,1971,1848,11.76,1.7199,0.8742,0.9635,0.9873,1,1,1,0.0000,0.4267,0.6560,0.8280
i_zion_1_4,illumination,893,795,11.43,1.8655,0.8197,0.9104,0.9406,1,1,1,0.0000,0.3782,0.6269,0.8135
i_zion_1_5,illumination,600,504,11.25,1.9609,0.7833,0.8667,0.9017,1,1,1,0.0000,0.3464,0.6078,0.8039
i_zion_1_6,illumination,671,592,12.88,1.8984,0.8435,0.9001,0.9121,1,1,1,0.0000,0.3672,0.6203,0.8102
v_abstract_1_2,viewpoint,2345,2148,12.26,1.9954,0.8226,0.9429,0.9770,1,1,1,0.0000,0.3349,0.6009,0.8005
v_abstract_1_3,viewpoint,2094,1895,12.74,2.6054,0.7278,0.9160,0.9690,1,1,1,0.0000,0.1315,0.4789,0.7395
v_abstract_1_4,viewpoint,1174,912,12.10,3.8733,0.6048,0.8390,0.9157,0,1,1,0.0000,0.0000,0.2253,0.6127
v_abstract_1_5,viewpoint,1436,1232,12.18,3.1438,0.7514,0.8990,0.9499,0,1,1,0.0000,0.0000,0.3712,0.6856
v_abstract_1_6,viewpoint,939,763,11.25,3.4953,0.6464,0.8509,0.9127,0,1,1,0.0000,0.0000,0.3009,0.6505
v_adam_1_2,viewpoint,1522,1420,11.61,1.8633,0.8936,0.9783,0.9928,1,1,1,0.0000,0.3789,0.6273,0.8137
v_adam_1_3,viewpoint,1160,1088,11.67,1.3592,0.9103,0.9828,0.9914,1,1,1,0.0000,0.5469,0.7282,0.8641
v_adam_1_4,viewpoint,574,482,11.02,1.8183,0.8049,0.9321,0.9634,1,1,1,0.0000,0.3939,0.6363,0.8182
v_adam_1_5,viewpoint,965,865,11.18,1.4961,0.8632,0.9668,0.9855,1,1,1,0.0000,0.5013,0.7008,0.8504
v_adam_1_6,viewpoint,931,813,11.09,1.9559,0.7959,0.9420,0.9796,1,1,1,0.0000,0.3480,0.6088,0.8044
v_apprentices_1_2,viewpoint,2602,2544,29.61,0.8685,0.9497,0.9954,0.9992,1,1,1,0.1315,0.7105,0.8263,0.9131
v_apprentices_1_3,viewpoint,2310,2178,13.42,2.6492,0.7758,0.9390,0.9879,1,1,1,0.0000,0.1169,0.4702,0.7351
v_apprentices_1_4,viewpoint,1751,1586,13.38,3.1260,0.7282,0.9195,0.9709,0,1,1,0.0000,0.0000,0.3748,0.6874
v_apprentices_1_5,viewpoint,1215,1033,12.86,3.2647,0.6881,0.9004,0.9597,0,1,1,0.0000,0.0000,0.3471,0.6735
v_apprentices_1_6,viewpoint,883,770,12.63,3.2077,0.7814,0.9253,0.9638,0,1,1,0.0000,0.0000,0.3585,0.6792
v_azzola_1_2,viewpoint,2120,1875,21.03,3.2515,0.6854,0.9217,0.9646,0,1,1,0.0000,0.0000,0.3497,0.6748
v_azzola_1_3,viewpoint,1490,1146,11.86,2.5910,0.5403,0.8705,0.9537,1,1,1,0.0000,0.1363,0.4818,0.7409
v_azzola_1_4,viewpoint,1950,1795,11.78,1.2805,0.8979,0.9744,0.9872,1,1,1,0.0000,0.5732,0.7439,0.8720
v_azzola_1_5,viewpoint,1214,985,11.85,2.7455,0.6656,0.8987,0.9382,1,1,1,0.0000,0.0848,0.4509,0.7255
v_azzola_1_6,viewpoint,620,435,11.91,4.3041,0.4242,0.7581,0.8355,0,1,1,0.0000,0.0000,0.1392,0.5696
v_bark_1_2,viewpoint,713,544,12.64,2.5951,0.5147,0.8149,0.8583,1,1,1,0.0000,0.1350,0.4810,0.7405
v_bark_1_3,viewpoint,195,8,12.64,1640.8775,0.0000,0.0000,0.0000,0,0,0,0.0000,0.0000,0.0000,0.0000
v_bark_1_4,viewpoint,224,6,12.75,616.6725,0.0000,0.0000,0.0000,0,0,0,0.0000,0.0000,0.0000,0.0000
v_bark_1_5,viewpoint,245,49,12.93,7.5083,0.1878,0.2245,0.2327,0,0,0,0.0000,0.0000,0.0000,0.2492
v_bark_1_6,viewpoint,174,9,12.17,1686.9350,0.0000,0.0000,0.0000,0,0,0,0.0000,0.0000,0.0000,0.0000
v_bees_1_2,viewpoint,2614,2427,13.46,2.3093,0.7510,0.9464,0.9832,1,1,1,0.0000,0.2302,0.5381,0.7691
v_bees_1_3,viewpoint,2713,2559,14.20,1.8149,0.8879,0.9701,0.9878,1,1,1,0.0000,0.3950,0.6370,0.8185
v_bees_1_4,viewpoint,2278,2142,13.24,1.3674,0.9241,0.9842,0.9939,1,1,1,0.0000,0.5442,0.7265,0.8633
v_bees_1_5,viewpoint,1530,1331,12.30,2.4272,0.7843,0.9229,0.9680,1,1,1,0.0000,0.1909,0.5146,0.7573
v_bees_1_6,viewpoint,1498,1323,12.48,2.1492,0.7377,0.9312,0.9786,1,1,1,0.0000,0.2836,0.5702,0.7851
v_beyus_1_2,viewpoint,372,277,20.23,3.4436,0.6828,0.8414,0.9274,0,1,1,0.0000,0.0000,0.3113,0.6556
v_beyus_1_3,viewpoint,370,259,13.25,5.3404,0.5297,0.7595,0.8432,0,0,1,0.0000,0.0000,0.0000,0.4660
v_beyus_1_4,viewpoint,570,495,11.79,1.3127,0.8614,0.9509,0.9860,1,1,1,0.0000,0.5624,0.7375,0.8687
v_beyus_1_5,viewpoint,253,175,11.22,2.5418,0.5178,0.7115,0.8656,1,1,1,0.0000,0.1527,0.4916,0.7458
v_beyus_1_6,viewpoint,551,437,11.08,2.6972,0.7441,0.8838,0.9528,1,1,1,0.0000,0.1009,0.4606,0.7303
v_bip_1_2,viewpoint,922,815,12.16,0.7192,0.8623,0.9371,0.9610,1,1,1,0.2808,0.7603,0.8562,0.9281
v_bip_1_3,viewpoint,652,529,13.20,0.9207,0.8083,0.9248,0.9433,1,1,1,0.0793,0.6931,0.8159,0.9079
v_bip_1_4,viewpoint,711,602,11.43,0.8431,0.8383,0.9353,0.9480,1,1,1,0.1569,0.7190,0.8314,0.9157
v_bip_1_5,viewpoint,493,439,11.52,2.0989,0.8702,0.9148,0.9189,1,1,1,0.0000,0.3004,0.5802,0.7901
v_bip_1_6,viewpoint,348,278,11.07,0.8102,0.8017,0.8046,0.8075,1,1,1,0.1898,0.7299,0.8380,0.9190
v_bird_1_2,viewpoint,1008,906,21.76,77.9086,0.0000,0.0000,0.0000,0,0,0,0.0000,0.0000,0.0000,0.0000
v_bird_1_3,viewpoint,1016,873,12.11,87.3001,0.0000,0.0010,0.0010,0,0,0,0.0000,0.0000,0.0000,0.0000
v_bird_1_4,viewpoint,1194,982,12.46,97.6818,0.0000,0.0000,0.0000,0,0,0,0.0000,0.0000,0.0000,0.0000
v_bird_1_5,viewpoint,959,702,11.95,82.5354,0.0000,0.0000,0.0000,0,0,0,0.0000,0.0000,0.0000,0.0000
v_bird_1_6,viewpoint,336,176,12.63,195.8365,0.0000,0.0000,0.0000,0,0,0,0.0000,0.0000,0.0000,0.0000
v_birdwoman_1_2,viewpoint,382,298,11.82,45.7903,0.0000,0.0000,0.0000,0,0,0,0.0000,0.0000,0.0000,0.0000
v_birdwoman_1_3,viewpoint,277,185,11.03,56.9469,0.0000,0.0000,0.0000,0,0,0,0.0000,0.0000,0.0000,0.0000
v_birdwoman_1_4,viewpoint,485,348,11.80,50.0070,0.0000,0.0021,0.0062,0,0,0,0.0000,0.0000,0.0000,0.0000
v_birdwoman_1_5,viewpoint,1250,1099,11.65,52.0942,0.0000,0.0000,0.0000,0,0,0,0.0000,0.0000,0.0000,0.0000
v_birdwoman_1_6,viewpoint,523,411,11.15,52.9384,0.0000,0.0000,0.0000,0,0,0,0.0000,0.0000,0.0000,0.0000
v_blueprint_1_2,viewpoint,2063,1914,13.11,1.9342,0.8778,0.9617,0.9879,1,1,1,0.0000,0.3553,0.6132,0.8066
v_blueprint_1_3,viewpoint,1410,1202,13.84,2.6631,0.6752,0.9121,0.9638,1,1,1,0.0000,0.1123,0.4674,0.7337
v_blueprint_1_4,viewpoint,1784,1634,24.85,1.4233,0.8885,0.9731,0.9922,1,1,1,0.0000,0.5256,0.7153,0.8577
v_blueprint_1_5,viewpoint,1070,937,12.18,2.2501,0.8037,0.9318,0.9551,1,1,1,0.0000,0.2500,0.5500,0.7750
v_blueprint_1_6,viewpoint,734,611,11.15,3.1295,0.7302,0.8678,0.9251,0,1,1,0.0000,0.0000,0.3741,0.6871
v_boat_1_2,viewpoint,2131,1988,20.54,1.5976,0.8531,0.9723,0.9925,1,1,1,0.0000,0.4675,0.6805,0.8402
v_boat_1_3,viewpoint,428,271,11.36,3.7790,0.3061,0.6589,0.8178,0,1,1,0.0000,0.0000,0.2442,0.6221
v_boat_1_4,viewpoint,101,7,11.38,2358.2867,0.0099,0.0594,0.0891,0,0,0,0.0000,0.0000,0.0000,0.0000
v_boat_1_5,viewpoint,140,7,11.41,450.8476,0.0000,0.0000,0.0071,0,0,0,0.0000,0.0000,0.0000,0.0000
v_boat_1_6,viewpoint,424,351,11.10,0.9276,0.8420,0.8514,0.8538,1,1,1,0.0724,0.6908,0.8145,0.9072
v_bricks_1_2,viewpoint,2509,2412,11.71,34.8972,0.0000,0.0080,0.0271,0,0,0,0.0000,0.0000,0.0000,0.0000
v_bricks_1_3,viewpoint,2181,2057,12.49,33.6116,0.0000,0.0060,0.0266,0,0,0,0.0000,0.0000,0.0000,0.0000
v_bricks_1_4,viewpoint,1703,1588,11.74,32.2453,0.0000,0.0012,0.0088,0,0,0,0.0000,0.0000,0.0000,0.0000
v_bricks_1_5,viewpoint,1101,975,12.07,29.0361,0.0000,0.0027,0.0091,0,0,0,0.0000,0.0000,0.0000,0.0000
v_bricks_1_6,viewpoint,530,400,11.01,28.4355,0.0000,0.0019,0.0038,0,0,0,0.0000,0.0000,0.0000,0.0000
v_busstop_1_2,viewpoint,2108,1952,11.53,1.7570,0.8620,0.9639,0.9910,1,1,1,0.0000,0.4143,0.6486,0.8243
v_busstop_1_3,viewpoint,1412,1210,11.45,3.0652,0.7188,0.8924,0.9327,0,1,1,0.0000,0.0000,0.3870,0.6935
v_busstop_1_4,viewpoint,1434,1238,11.48,2.6403,0.7699,0.9045,0.9603,1,1,1,0.0000,0.1199,0.4719,0.7360
v_busstop_1_5,viewpoint,1405,1235,11.86,1.4123,0.8448,0.9594,0.9836,1,1,1,0.0000,0.5292,0.7175,0.8588
v_busstop_1_6,viewpoint,2024,1883,12.38,1.8610,0.8715,0.9585,0.9867,1,1,1,0.0000,0.3797,0.6278,0.8139
v_calder_1_2,viewpoint,903,789,11.99,1.1824,0.8560,0.9557,0.9734,1,1,1,0.0000,0.6059,0.7635,0.8818
v_calder_1_3,viewpoint,1832,1703,12.67,2.4197,0.8553,0.9607,0.9847,1,1,1,0.0000,0.1934,0.5161,0.7580
v_calder_1_4,viewpoint,387,291,11.82,1.8818,0.6176,0.8320,0.8889,1,1,1,0.0000,0.3727,0.6236,0.8118
v_calder_1_5,viewpoint,446,362,11.81,1.9873,0.7511,0.8700,0.8857,1,1,1,0.0000,0.3376,0.6025,0.8013
v_calder_1_6,viewpoint,209,124,12.43,3.6546,0.3971,0.6459,0.6938,0,1,1,0.0000,0.0000,0.2691,0.6345
v_cartooncity_1_2,viewpoint,2376,2257,12.90,62.5883,0.0000,0.0004,0.0025,0,0,0,0.0000,0.0000,0.0000,0.0000
v_cartooncity_1_3,viewpoint,914,691,12.51,70.8262,0.0000,0.0000,0.0000,0,0,0,0.0000,0.0000,0.0000,0.0000
v_cartooncity_1_4,viewpoint,2159,1994,13.14,72.5991,0.0000,0.0000,0.0000,0,0,0,0.0000,0.0000,0.0000,0.0000
v_cartooncity_1_5,viewpoint,802,617,12.07,74.1236,0.0000,0.0000,0.0012,0,0,0,0.0000,0.0000,0.0000,0.0000
v_cartooncity_1_6,viewpoint,841,623,12.56,75.0065,0.0000,0.0000,0.0000,0,0,0,0.0000,0.0000,0.0000,0.0000
v_charing_1_2,viewpoint,450,321,12.48,9.3181,0.5733,0.8044,0.8689,0,0,0,0.0000,0.0000,0.0000,0.0682
v_charing_1_3,viewpoint,232,102,13.43,69.3363,0.3750,0.6767,0.7974,0,0,0,0.0000,0.0000,0.0000,0.0000
v_charing_1_4,viewpoint,455,349,12.76,7.6393,0.2725,0.6945,0.8813,0,0,0,0.0000,0.0000,0.0000,0.2361
v_charing_1_5,viewpoint,397,280,12.44,44.4928,0.1008,0.3652,0.6826,0,0,0,0.0000,0.0000,0.0000,0.0000
v_charing_1_6,viewpoint,312,201,11.53,307.5800,0.0417,0.2468,0.5801,0,0,0,0.0000,0.0000,0.0000,0.0000
v_churchill_1_2,viewpoint,1469,1239,11.67,3.5438,0.7155,0.9033,0.9571,0,1,1,0.0000,0.0000,0.2912,0.6456
v_churchill_1_3,viewpoint,1127,869,11.96,7.0386,0.6016,0.8545,0.9290,0,0,0,0.0000,0.0000,0.0000,0.2961
v_churchill_1_4,viewpoint,1045,800,11.69,4.2719,0.4478,0.7426,0.8842,0,1,1,0.0000,0.0000,0.1456,0.5728
v_churchill_1_5,viewpoint,2114,2043,11.61,1.5959,0.9248,0.9839,0.9924,1,1,1,0.0000,0.4680,0.6808,0.8404
v_churchill_1_6,viewpoint,635,433,11.61,5.8982,0.3654,0.6425,0.8173,0,0,1,0.0000,0.0000,0.0000,0.4102
v_circus_1_2,viewpoint,610,537,11.40,0.6607,0.8820,0.9197,0.9295,1,1,1,0.3393,0.7798,0.8679,0.9339
v_circus_1_3,viewpoint,582,449,11.73,3.3280,0.6701,0.8402,0.8746,0,1,1,0.0000,0.0000,0.3344,0.6672
v_circus_1_4,viewpoint,433,298,11.40,3.6047,0.5774,0.7806,0.8268,0,1,1,0.0000,0.0000,0.2791,0.6395
v_circus_1_5,viewpoint,719,606,11.22,2.0324,0.8122,0.9040,0.9249,1,1,1,0.0000,0.3225,0.5935,0.7968
v_circus_1_6,viewpoint,514,387,11.45,2.5228,0.7140,0.8521,0.8911,1,1,1,0.0000,0.1591,0.4954,0.7477
v_coffeehouse_1_2,viewpoint,1485,1318,11.90,1.7704,0.8586,0.9461,0.9663,1,1,1,0.0000,0.4099,0.6459,0.8230
v_coffeehouse_1_3,viewpoint,1401,1251,11.54,1.5934,0.8687,0.9300,0.9565,1,1,1,0.0000,0.4689,0.6813,0.8407
v_coffeehouse_1_4,viewpoint,1041,824,11.43,3.0193,0.6868,0.8713,0.9318,0,1,1,0.0000,0.0000,0.3961,0.6981
v_coffeehouse_1_5,viewpoint,1126,988,11.30,1.0199,0.8650,0.9387,0.9609,1,1,1,0.0000,0.6600,0.7960,0.8980
v_coffeehouse_1_6,viewpoint,748,573,10.76,4.0686,0.6310,0.8342,0.8850,0,1,1,0.0000,0.0000,0.1863,0.5931
v_colors_1_2,viewpoint,517,377,11.40,2.6951,0.5358,0.7524,0.8433,1,1,1,0.0000,0.1016,0.4610,0.7305
v_colors_1_3,viewpoint,427,263,12.08,3.8771,0.4637,0.6511,0.7635,0,1,1,0.0000,0.0000,0.2246,0.6123
v_colors_1_4,viewpoint,114,29,11.42,21.4888,0.1842,0.2632,0.2807,0,0,0,0.0000,0.0000,0.0000,0.0000
v_colors_1_5,viewpoint,99,30,10.83,22.1834,0.1616,0.2828,0.3434,0,0,0,0.0000,0.0000,0.0000,0.0000
v_colors_1_6,viewpoint,80,13,11.25,252.5244,0.0625,0.1500,0.1875,0,0,0,0.0000,0.0000,0.0000,0.0000
v_courses_1_2,viewpoint,2389,2212,12.11,2.6300,0.8070,0.9447,0.9845,1,1,1,0.0000,0.1233,0.4740,0.7370
v_courses_1_3,viewpoint,1415,1159,12.02,3.8525,0.6346,0.8820,0.9541,0,1,1,0.0000,0.0000,0.2295,0.6147
v_courses_1_4,viewpoint,1492,1274,11.95,2.9289,0.7299,0.9075,0.9678,1,1,1,0.0000,0.0237,0.4142,0.7071
v_courses_1_5,viewpoint,857,635,11.42,5.3253,0.4224,0.8273,0.9195,0,0,1,0.0000,0.0000,0.0000,0.4675
v_courses_1_6,viewpoint,715,491,11.50,11.8761,0.3315,0.6769,0.8671,0,0,0,0.0000,0.0000,0.0000,0.0000
v_dirtywall_1_2,viewpoint,1904,1785,28.53,1.6292,0.9070,0.9790,0.9890,1,1,1,0.0000,0.4569,0.6742,0.8371
v_dirtywall_1_3,viewpoint,1559,1463,11.25,1.2214,0.9217,0.9750,0.9872,1,1,1,0.0000,0.5929,0.7557,0.8779
v_dirtywall_1_4,viewpoint,1040,884,10.86,3.0545,0.7606,0.9029,0.9404,0,1,1,0.0000,0.0000,0.3891,0.6945
v_dirtywall_1_5,viewpoint,1329,1122,10.84,3.1351,0.6930,0.8954,0.9451,0,1,1,0.0000,0.0000,0.3730,0.6865
v_dirtywall_1_6,viewpoint,636,496,10.74,2.5150,0.5959,0.8428,0.9057,1,1,1,0.0000,0.1617,0.4970,0.7485
v_dogman_1_2,viewpoint,1502,1323,11.25,4.3439,0.7344,0.9035,0.9534,0,1,1,0.0000,0.0000,0.1312,0.5656
v_dogman_1_3,viewpoint,1670,1522,11.09,0.8828,0.9084,0.9551,0.9677,1,1,1,0.1172,0.7057,0.8234,0.9117
v_dogman_1_4,viewpoint,644,498,11.16,5.2670,0.4457,0.7997,0.8898,0,0,1,0.0000,0.0000,0.0000,0.4733
v_dogman_1_5,viewpoint,1071,850,11.28,5.5120,0.7077,0.8581,0.9290,0,0,1,0.0000,0.0000,0.0000,0.4488
v_dogman_1_6,viewpoint,395,262,10.48,58.7621,0.2886,0.5544,0.7316,0,0,0,0.0000,0.0000,0.0000,0.0000
v_eastsouth_1_2,viewpoint,2262,2194,11.78,0.5377,0.9651,0.9916,0.9934,1,1,1,0.4623,0.8208,0.8925,0.9462
v_eastsouth_1_3,viewpoint,426,275,12.46,2.6271,0.4014,0.7113,0.8263,1,1,1,0.0000,0.1243,0.4746,0.7373
v_eastsouth_1_4,viewpoint,137,9,11.67,209.8522,0.0292,0.0365,0.0365,0,0,0,0.0000,0.0000,0.0000,0.0000
v_eastsouth_1_5,viewpoint,262,184,11.56,3.4892,0.2824,0.6679,0.7595,0,1,1,0.0000,0.0000,0.3022,0.6511
v_eastsouth_1_6,viewpoint,336,261,11.23,0.9979,0.7708,0.7887,0.8006,1,1,1,0.0021,0.6674,0.8004,0.9002
v_feast_1_2,viewpoint,1190,1060,11.64,0.5183,0.8807,0.9706,0.9815,1,1,1,0.4817,0.8272,0.8963,0.9482
v_feast_1_3,viewpoint,1735,1563,11.77,1.2656,0.8669,0.9643,0.9798,1,1,1,0.0000,0.5781,0.7469,0.8734
v_feast_1_4,viewpoint,866,741,11.42,2.3367,0.7517,0.9226,0.9353,1,1,1,0.0000,0.2211,0.5327,0.7663
v_feast_1_5,viewpoint,1453,1271,11.73,2.3610,0.7584,0.9229,0.9704,1,1,1,0.0000,0.2130,0.5278,0.7639
v_feast_1_6,viewpoint,1062,907,11.49,2.2439,0.7646,0.9228,0.9605,1,1,1,0.0000,0.2520,0.5512,0.7756
v_fest_1_2,viewpoint,2211,1999,11.92,2.8381,0.6766,0.9064,0.9638,1,1,1,0.0000,0.0540,0.4324,0.7162
v_fest_1_3,viewpoint,1235,972,11.74,3.3266,0.5466,0.8397,0.9263,0,1,1,0.0000,0.0000,0.3347,0.6673
v_fest_1_4,viewpoint,1376,1181,11.34,2.8037,0.6512,0.8743,0.9222,1,1,1,0.0000,0.0654,0.4393,0.7196
v_fest_1_5,viewpoint,1119,911,11.37,3.7351,0.6282,0.8454,0.9151,0,1,1,0.0000,0.0000,0.2530,0.6265
v_fest_1_6,viewpoint,875,678,11.92,4.1049,0.5143,0.8091,0.8960,0,1,1,0.0000,0.0000,0.1790,0.5895
v_gardens_1_2,viewpoint,1576,1317,12.33,4.6254,0.6637,0.8636,0.9302,0,1,1,0.0000,0.0000,0.0749,0.5375
v_gardens_1_3,viewpoint,626,470,12.47,5.5171,0.3307,0.6869,0.8275,0,0,1,0.0000,0.0000,0.0000,0.4483
v_gardens_1_4,viewpoint,2174,1968,12.95,3.2183,0.7351,0.9163,0.9623,0,1,1,0.0000,0.0000,0.3563,0.6782
v_gardens_1_5,viewpoint,888,700,12.17,6.4079,0.3941,0.7590,0.8716,0,0,1,0.0000,0.0000,0.0000,0.3592
v_gardens_1_6,viewpoint,1507,1287,12.83,3.8989,0.3364,0.8354,0.9018,0,1,1,0.0000,0.0000,0.2202,0.6101
v_grace_1_2,viewpoint,1556,1394,12.05,2.2862,0.7442,0.9267,0.9762,1,1,1,0.0000,0.2379,0.5428,0.7714
v_grace_1_3,viewpoint,1042,898,12.58,3.3334,0.6795,0.9117,0.9549,0,1,1,0.0000,0.0000,0.3333,0.6667
v_grace_1_4,viewpoint,753,636,28.71,3.0764,0.6839,0.8871,0.9177,0,1,1,0.0000,0.0000,0.3847,0.6924
v_grace_1_5,viewpoint,474,360,12.90,1.9797,0.5211,0.8186,0.8650,1,1,1,0.0000,0.3401,0.6041,0.8020
v_grace_1_6,viewpoint,278,145,23.75,2.9362,0.2482,0.4712,0.6187,1,1,1,0.0000,0.0213,0.4128,0.7064
v_graffiti_1_2,viewpoint,1292,1135,13.58,2.0295,0.8173,0.9396,0.9698,1,1,1,0.0000,0.3235,0.5941,0.7970
v_graffiti_1_3,viewpoint,713,516,12.87,4.4417,0.4586,0.7602,0.8555,0,1,1,0.0000,0.0000,0.1117,0.5558
v_graffiti_1_4,viewpoint,241,88,12.34,5.7784,0.2822,0.5021,0.5685,0,0,1,0.0000,0.0000,0.0000,0.4222
v_graffiti_1_5,viewpoint,342,199,12.27,2.8873,0.4240,0.6579,0.7865,1,1,1,0.0000,0.0376,0.4225,0.7113
v_graffiti_1_6,viewpoint,121,9,12.77,333.8922,0.0083,0.0496,0.1322,0,0,0,0.0000,0.0000,0.0000,0.0000
v_home_1_2,viewpoint,958,861,12.38,2.0932,0.8351,0.9405,0.9676,1,1,1,0.0000,0.3023,0.5814,0.7907
v_home_1_3,viewpoint,801,672,11.88,4.1234,0.5793,0.8477,0.9014,0,1,1,0.0000,0.0000,0.1753,0.5877
v_home_1_4,viewpoint,1020,931,11.86,1.5985,0.9088,0.9676,0.9794,1,1,1,0.0000,0.4672,0.6803,0.8401
v_home_1_5,viewpoint,770,638,11.70,2.6263,0.6753,0.9000,0.9286,1,1,1,0.0000,0.1246,0.4747,0.7374
v_home_1_6,viewpoint,207,98,11.75,3.2476,0.2367,0.5169,0.7150,0,1,1,0.0000,0.0000,0.3505,0.6752
v_laptop_1_2,viewpoint,1347,1289,13.22,1.2245,0.9198,0.9814,0.9978,1,1,1,0.0000,0.5918,0.7551,0.8776
v_laptop_1_3,viewpoint,280,204,12.14,2.9786,0.5250,0.8036,0.8786,1,1,1,0.0000,0.0071,0.4043,0.7021
v_laptop_1_4,viewpoint,76,9,12.62,84.4547,0.0921,0.1974,0.2500,0,0,0,0.0000,0.0000,0.0000,0.0000
v_laptop_1_5,viewpoint,62,5,12.18,3030.1335,0.0161,0.0323,0.0323,0,0,0,0.0000,0.0000,0.0000,0.0000
v_laptop_1_6,viewpoint,56,6,12.76,787.0846,0.0357,0.0357,0.0536,0,0,0,0.0000,0.0000,0.0000,0.0000
v_london_1_2,viewpoint,2216,2055,13.17,2.0078,0.7960,0.9355,0.9734,1,1,1,0.0000,0.3307,0.5984,0.7992
v_london_1_3,viewpoint,1896,1739,12.58,1.9730,0.7658,0.9251,0.9662,1,1,1,0.0000,0.3423,0.6054,0.8027
v_london_1_4,viewpoint,1450,1222,12.72,4.9197,0.6166,0.8414,0.9241,0,1,1,0.0000,0.0000,0.0161,0.5080
v_london_1_5,viewpoint,2370,2160,12.21,2.4836,0.7515,0.9198,0.9713,1,1,1,0.0000,0.1721,0.5033,0.7516
v_london_1_6,viewpoint,2337,2103,12.99,2.1934,0.8027,0.9217,0.9645,1,1,1,0.0000,0.2689,0.5613,0.7807
v_machines_1_2,viewpoint,1989,1757,11.90,2.7346,0.7471,0.9196,0.9643,1,1,1,0.0000,0.0885,0.4531,0.7265
v_machines_1_3,viewpoint,1021,809,11.63,4.8649,0.4545,0.7924,0.8786,0,1,1,0.0000,0.0000,0.0270,0.5135
v_machines_1_4,viewpoint,1168,998,11.10,1.2342,0.8382,0.9486,0.9752,1,1,1,0.0000,0.5886,0.7532,0.8766
v_machines_1_5,viewpoint,658,544,11.07,3.5521,0.6307,0.8511,0.9362,0,1,1,0.0000,0.0000,0.2896,0.6448
v_machines_1_6,viewpoint,943,826,11.50,0.6046,0.8547,0.9406,0.9756,1,1,1,0.3954,0.7985,0.8791,0.9395
v_man_1_2,viewpoint,1676,1479,11.79,3.4456,0.7285,0.9129,0.9678,0,1,1,0.0000,0.0000,0.3109,0.6554
v_man_1_3,viewpoint,1008,830,12.85,4.3390,0.5883,0.8175,0.9058,0,1,1,0.0000,0.0000,0.1322,0.5661
v_man_1_4,viewpoint,767,602,11.20,3.1510,0.5346,0.8136,0.9035,0,1,1,0.0000,0.0000,0.3698,0.6849
v_man_1_5,viewpoint,1328,1195,11.90,2.5547,0.8223,0.9488,0.9782,1,1,1,0.0000,0.1484,0.4891,0.7445
v_man_1_6,viewpoint,1405,1168,11.47,3.2775,0.7032,0.8847,0.9573,0,1,1,0.0000,0.0000,0.3445,0.6722
v_maskedman_1_2,viewpoint,998,911,10.68,1.4613,0.8727,0.9619,0.9749,1,1,1,0.0000,0.5129,0.7077,0.8539
v_maskedman_1_3,viewpoint,688,610,10.64,1.9810,0.8706,0.9462,0.9549,1,1,1,0.0000,0.3397,0.6038,0.8019
v_maskedman_1_4,viewpoint,1195,1062,11.27,5.4508,0.6109,0.8695,0.9431,0,0,1,0.0000,0.0000,0.0000,0.4549
v_maskedman_1_5,viewpoint,1349,1242,11.23,3.8649,0.7391,0.9362,0.9778,0,1,1,0.0000,0.0000,0.2270,0.6135
v_maskedman_1_6,viewpoint,276,216,11.40,6.0722,0.4167,0.7246,0.8478,0,0,1,0.0000,0.0000,0.0000,0.3928
v_pomegranate_1_2,viewpoint,1974,1795,11.77,1.7227,0.8273,0.9610,0.9878,1,1,1,0.0000,0.4258,0.6555,0.8277
v_pomegranate_1_3,viewpoint,1368,1200,12.28,2.8854,0.7610,0.9371,0.9766,1,1,1,0.0000,0.0382,0.4229,0.7115
v_pomegranate_1_4,viewpoint,1207,1107,11.51,0.9662,0.9072,0.9718,0.9876,1,1,1,0.0338,0.6779,0.8068,0.9034
v_pomegranate_1_5,viewpoint,1414,1264,11.97,1.3609,0.8755,0.9583,0.9837,1,1,1,0.0000,0.5464,0.7278,0.8639
v_pomegranate_1_6,viewpoint,1458,1363,11.79,1.6760,0.8841,0.9822,0.9938,1,1,1,0.0000,0.4413,0.6648,0.8324
v_posters_1_2,viewpoint,1003,853,20.39,115.8366,0.0000,0.0000,0.0000,0,0,0,0.0000,0.0000,0.0000,0.0000
v_posters_1_3,viewpoint,1582,1392,12.47,120.4566,0.0000,0.0000,0.0000,0,0,0,0.0000,0.0000,0.0000,0.0000
v_posters_1_4,viewpoint,1182,983,13.48,113.2394,0.0000,0.0000,0.0000,0,0,0,0.0000,0.0000,0.0000,0.0000
v_posters_1_5,viewpoint,883,667,13.43,126.5711,0.0000,0.0000,0.0000,0,0,0,0.0000,0.0000,0.0000,0.0000
v_posters_1_6,viewpoint,1005,756,13.57,144.1530,0.0000,0.0000,0.0000,0,0,0,0.0000,0.0000,0.0000,0.0000
v_samples_1_2,viewpoint,1933,1837,13.29,68.6907,0.0000,0.0000,0.0000,0,0,0,0.0000,0.0000,0.0000,0.0000
v_samples_1_3,viewpoint,2081,1956,13.47,73.8586,0.0000,0.0000,0.0005,0,0,0,0.0000,0.0000,0.0000,0.0000
v_samples_1_4,viewpoint,1467,1289,13.03,72.6048,0.0000,0.0014,0.0082,0,0,0,0.0000,0.0000,0.0000,0.0000
v_samples_1_5,viewpoint,1716,1553,12.61,81.9086,0.0000,0.0000,0.0006,0,0,0,0.0000,0.0000,0.0000,0.0000
v_samples_1_6,viewpoint,1290,1118,13.47,67.9315,0.0000,0.0000,0.0085,0,0,0,0.0000,0.0000,0.0000,0.0000
v_soldiers_1_2,viewpoint,1815,1654,11.70,2.1967,0.8083,0.9466,0.9818,1,1,1,0.0000,0.2678,0.5607,0.7803
v_soldiers_1_3,viewpoint,1023,854,11.03,5.5845,0.5679,0.8162,0.8974,0,0,1,0.0000,0.0000,0.0000,0.4416
v_soldiers_1_4,viewpoint,682,515,11.24,5.8419,0.5132,0.7669,0.8314,0,0,1,0.0000,0.0000,0.0000,0.4158
v_soldiers_1_5,viewpoint,365,208,11.03,7.1185,0.3973,0.5836,0.6384,0,0,0,0.0000,0.0000,0.0000,0.2881
v_soldiers_1_6,viewpoint,1306,1140,11.39,99.6966,0.0000,0.0000,0.0000,0,0,0,0.0000,0.0000,0.0000,0.0000
v_strand_1_2,viewpoint,2441,2302,12.31,0.9418,0.9123,0.9779,0.9951,1,1,1,0.0582,0.6861,0.8116,0.9058
v_strand_1_3,viewpoint,1469,1306,12.55,2.8553,0.7039,0.9224,0.9803,1,1,1,0.0000,0.0482,0.4289,0.7145
v_strand_1_4,viewpoint,1563,1390,11.69,3.6206,0.7492,0.9117,0.9680,0,1,1,0.0000,0.0000,0.2759,0.6379
v_strand_1_5,viewpoint,1393,1252,11.56,2.9532,0.7495,0.9253,0.9770,1,1,1,0.0000,0.0156,0.4094,0.7047
v_strand_1_6,viewpoint,1029,890,12.49,4.6596,0.6472,0.8416,0.9397,0,1,1,0.0000,0.0000,0.0681,0.5340
v_sunseason_1_2,viewpoint,2893,2740,11.95,1.5540,0.8635,0.9692,0.9882,1,1,1,0.0000,0.4820,0.6892,0.8446
v_sunseason_1_3,viewpoint,2178,1919,11.97,2.4657,0.7782,0.8981,0.9339,1,1,1,0.0000,0.1781,0.5069,0.7534
v_sunseason_1_4,viewpoint,1158,874,11.74,3.5602,0.6235,0.7927,0.8333,0,1,1,0.0000,0.0000,0.2880,0.6440
v_sunseason_1_5,viewpoint,1002,789,11.27,3.6637,0.5918,0.8104,0.8693,0,1,1,0.0000,0.0000,0.2673,0.6336
v_sunseason_1_6,viewpoint,739,518,11.01,4.4254,0.4696,0.7091,0.7686,0,1,1,0.0000,0.0000,0.1149,0.5575
v_tabletop_1_2,viewpoint,1357,1189,11.68,2.6897,0.7568,0.8954,0.9278,1,1,1,0.0000,0.1034,0.4621,0.7310
v_tabletop_1_3,viewpoint,411,175,11.67,2.2348,0.3406,0.4842,0.5572,1,1,1,0.0000,0.2551,0.5530,0.7765
v_tabletop_1_4,viewpoint,443,250,11.53,2.9099,0.4763,0.6524,0.6930,1,1,1,0.0000,0.0300,0.4180,0.7090
v_tabletop_1_5,viewpoint,448,258,11.06,3.1769,0.4308,0.6272,0.6652,0,1,1,0.0000,0.0000,0.3646,0.6823
v_tabletop_1_6,viewpoint,481,281,11.04,3.7657,0.4636,0.6320,0.6985,0,1,1,0.0000,0.0000,0.2469,0.6234
v_tempera_1_2,viewpoint,1251,1179,11.49,0.7924,0.9273,0.9792,0.9888,1,1,1,0.2076,0.7359,0.8415,0.9208
v_tempera_1_3,viewpoint,1504,1369,12.32,2.2196,0.8404,0.9528,0.9781,1,1,1,0.0000,0.2601,0.5561,0.7780
v_tempera_1_4,viewpoint,1038,937,11.40,1.1180,0.8844,0.9644,0.9846,1,1,1,0.0000,0.6273,0.7764,0.8882
v_tempera_1_5,viewpoint,1001,862,11.46,2.8390,0.7522,0.9191,0.9700,1,1,1,0.0000,0.0537,0.4322,0.7161
v_tempera_1_6,viewpoint,557,476,11.11,3.0478,0.4973,0.8402,0.9048,0,1,1,0.0000,0.0000,0.3904,0.6952
v_there_1_2,viewpoint,849,759,12.02,3.1867,0.7809,0.9552,0.9788,0,1,1,0.0000,0.0000,0.3627,0.6813
v_there_1_3,viewpoint,191,136,11.61,3.4930,0.4607,0.7382,0.7906,0,1,1,0.0000,0.0000,0.3014,0.6507
v_there_1_4,viewpoint,102,46,11.11,2.4859,0.2843,0.4804,0.5098,1,1,1,0.0000,0.1714,0.5028,0.7514
v_there_1_5,viewpoint,67,13,11.30,9.5419,0.1343,0.1940,0.2388,0,0,0,0.0000,0.0000,0.0000,0.0458
v_there_1_6,viewpoint,58,6,10.90,869.7083,0.0000,0.0000,0.0172,0,0,0,0.0000,0.0000,0.0000,0.0000
v_underground_1_2,viewpoint,1885,1659,11.75,1.8127,0.7692,0.8955,0.9485,1,1,1,0.0000,0.3958,0.6375,0.8187
v_underground_1_3,viewpoint,1212,959,11.61,2.2605,0.6444,0.8350,0.9134,1,1,1,0.0000,0.2465,0.5479,0.7739
v_underground_1_4,viewpoint,844,586,11.26,4.2276,0.4917,0.7666,0.8424,0,1,1,0.0000,0.0000,0.1545,0.5772
v_underground_1_5,viewpoint,568,353,11.36,6.9740,0.3327,0.6461,0.7694,0,0,1,0.0000,0.0000,0.0000,0.3026
v_underground_1_6,viewpoint,335,158,11.73,8.4275,0.1821,0.4507,0.5761,0,0,0,0.0000,0.0000,0.0000,0.1573
v_vitro_1_2,viewpoint,2310,2065,12.10,1.3879,0.8424,0.9277,0.9472,1,1,1,0.0000,0.5374,0.7224,0.8612
v_vitro_1_3,viewpoint,1825,1555,12.33,2.5163,0.7803,0.8778,0.9145,1,1,1,0.0000,0.1612,0.4967,0.7484
v_vitro_1_4,viewpoint,1365,1045,11.40,3.7344,0.6498,0.7912,0.8388,0,1,1,0.0000,0.0000,0.2531,0.6266
v_vitro_1_5,viewpoint,2182,1913,11.87,2.8388,0.7401,0.9033,0.9436,1,1,1,0.0000,0.0537,0.4322,0.7161
v_vitro_1_6,viewpoint,1602,1298,11.38,3.7351,0.5824,0.8196,0.8733,0,1,1,0.0000,0.0000,0.2530,0.6265
v_wall_1_2,viewpoint,2308,2144,11.87,2.1609,0.8280,0.9606,0.9844,1,1,1,0.0000,0.2797,0.5678,0.7839
v_wall_1_3,viewpoint,1661,1428,11.21,3.3515,0.7604,0.9055,0.9542,0,1,1,0.0000,0.0000,0.3297,0.6649
v_wall_1_4,viewpoint,2379,2253,11.65,0.8548,0.9138,0.9769,0.9878,1,1,1,0.1452,0.7151,0.8290,0.9145
v_wall_1_5,viewpoint,1564,1336,10.82,2.4675,0.6528,0.8728,0.9367,1,1,1,0.0000,0.1775,0.5065,0.7532
v_wall_1_6,viewpoint,1266,1057,11.15,5.5481,0.7291,0.8776,0.9360,0,0,1,0.0000,0.0000,0.0000,0.4452
v_wapping_1_2,viewpoint,1604,1428,12.04,1.5542,0.8479,0.9420,0.9632,1,1,1,0.0000,0.4819,0.6892,0.8446
v_wapping_1_3,viewpoint,738,533,12.00,3.4036,0.5014,0.7588,0.8753,0,1,1,0.0000,0.0000,0.3193,0.6596
v_wapping_1_4,viewpoint,694,520,11.32,3.3674,0.6527,0.8401,0.9035,0,1,1,0.0000,0.0000,0.3265,0.6633
v_wapping_1_5,viewpoint,523,368,12.12,2.4184,0.4570,0.7075,0.8203,1,1,1,0.0000,0.1939,0.5163,0.7582
v_wapping_1_6,viewpoint,314,169,11.49,4.1385,0.3885,0.5637,0.6752,0,1,1,0.0000,0.0000,0.1723,0.5862
v_war_1_2,viewpoint,1215,1015,11.89,3.9571,0.6165,0.8658,0.9399,0,1,1,0.0000,0.0000,0.2086,0.6043
v_war_1_3,viewpoint,912,691,11.91,3.5789,0.5121,0.8257,0.9090,0,1,1,0.0000,0.0000,0.2842,0.6421
v_war_1_4,viewpoint,1741,1631,12.20,1.3903,0.9150,0.9770,0.9954,1,1,1,0.0000,0.5366,0.7219,0.8610
v_war_1_5,viewpoint,1692,1539,11.92,1.6457,0.8788,0.9693,0.9882,1,1,1,0.0000,0.4514,0.6709,0.8354
v_war_1_6,viewpoint,885,725,11.92,4.0671,0.6000,0.8701,0.9424,0,1,1,0.0000,0.0000,0.1866,0.5933
v_weapons_1_2,viewpoint,1816,1700,13.33,2.1395,0.7946,0.9482,0.9741,1,1,1,0.0000,0.2868,0.5721,0.7861
v_weapons_1_3,viewpoint,1113,935,12.70,3.3623,0.5948,0.8535,0.9299,0,1,1,0.0000,0.0000,0.3275,0.6638
v_weapons_1_4,viewpoint,1569,1391,11.89,4.6678,0.4863,0.8464,0.9401,0,1,1,0.0000,0.0000,0.0664,0.5332
v_weapons_1_5,viewpoint,1704,1558,11.89,2.4457,0.8791,0.9683,0.9947,1,1,1,0.0000,0.1848,0.5109,0.7554
v_weapons_1_6,viewpoint,1277,1145,11.54,1.9876,0.8575,0.9585,0.9867,1,1,1,0.0000,0.3375,0.6025,0.8012
v_woman_1_2,viewpoint,459,393,10.99,47.4776,0.0000,0.0000,0.0000,0,0,0,0.0000,0.0000,0.0000,0.0000
v_woman_1_3,viewpoint,948,852,12.36,50.5954,0.0000,0.0000,0.0000,0,0,0,0.0000,0.0000,0.0000,0.0000
v_woman_1_4,viewpoint,760,643,12.21,51.9312,0.0000,0.0000,0.0000,0,0,0,0.0000,0.0000,0.0000,0.0000
v_woman_1_5,viewpoint,354,279,11.94,47.1068,0.0000,0.0000,0.0000,0,0,0,0.0000,0.0000,0.0000,0.0000
v_woman_1_6,viewpoint,508,392,11.90,46.9516,0.0000,0.0000,0.0000,0,0,0,0.0000,0.0000,0.0000,0.0000
v_wormhole_1_2,viewpoint,1386,1225,12.56,2.1314,0.8139,0.9430,0.9740,1,1,1,0.0000,0.2895,0.5737,0.7869
v_wormhole_1_3,viewpoint,1753,1539,13.00,3.1658,0.7456,0.9007,0.9618,0,1,1,0.0000,0.0000,0.3668,0.6834
v_wormhole_1_4,viewpoint,1972,1757,13.00,2.6938,0.7181,0.9123,0.9640,1,1,1,0.0000,0.1021,0.4612,0.7306
v_wormhole_1_5,viewpoint,1052,852,12.01,7.7480,0.6236,0.8432,0.9230,0,0,0,0.0000,0.0000,0.0000,0.2252
v_wormhole_1_6,viewpoint,541,340,12.54,9.7248,0.1793,0.5213,0.7024,0,0,0,0.0000,0.0000,0.0000,0.0275
v_wounded_1_2,viewpoint,1220,1123,12.63,2.5343,0.7525,0.9221,0.9762,1,1,1,0.0000,0.1552,0.4931,0.7466
v_wounded_1_3,viewpoint,716,595,11.95,10.3906,0.7346,0.8897,0.9274,0,0,0,0.0000,0.0000,0.0000,0.0000
v_wounded_1_4,viewpoint,209,158,11.26,46.1869,0.6124,0.8086,0.9139,0,0,0,0.0000,0.0000,0.0000,0.0000
v_wounded_1_5,viewpoint,599,464,11.79,6.1140,0.1987,0.6060,0.8114,0,0,1,0.0000,0.0000,0.0000,0.3886
v_wounded_1_6,viewpoint,254,173,11.58,16.3379,0.1063,0.4331,0.6850,0,0,0,0.0000,0.0000,0.0000,0.0000
v_yard_1_2,viewpoint,2106,1965,12.89,1.4159,0.9084,0.9758,0.9900,1,1,1,0.0000,0.5280,0.7168,0.8584
v_yard_1_3,viewpoint,889,636,12.65,4.0016,0.4173,0.7750,0.8841,0,1,1,0.0000,0.0000,0.1997,0.5998
v_yard_1_4,viewpoint,1644,1479,12.57,2.4326,0.8035,0.9477,0.9787,1,1,1,0.0000,0.1891,0.5135,0.7567
v_yard_1_5,viewpoint,928,696,12.51,4.6143,0.4935,0.7619,0.8653,0,1,1,0.0000,0.0000,0.0771,0.5386
v_yard_1_6,viewpoint,440,226,12.49,4.1025,0.2341,0.5045,0.6386,0,1,1,0.0000,0.0000,0.1795,0.5898
v_yuri_1_2,viewpoint,1454,1396,11.53,1.3350,0.8680,0.9890,0.9993,1,1,1,0.0000,0.5550,0.7330,0.8665
v_yuri_1_3,viewpoint,823,644,11.76,4.9429,0.2066,0.6318,0.8202,0,1,1,0.0000,0.0000,0.0114,0.5057
v_yuri_1_4,viewpoint,488,335,11.52,25.9191,0.0553,0.2623,0.5881,0,0,0,0.0000,0.0000,0.0000,0.0000
v_yuri_1_5,viewpoint,953,806,12.50,5.1856,0.6726,0.8762,0.9412,0,0,1,0.0000,0.0000,0.0000,0.4814
v_yuri_1_6,viewpoint,590,439,12.05,24.3900,0.6254,0.8271,0.8915,0,0,0,0.0000,0.0000,0.0000,0.0000
