PairName,SeqType,NumMatches,Inliers,TimeMS,H_Error,MMA@3,MMA@5,MMA@7,MHA_Acc@3,MHA_Acc@5,MHA_Acc@7,AUC@1,AUC@3,AUC@5,AUC@10
i_ajuntament_1_2,illumination,1549,1494,284.77,0.3596,0.9522,0.9961,0.9994,1,1,1,0.6404,0.8801,0.9281,0.9640
i_ajuntament_1_3,illumination,1196,1145,74.77,0.7693,0.9264,0.9983,0.9992,1,1,1,0.2307,0.7436,0.8461,0.9231
i_ajuntament_1_4,illumination,1031,959,70.27,0.5137,0.9079,0.9981,1.0000,1,1,1,0.4863,0.8288,0.8973,0.9486
i_ajuntament_1_5,illumination,1032,937,70.62,1.1503,0.8488,0.9884,1.0000,1,1,1,0.0000,0.6166,0.7699,0.8850
i_ajuntament_1_6,illumination,1062,989,68.01,0.8648,0.8936,0.9991,1.0000,1,1,1,0.1352,0.7117,0.8270,0.9135
i_autannes_1_2,illumination,1596,1449,71.08,0.3775,0.9060,0.9718,0.9919,1,1,1,0.6225,0.8742,0.9245,0.9622
i_autannes_1_3,illumination,1511,1371,67.04,0.4713,0.8981,0.9795,0.9967,1,1,1,0.5287,0.8429,0.9057,0.9529
i_autannes_1_4,illumination,1264,1110,68.47,1.2713,0.8149,0.9707,0.9976,1,1,1,0.0000,0.5762,0.7457,0.8729
i_autannes_1_5,illumination,1306,1172,67.03,0.7209,0.8867,0.9862,0.9969,1,1,1,0.2791,0.7597,0.8558,0.9279
i_autannes_1_6,illumination,1424,1316,67.25,0.4300,0.9228,0.9895,0.9979,1,1,1,0.5700,0.8567,0.9140,0.9570
i_bologna_1_2,illumination,1577,1393,72.19,0.3641,0.8802,0.9543,0.9797,1,1,1,0.6359,0.8786,0.9272,0.9636
i_bologna_1_3,illumination,1574,1371,65.78,1.7119,0.8583,0.9619,0.9790,1,1,1,0.0000,0.4294,0.6576,0.8288
i_bologna_1_4,illumination,1515,1310,65.62,0.8814,0.8601,0.9512,0.9769,1,1,1,0.1186,0.7062,0.8237,0.9119
i_bologna_1_5,illumination,1497,1315,68.71,0.5437,0.8704,0.9593,0.9773,1,1,1,0.4563,0.8188,0.8913,0.9456
i_bologna_1_6,illumination,1485,1273,65.87,1.0977,0.8485,0.9562,0.9825,1,1,1,0.0000,0.6341,0.7805,0.8902
i_books_1_2,illumination,1561,1486,70.83,0.1953,0.9520,0.9923,0.9968,1,1,1,0.8047,0.9349,0.9609,0.9805
i_books_1_3,illumination,1494,1401,67.73,0.2249,0.9331,0.9900,0.9980,1,1,1,0.7751,0.9250,0.9550,0.9775
i_books_1_4,illumination,1549,1445,68.72,0.1798,0.9342,0.9923,0.9981,1,1,1,0.8202,0.9401,0.9640,0.9820
i_books_1_5,illumination,1591,1486,68.40,0.2154,0.9334,0.9881,0.9969,1,1,1,0.7846,0.9282,0.9569,0.9785
i_books_1_6,illumination,1559,1473,71.81,0.2681,0.9410,0.9872,0.9968,1,1,1,0.7319,0.9106,0.9464,0.9732
i_boutique_1_2,illumination,1438,1394,78.13,0.2539,0.9659,0.9937,0.9972,1,1,1,0.7461,0.9154,0.9492,0.9746
i_boutique_1_3,illumination,1323,1306,76.48,0.1963,0.9864,0.9992,1.0000,1,1,1,0.8037,0.9346,0.9607,0.9804
i_boutique_1_4,illumination,1320,1304,70.61,0.2528,0.9864,0.9992,1.0000,1,1,1,0.7472,0.9157,0.9494,0.9747
i_boutique_1_5,illumination,1174,1120,67.78,0.4448,0.9404,0.9940,0.9991,1,1,1,0.5552,0.8517,0.9110,0.9555
i_boutique_1_6,illumination,1150,1112,67.57,0.3978,0.9539,0.9974,1.0000,1,1,1,0.6022,0.8674,0.9204,0.9602
i_bridger_1_2,illumination,1616,1435,73.60,0.5169,0.8589,0.9641,0.9920,1,1,1,0.4831,0.8277,0.8966,0.9483
i_bridger_1_3,illumination,1585,1406,67.37,0.4697,0.8820,0.9653,0.9836,1,1,1,0.5303,0.8434,0.9061,0.9530
i_bridger_1_4,illumination,1606,1452,64.34,0.3555,0.8923,0.9664,0.9894,1,1,1,0.6445,0.8815,0.9289,0.9644
i_bridger_1_5,illumination,1569,1375,63.60,0.6311,0.8719,0.9637,0.9904,1,1,1,0.3689,0.7896,0.8738,0.9369
i_bridger_1_6,illumination,1294,1085,63.59,0.6165,0.8145,0.9560,0.9946,1,1,1,0.3835,0.7945,0.8767,0.9383
i_brooklyn_1_2,illumination,1429,1330,69.64,0.4630,0.9258,0.9853,0.9986,1,1,1,0.5370,0.8457,0.9074,0.9537
i_brooklyn_1_3,illumination,1525,1488,67.16,0.9580,0.9233,0.9967,1.0000,1,1,1,0.0420,0.6807,0.8084,0.9042
i_brooklyn_1_4,illumination,1344,1259,66.24,0.6933,0.8876,0.9940,0.9993,1,1,1,0.3067,0.7689,0.8613,0.9307
i_brooklyn_1_5,illumination,1487,1453,66.38,1.3405,0.8635,0.9980,1.0000,1,1,1,0.0000,0.5532,0.7319,0.8659
i_brooklyn_1_6,illumination,1370,1315,66.34,1.2184,0.8679,0.9971,1.0000,1,1,1,0.0000,0.5939,0.7563,0.8782
i_castle_1_2,illumination,1263,1209,71.28,0.8163,0.9422,0.9992,1.0000,1,1,1,0.1837,0.7279,0.8367,0.9184
i_castle_1_3,illumination,1301,1268,66.26,0.6118,0.9716,1.0000,1.0000,1,1,1,0.3882,0.7961,0.8776,0.9388
i_castle_1_4,illumination,1275,1237,66.10,0.7514,0.9592,0.9984,1.0000,1,1,1,0.2486,0.7495,0.8497,0.9249
i_castle_1_5,illumination,1252,1194,66.10,0.5288,0.9441,0.9992,1.0000,1,1,1,0.4712,0.8237,0.8942,0.9471
i_castle_1_6,illumination,1193,1142,66.40,0.8287,0.9514,1.0000,1.0000,1,1,1,0.1713,0.7238,0.8343,0.9171
i_chestnuts_1_2,illumination,1614,1498,69.57,0.1986,0.9226,0.9777,0.9950,1,1,1,0.8014,0.9338,0.9603,0.9801
i_chestnuts_1_3,illumination,1624,1501,66.73,0.5263,0.9175,0.9698,0.9914,1,1,1,0.4737,0.8246,0.8947,0.9474
i_chestnuts_1_4,illumination,1613,1452,66.61,0.2752,0.8971,0.9696,0.9907,1,1,1,0.7248,0.9083,0.9450,0.9725
i_chestnuts_1_5,illumination,1584,1443,66.52,0.2590,0.9085,0.9722,0.9943,1,1,1,0.7410,0.9137,0.9482,0.9741
i_chestnuts_1_6,illumination,1504,1381,66.36,0.3067,0.9182,0.9807,0.9953,1,1,1,0.6933,0.8978,0.9387,0.9693
i_crownday_1_2,illumination,1275,1217,70.40,0.3508,0.9498,0.9992,1.0000,1,1,1,0.6492,0.8831,0.9298,0.9649
i_crownday_1_3,illumination,1330,1289,67.42,0.2503,0.9684,1.0000,1.0000,1,1,1,0.7497,0.9166,0.9499,0.9750
i_crownday_1_4,illumination,1445,1379,67.40,0.2966,0.9543,0.9986,1.0000,1,1,1,0.7034,0.9011,0.9407,0.9703
i_crownday_1_5,illumination,1490,1458,67.56,0.3620,0.9752,0.9987,1.0000,1,1,1,0.6380,0.8793,0.9276,0.9638
i_crownday_1_6,illumination,1237,1182,67.28,0.4051,0.9531,0.9968,1.0000,1,1,1,0.5949,0.8650,0.9190,0.9595
i_dome_1_2,illumination,1780,1709,70.99,0.0000,0.9624,0.9899,0.9961,1,1,1,1.0000,1.0000,1.0000,1.0000
i_dome_1_3,illumination,1345,1251,67.00,0.4364,0.9234,0.9948,0.9978,1,1,1,0.5636,0.8545,0.9127,0.9564
i_dome_1_4,illumination,1383,1293,67.14,0.4663,0.9212,0.9935,0.9986,1,1,1,0.5337,0.8446,0.9067,0.9534
i_dome_1_5,illumination,1365,1290,69.06,0.2727,0.9363,0.9985,1.0000,1,1,1,0.7273,0.9091,0.9455,0.9727
i_dome_1_6,illumination,1512,1465,66.96,0.1940,0.9683,0.9980,1.0000,1,1,1,0.8060,0.9353,0.9612,0.9806
i_duda_1_2,illumination,1616,1557,70.51,0.2791,0.9635,0.9901,0.9975,1,1,1,0.7209,0.9070,0.9442,0.9721
i_duda_1_3,illumination,1395,1356,65.47,0.2005,0.9663,0.9950,1.0000,1,1,1,0.7995,0.9332,0.9599,0.9799
i_duda_1_4,illumination,1262,1223,65.52,0.3764,0.9651,0.9968,1.0000,1,1,1,0.6236,0.8745,0.9247,0.9624
i_duda_1_5,illumination,1218,1173,65.72,0.3651,0.9614,0.9975,1.0000,1,1,1,0.6349,0.8783,0.9270,0.9635
i_duda_1_6,illumination,1112,1074,65.50,0.4617,0.9613,1.0000,1.0000,1,1,1,0.5383,0.8461,0.9077,0.9538
i_fenis_1_2,illumination,1470,1460,68.83,0.1483,0.9932,1.0000,1.0000,1,1,1,0.8517,0.9506,0.9703,0.9852
i_fenis_1_3,illumination,1338,1302,65.62,0.4049,0.9641,0.9993,1.0000,1,1,1,0.5951,0.8650,0.9190,0.9595
i_fenis_1_4,illumination,1210,1142,65.63,1.1257,0.8917,0.9917,1.0000,1,1,1,0.0000,0.6248,0.7749,0.8874
i_fenis_1_5,illumination,1186,1063,65.60,0.9238,0.8828,0.9916,0.9992,1,1,1,0.0762,0.6921,0.8152,0.9076
i_fenis_1_6,illumination,1217,1119,65.46,0.8205,0.9055,0.9885,0.9984,1,1,1,0.1795,0.7265,0.8359,0.9180
i_fog_1_2,illumination,1468,1394,70.15,0.1477,0.9469,0.9959,0.9993,1,1,1,0.8523,0.9508,0.9705,0.9852
i_fog_1_3,illumination,1372,1285,64.44,0.4226,0.9308,0.9905,0.9985,1,1,1,0.5774,0.8591,0.9155,0.9577
i_fog_1_4,illumination,1299,1220,64.38,0.5728,0.9315,0.9962,1.0000,1,1,1,0.4272,0.8091,0.8854,0.9427
i_fog_1_5,illumination,1164,1069,64.51,0.8326,0.9029,0.9871,1.0000,1,1,1,0.1674,0.7225,0.8335,0.9167
i_fog_1_6,illumination,1150,1061,64.45,0.3565,0.9183,0.9957,1.0000,1,1,1,0.6435,0.8812,0.9287,0.9644
i_fruits_1_2,illumination,1313,1291,73.51,0.2001,0.9810,0.9992,1.0000,1,1,1,0.7999,0.9333,0.9600,0.9800
i_fruits_1_3,illumination,1258,1232,69.76,0.4677,0.9793,0.9992,1.0000,1,1,1,0.5323,0.8441,0.9065,0.9532
i_fruits_1_4,illumination,1260,1233,70.05,0.4138,0.9762,0.9992,1.0000,1,1,1,0.5862,0.8621,0.9172,0.9586
i_fruits_1_5,illumination,1249,1215,69.74,0.3398,0.9720,0.9992,1.0000,1,1,1,0.6602,0.8867,0.9320,0.9660
i_fruits_1_6,illumination,1238,1195,69.46,0.2870,0.9637,0.9992,1.0000,1,1,1,0.7130,0.9043,0.9426,0.9713
i_gonnenberg_1_2,illumination,1657,1515,69.74,0.0000,0.9240,0.9686,0.9855,1,1,1,1.0000,1.0000,1.0000,1.0000
i_gonnenberg_1_3,illumination,1691,1492,64.41,0.0000,0.8900,0.9491,0.9758,1,1,1,1.0000,1.0000,1.0000,1.0000
i_gonnenberg_1_4,illumination,1540,1385,64.43,0.4925,0.8961,0.9617,0.9799,1,1,1,0.5075,0.8358,0.9015,0.9508
i_gonnenberg_1_5,illumination,1567,1444,64.78,0.6987,0.9209,0.9719,0.9866,1,1,1,0.3013,0.7671,0.8603,0.9301
i_gonnenberg_1_6,illumination,1631,1479,64.42,0.1647,0.9086,0.9687,0.9884,1,1,1,0.8353,0.9451,0.9671,0.9835
i_greenhouse_1_2,illumination,1556,1360,70.71,0.1885,0.8760,0.9518,0.9814,1,1,1,0.8115,0.9372,0.9623,0.9812
i_greenhouse_1_3,illumination,1526,1345,66.51,0.4592,0.8709,0.9515,0.9803,1,1,1,0.5408,0.8469,0.9082,0.9541
i_greenhouse_1_4,illumination,1508,1314,68.59,0.5336,0.8541,0.9496,0.9808,1,1,1,0.4664,0.8221,0.8933,0.9466
i_greenhouse_1_5,illumination,1503,1296,66.69,0.5228,0.8436,0.9488,0.9827,1,1,1,0.4772,0.8257,0.8954,0.9477
i_greenhouse_1_6,illumination,1462,1238,66.27,0.5822,0.8304,0.9432,0.9733,1,1,1,0.4178,0.8059,0.8836,0.9418
i_greentea_1_2,illumination,1517,1419,70.34,0.6777,0.9288,0.9855,0.9967,1,1,1,0.3223,0.7741,0.8645,0.9322
i_greentea_1_3,illumination,1582,1526,67.58,0.2334,0.9671,0.9962,1.0000,1,1,1,0.7666,0.9222,0.9533,0.9767
i_greentea_1_4,illumination,1622,1582,67.34,0.1445,0.9772,0.9988,1.0000,1,1,1,0.8555,0.9518,0.9711,0.9856
i_greentea_1_5,illumination,1636,1593,67.34,0.1916,0.9713,0.9976,0.9988,1,1,1,0.8084,0.9361,0.9617,0.9808
i_greentea_1_6,illumination,1567,1516,67.46,0.3155,0.9675,1.0000,1.0000,1,1,1,0.6845,0.8948,0.9369,0.9684
i_indiana_1_2,illumination,1528,1361,67.28,0.5735,0.8855,0.9634,0.9915,1,1,1,0.4265,0.8088,0.8853,0.9427
i_indiana_1_3,illumination,1521,1334,64.52,0.5329,0.8679,0.9652,0.9849,1,1,1,0.4671,0.8224,0.8934,0.9467
i_indiana_1_4,illumination,1483,1263,64.01,0.3060,0.8388,0.9589,0.9899,1,1,1,0.6940,0.8980,0.9388,0.9694
i_indiana_1_5,illumination,1477,1243,63.94,0.5967,0.8199,0.9519,0.9871,1,1,1,0.4033,0.8011,0.8807,0.9403
i_indiana_1_6,illumination,1431,1212,64.16,0.4477,0.8379,0.9560,0.9881,1,1,1,0.5523,0.8508,0.9105,0.9552
i_kions_1_2,illumination,1237,1195,70.56,0.8144,0.9151,0.9968,1.0000,1,1,1,0.1856,0.7285,0.8371,0.9186
i_kions_1_3,illumination,1175,1099,65.48,0.5875,0.9166,0.9957,1.0000,1,1,1,0.4125,0.8042,0.8825,0.9412
i_kions_1_4,illumination,1270,1205,65.58,1.0944,0.8961,0.9961,1.0000,1,1,1,0.0000,0.6352,0.7811,0.8906
i_kions_1_5,illumination,1262,1203,65.57,0.9038,0.9144,0.9992,0.9992,1,1,1,0.0962,0.6987,0.8192,0.9096
i_kions_1_6,illumination,1170,1099,65.32,0.6453,0.9231,0.9949,1.0000,1,1,1,0.3547,0.7849,0.8709,0.9355
i_ktirio_1_2,illumination,1589,1549,69.97,0.2968,0.9729,0.9937,0.9994,1,1,1,0.7032,0.9011,0.9406,0.9703
i_ktirio_1_3,illumination,1278,1230,66.34,0.7581,0.9601,0.9992,1.0000,1,1,1,0.2419,0.7473,0.8484,0.9242
i_ktirio_1_4,illumination,1215,1144,66.51,1.1853,0.9235,0.9959,1.0000,1,1,1,0.0000,0.6049,0.7629,0.8815
i_ktirio_1_5,illumination,1277,1228,66.59,0.6054,0.9538,1.0000,1.0000,1,1,1,0.3946,0.7982,0.8789,0.9395
i_ktirio_1_6,illumination,1220,1159,66.80,0.9424,0.9344,0.9967,1.0000,1,1,1,0.0576,0.6859,0.8115,0.9058
i_kurhaus_1_2,illumination,1596,1536,70.51,0.1801,0.9643,0.9962,1.0000,1,1,1,0.8199,0.9400,0.9640,0.9820
i_kurhaus_1_3,illumination,1489,1422,66.56,0.2050,0.9557,0.9973,0.9993,1,1,1,0.7950,0.9317,0.9590,0.9795
i_kurhaus_1_4,illumination,1419,1355,66.61,0.2819,0.9535,0.9993,1.0000,1,1,1,0.7181,0.9060,0.9436,0.9718
i_kurhaus_1_5,illumination,1360,1308,66.62,0.3178,0.9537,0.9971,0.9993,1,1,1,0.6822,0.8941,0.9364,0.9682
i_kurhaus_1_6,illumination,1329,1256,66.45,0.2889,0.9375,0.9955,1.0000,1,1,1,0.7111,0.9037,0.9422,0.9711
i_leuven_1_2,illumination,1526,1462,71.46,0.9740,0.9561,0.9961,1.0000,1,1,1,0.0260,0.6753,0.8052,0.9026
i_leuven_1_3,illumination,1498,1444,66.88,1.1313,0.9459,0.9953,1.0000,1,1,1,0.0000,0.6229,0.7737,0.8869
i_leuven_1_4,illumination,1417,1355,66.56,1.8529,0.9358,0.9944,0.9993,1,1,1,0.0000,0.3824,0.6294,0.8147
i_leuven_1_5,illumination,1314,1272,66.48,1.1152,0.9581,0.9992,1.0000,1,1,1,0.0000,0.6283,0.7770,0.8885
i_leuven_1_6,illumination,1242,1197,67.45,6.4353,0.7222,0.8655,0.9396,0,0,1,0.0000,0.0000,0.0000,0.3565
i_lionday_1_2,illumination,1277,1202,70.51,0.8849,0.9217,0.9977,1.0000,1,1,1,0.1151,0.7050,0.8230,0.9115
i_lionday_1_3,illumination,1293,1216,66.51,0.7546,0.9196,0.9930,1.0000,1,1,1,0.2454,0.7485,0.8491,0.9245
i_lionday_1_4,illumination,1077,1002,66.73,1.5983,0.7818,0.9861,0.9991,1,1,1,0.0000,0.4672,0.6803,0.8402
i_lionday_1_5,illumination,1220,1114,66.52,1.9498,0.7672,0.9713,0.9992,1,1,1,0.0000,0.3501,0.6100,0.8050
i_lionday_1_6,illumination,1293,1231,66.67,1.3397,0.8801,0.9946,0.9992,1,1,1,0.0000,0.5534,0.7321,0.8660
i_lionnight_1_2,illumination,1199,1027,69.93,0.6074,0.8399,0.9399,0.9800,1,1,1,0.3926,0.7975,0.8785,0.9393
i_lionnight_1_3,illumination,1029,902,66.88,1.0487,0.8163,0.9738,0.9971,1,1,1,0.0000,0.6504,0.7903,0.8951
i_lionnight_1_4,illumination,1373,1150,66.60,0.7948,0.8077,0.9352,0.9716,1,1,1,0.2052,0.7351,0.8410,0.9205
i_lionnight_1_5,illumination,1280,1100,66.61,0.6408,0.8352,0.9453,0.9797,1,1,1,0.3592,0.7864,0.8718,0.9359
i_lionnight_1_6,illumination,1275,1108,66.64,0.7308,0.8322,0.9420,0.9859,1,1,1,0.2692,0.7564,0.8538,0.9269
i_londonbridge_1_2,illumination,1543,1528,70.22,0.9564,0.9339,1.0000,1.0000,1,1,1,0.0436,0.6812,0.8087,0.9044
i_londonbridge_1_3,illumination,1488,1465,66.79,0.8302,0.9583,0.9993,1.0000,1,1,1,0.1698,0.7233,0.8340,0.9170
i_londonbridge_1_4,illumination,1408,1335,66.70,2.3107,0.8516,0.9922,1.0000,1,1,1,0.0000,0.2298,0.5379,0.7689
i_londonbridge_1_5,illumination,1237,969,66.60,3.6390,0.5352,0.8650,0.9547,0,1,1,0.0000,0.0000,0.2722,0.6361
i_londonbridge_1_6,illumination,1388,1365,66.58,0.5664,0.9705,1.0000,1.0000,1,1,1,0.4336,0.8112,0.8867,0.9434
i_melon_1_2,illumination,1522,1437,70.81,0.2708,0.9435,0.9961,0.9987,1,1,1,0.7292,0.9097,0.9458,0.9729
i_melon_1_3,illumination,1364,1272,67.62,1.2718,0.9311,0.9934,0.9971,1,1,1,0.0000,0.5761,0.7456,0.8728
i_melon_1_4,illumination,1129,1005,67.56,0.6049,0.8778,0.9920,0.9982,1,1,1,0.3951,0.7984,0.8790,0.9395
i_melon_1_5,illumination,1349,1274,67.46,0.3327,0.9451,0.9956,0.9993,1,1,1,0.6673,0.8891,0.9335,0.9667
i_melon_1_6,illumination,1321,1238,67.52,0.7739,0.9334,0.9947,0.9992,1,1,1,0.2261,0.7420,0.8452,0.9226
i_miniature_1_2,illumination,1666,1581,71.20,0.3404,0.9478,0.9832,0.9964,1,1,1,0.6596,0.8865,0.9319,0.9660
i_miniature_1_3,illumination,1408,1356,67.47,0.7330,0.9581,0.9922,0.9964,1,1,1,0.2670,0.7557,0.8534,0.9267
i_miniature_1_4,illumination,1268,1207,67.58,0.5017,0.9479,0.9976,0.9992,1,1,1,0.4983,0.8328,0.8997,0.9498
i_miniature_1_5,illumination,1238,1112,68.99,0.7504,0.8796,0.9919,0.9968,1,1,1,0.2496,0.7499,0.8499,0.9250
i_miniature_1_6,illumination,1433,1356,67.83,0.6394,0.9400,0.9874,0.9965,1,1,1,0.3606,0.7869,0.8721,0.9361
i_nescafe_1_2,illumination,1456,1335,71.04,0.3914,0.9135,0.9773,0.9911,1,1,1,0.6086,0.8695,0.9217,0.9609
i_nescafe_1_3,illumination,1482,1392,67.60,0.1689,0.9386,0.9872,0.9960,1,1,1,0.8311,0.9437,0.9662,0.9831
i_nescafe_1_4,illumination,1580,1466,67.31,0.2538,0.9203,0.9766,0.9899,1,1,1,0.7462,0.9154,0.9492,0.9746
i_nescafe_1_5,illumination,1575,1414,67.83,0.2267,0.8971,0.9708,0.9867,1,1,1,0.7733,0.9244,0.9547,0.9773
i_nescafe_1_6,illumination,1336,1278,67.26,0.3073,0.9528,0.9925,0.9955,1,1,1,0.6927,0.8976,0.9385,0.9693
i_nijmegen_1_2,illumination,1527,1477,70.47,0.7936,0.9443,0.9980,1.0000,1,1,1,0.2064,0.7355,0.8413,0.9206
i_nijmegen_1_3,illumination,1560,1499,67.40,0.5781,0.9513,0.9987,1.0000,1,1,1,0.4219,0.8073,0.8844,0.9422
i_nijmegen_1_4,illumination,1283,1207,67.25,0.6013,0.9369,0.9961,1.0000,1,1,1,0.3987,0.7996,0.8797,0.9399
i_nijmegen_1_5,illumination,1547,1503,67.41,0.5055,0.9657,0.9955,1.0000,1,1,1,0.4945,0.8315,0.8989,0.9494
i_nijmegen_1_6,illumination,1527,1478,67.30,0.3980,0.9620,0.9921,1.0000,1,1,1,0.6020,0.8673,0.9204,0.9602
i_nuts_1_2,illumination,1069,955,73.54,0.8554,0.8681,0.9570,0.9747,1,1,1,0.1446,0.7149,0.8289,0.9145
i_nuts_1_3,illumination,955,838,70.11,0.6414,0.8607,0.9738,0.9969,1,1,1,0.3586,0.7862,0.8717,0.9359
i_nuts_1_4,illumination,896,735,69.62,0.8098,0.8092,0.9699,0.9989,1,1,1,0.1902,0.7301,0.8380,0.9190
i_nuts_1_5,illumination,882,695,71.21,0.7688,0.7630,0.9637,0.9909,1,1,1,0.2312,0.7437,0.8462,0.9231
i_nuts_1_6,illumination,647,460,71.41,1.0787,0.6986,0.8810,0.9474,1,1,1,0.0000,0.6404,0.7843,0.8921
i_objects_1_2,illumination,1279,1252,70.10,0.4875,0.9672,1.0000,1.0000,1,1,1,0.5125,0.8375,0.9025,0.9512
i_objects_1_3,illumination,1268,1238,66.48,0.6968,0.9464,0.9984,0.9992,1,1,1,0.3032,0.7677,0.8606,0.9303
i_objects_1_4,illumination,1208,1141,66.33,0.9915,0.9123,0.9950,0.9983,1,1,1,0.0085,0.6695,0.8017,0.9008
i_objects_1_5,illumination,1199,1113,66.87,0.8051,0.9058,0.9975,1.0000,1,1,1,0.1949,0.7316,0.8390,0.9195
i_objects_1_6,illumination,1481,1457,68.39,0.2538,0.9804,1.0000,1.0000,1,1,1,0.7462,0.9154,0.9492,0.9746
i_parking_1_2,illumination,1439,1353,70.04,0.3360,0.9361,0.9889,0.9986,1,1,1,0.6640,0.8880,0.9328,0.9664
i_parking_1_3,illumination,1387,1289,66.13,0.3908,0.9214,0.9885,0.9986,1,1,1,0.6092,0.8697,0.9218,0.9609
i_parking_1_4,illumination,1262,1177,65.84,0.8188,0.8352,0.9913,1.0000,1,1,1,0.1812,0.7271,0.8362,0.9181
i_parking_1_5,illumination,1203,1060,65.89,0.7697,0.8196,0.9825,1.0000,1,1,1,0.2303,0.7434,0.8461,0.9230
i_parking_1_6,illumination,1297,1184,65.46,0.8100,0.8581,0.9961,1.0000,1,1,1,0.1900,0.7300,0.8380,0.9190
i_partyfood_1_2,illumination,1619,1460,69.41,0.2317,0.8999,0.9549,0.9741,1,1,1,0.7683,0.9228,0.9537,0.9768
i_partyfood_1_3,illumination,1406,1247,67.28,0.3107,0.8841,0.9538,0.9780,1,1,1,0.6893,0.8964,0.9379,0.9689
i_partyfood_1_4,illumination,1241,1104,66.78,0.5321,0.8678,0.9678,0.9895,1,1,1,0.4679,0.8226,0.8936,0.9468
i_partyfood_1_5,illumination,1195,1052,66.03,0.4186,0.8686,0.9715,0.9916,1,1,1,0.5814,0.8605,0.9163,0.9581
i_partyfood_1_6,illumination,1069,941,65.56,1.1926,0.8428,0.9766,0.9963,1,1,1,0.0000,0.6025,0.7615,0.8807
i_pinard_1_2,illumination,1515,1450,70.67,0.2038,0.9564,0.9993,1.0000,1,1,1,0.7962,0.9321,0.9592,0.9796
i_pinard_1_3,illumination,1291,1211,67.71,0.2931,0.9303,0.9930,0.9961,1,1,1,0.7069,0.9023,0.9414,0.9707
i_pinard_1_4,illumination,1326,1235,68.66,0.5512,0.9193,0.9894,0.9985,1,1,1,0.4488,0.8163,0.8898,0.9449
i_pinard_1_5,illumination,1379,1263,69.13,0.8478,0.9065,0.9782,0.9927,1,1,1,0.1522,0.7174,0.8304,0.9152
i_pinard_1_6,illumination,1396,1318,68.07,0.4982,0.9355,0.9885,0.9971,1,1,1,0.5018,0.8339,0.9004,0.9502
i_pool_1_2,illumination,1153,971,70.38,0.5813,0.8326,0.9827,0.9983,1,1,1,0.4187,0.8062,0.8837,0.9419
i_pool_1_3,illumination,929,701,67.04,0.8641,0.7201,0.9494,0.9935,1,1,1,0.1359,0.7120,0.8272,0.9136
i_pool_1_4,illumination,951,757,67.19,1.1270,0.7592,0.9632,0.9947,1,1,1,0.0000,0.6243,0.7746,0.8873
i_pool_1_5,illumination,1053,892,66.58,0.7911,0.8006,0.9753,0.9972,1,1,1,0.2089,0.7363,0.8418,0.9209
i_pool_1_6,illumination,1042,882,65.94,0.3094,0.8417,0.9827,0.9990,1,1,1,0.6906,0.8969,0.9381,0.9691
i_porta_1_2,illumination,1416,1355,70.05,0.1891,0.9590,0.9986,1.0000,1,1,1,0.8109,0.9370,0.9622,0.9811
i_porta_1_3,illumination,1442,1386,66.31,0.1853,0.9584,0.9972,1.0000,1,1,1,0.8147,0.9382,0.9629,0.9815
i_porta_1_4,illumination,1252,1188,66.47,0.4867,0.9273,1.0000,1.0000,1,1,1,0.5133,0.8378,0.9027,0.9513
i_porta_1_5,illumination,1249,1179,65.93,0.5963,0.9287,0.9984,1.0000,1,1,1,0.4037,0.8012,0.8807,0.9404
i_porta_1_6,illumination,1132,1029,66.19,0.6698,0.8993,0.9991,1.0000,1,1,1,0.3302,0.7767,0.8660,0.9330
i_resort_1_2,illumination,1411,1359,69.82,0.4043,0.9596,0.9979,1.0000,1,1,1,0.5957,0.8652,0.9191,0.9596
i_resort_1_3,illumination,1673,1589,66.39,0.2652,0.9468,0.9886,0.9994,1,1,1,0.7348,0.9116,0.9470,0.9735
i_resort_1_4,illumination,1662,1584,66.28,0.1491,0.9513,0.9916,0.9994,1,1,1,0.8509,0.9503,0.9702,0.9851
i_resort_1_5,illumination,1364,1287,66.41,0.7499,0.9391,0.9956,1.0000,1,1,1,0.2501,0.7500,0.8500,0.9250
i_resort_1_6,illumination,1417,1373,66.03,0.4011,0.9492,1.0000,1.0000,1,1,1,0.5989,0.8663,0.9198,0.9599
i_salon_1_2,illumination,1583,1574,70.46,0.1236,0.9937,0.9994,1.0000,1,1,1,0.8764,0.9588,0.9753,0.9876
i_salon_1_3,illumination,1340,1331,67.24,0.0907,0.9933,1.0000,1.0000,1,1,1,0.9093,0.9698,0.9819,0.9909
i_salon_1_4,illumination,1216,1188,69.03,0.2459,0.9762,1.0000,1.0000,1,1,1,0.7541,0.9180,0.9508,0.9754
i_salon_1_5,illumination,1416,1387,67.75,0.2995,0.9760,0.9936,0.9979,1,1,1,0.7005,0.9002,0.9401,0.9701
i_salon_1_6,illumination,1251,1225,68.14,0.3408,0.9728,0.9944,0.9960,1,1,1,0.6592,0.8864,0.9318,0.9659
i_santuario_1_2,illumination,1527,1341,71.54,1.1265,0.8212,0.9601,0.9862,1,1,1,0.0000,0.6245,0.7747,0.8874
i_santuario_1_3,illumination,1514,1328,66.48,1.2029,0.8045,0.9643,0.9908,1,1,1,0.0000,0.5990,0.7594,0.8797
i_santuario_1_4,illumination,1444,1264,67.68,1.3538,0.7645,0.9612,0.9889,1,1,1,0.0000,0.5487,0.7292,0.8646
i_santuario_1_5,illumination,1520,1359,67.54,0.2988,0.8875,0.9737,0.9908,1,1,1,0.7012,0.9004,0.9402,0.9701
i_santuario_1_6,illumination,1451,1247,68.31,0.8093,0.8442,0.9559,0.9848,1,1,1,0.1907,0.7302,0.8381,0.9191
i_school_1_2,illumination,1414,1379,74.44,0.2017,0.9738,0.9986,1.0000,1,1,1,0.7983,0.9328,0.9597,0.9798
i_school_1_3,illumination,1423,1373,69.14,0.2312,0.9613,0.9993,1.0000,1,1,1,0.7688,0.9229,0.9538,0.9769
i_school_1_4,illumination,1220,1160,76.22,0.7437,0.9008,0.9975,1.0000,1,1,1,0.2563,0.7521,0.8513,0.9256
i_school_1_5,illumination,1289,1234,75.92,0.6507,0.9441,0.9984,1.0000,1,1,1,0.3493,0.7831,0.8699,0.9349
i_school_1_6,illumination,1108,1028,72.38,0.9836,0.8493,0.9964,1.0000,1,1,1,0.0164,0.6721,0.8033,0.9016
i_ski_1_2,illumination,1578,1523,77.59,0.4247,0.9620,0.9981,1.0000,1,1,1,0.5753,0.8584,0.9151,0.9575
i_ski_1_3,illumination,1486,1449,72.33,0.4097,0.9657,0.9966,0.9993,1,1,1,0.5903,0.8634,0.9181,0.9590
i_ski_1_4,illumination,1445,1407,68.22,0.4869,0.9661,0.9993,1.0000,1,1,1,0.5131,0.8377,0.9026,0.9513
i_ski_1_5,illumination,1394,1340,66.93,0.6109,0.9512,1.0000,1.0000,1,1,1,0.3891,0.7964,0.8778,0.9389
i_ski_1_6,illumination,1379,1328,66.67,0.4260,0.9521,1.0000,1.0000,1,1,1,0.5740,0.8580,0.9148,0.9574
i_smurf_1_2,illumination,1376,1335,71.69,0.2468,0.9658,0.9949,0.9993,1,1,1,0.7532,0.9177,0.9506,0.9753
i_smurf_1_3,illumination,1335,1270,68.10,0.2681,0.9483,0.9910,0.9985,1,1,1,0.7319,0.9106,0.9464,0.9732
i_smurf_1_4,illumination,1333,1260,67.87,0.2877,0.9407,0.9880,0.9977,1,1,1,0.7123,0.9041,0.9425,0.9712
i_smurf_1_5,illumination,1306,1248,73.61,0.3006,0.9495,0.9946,0.9992,1,1,1,0.6994,0.8998,0.9399,0.9699
i_smurf_1_6,illumination,1225,1134,77.93,0.4267,0.9192,0.9967,1.0000,1,1,1,0.5733,0.8578,0.9147,0.9573
i_steps_1_2,illumination,1717,1605,78.83,0.3186,0.9272,0.9767,0.9948,1,1,1,0.6814,0.8938,0.9363,0.9681
i_steps_1_3,illumination,1711,1598,75.37,0.7048,0.9170,0.9848,0.9959,1,1,1,0.2952,0.7651,0.8590,0.9295
i_steps_1_4,illumination,1674,1569,75.84,0.4302,0.9241,0.9827,0.9946,1,1,1,0.5698,0.8566,0.9140,0.9570
i_steps_1_5,illumination,1467,1392,75.44,0.7159,0.9380,0.9973,1.0000,1,1,1,0.2841,0.7614,0.8568,0.9284
i_steps_1_6,illumination,1564,1470,74.11,0.5497,0.9233,0.9885,0.9981,1,1,1,0.4503,0.8168,0.8901,0.9450
i_table_1_2,illumination,1279,1252,70.12,0.4875,0.9672,1.0000,1.0000,1,1,1,0.5125,0.8375,0.9025,0.9512
i_table_1_3,illumination,1268,1238,72.12,0.6968,0.9464,0.9984,0.9992,1,1,1,0.3032,0.7677,0.8606,0.9303
i_table_1_4,illumination,1208,1141,77.88,0.9915,0.9123,0.9950,0.9983,1,1,1,0.0085,0.6695,0.8017,0.9008
i_table_1_5,illumination,1199,1113,79.01,0.8051,0.9058,0.9975,1.0000,1,1,1,0.1949,0.7316,0.8390,0.9195
i_table_1_6,illumination,1481,1457,76.82,0.2538,0.9804,1.0000,1.0000,1,1,1,0.7462,0.9154,0.9492,0.9746
i_tools_1_2,illumination,1117,775,71.43,2.6512,0.5703,0.7860,0.9078,1,1,1,0.0000,0.1163,0.4698,0.7349
i_tools_1_3,illumination,1325,1241,66.76,1.0004,0.9011,0.9932,1.0000,1,1,1,0.0000,0.6665,0.7999,0.9000
i_tools_1_4,illumination,1161,894,76.74,2.7324,0.5900,0.8613,0.9423,1,1,1,0.0000,0.0892,0.4535,0.7268
i_tools_1_5,illumination,1251,1185,69.92,1.4040,0.8649,0.9952,1.0000,1,1,1,0.0000,0.5320,0.7192,0.8596
i_tools_1_6,illumination,1199,765,71.43,4.5536,0.2636,0.5271,0.7515,0,1,1,0.0000,0.0000,0.0893,0.5446
i_toy_1_2,illumination,1273,1161,80.09,0.4600,0.9002,0.9725,0.9929,1,1,1,0.5400,0.8467,0.9080,0.9540
i_toy_1_3,illumination,1116,1020,71.27,0.5525,0.8880,0.9651,0.9839,1,1,1,0.4475,0.8158,0.8895,0.9447
i_toy_1_4,illumination,1028,898,75.04,0.4662,0.8667,0.9786,0.9883,1,1,1,0.5338,0.8446,0.9068,0.9534
i_toy_1_5,illumination,981,816,86.53,0.9819,0.7982,0.9776,0.9929,1,1,1,0.0181,0.6727,0.8036,0.9018
i_toy_1_6,illumination,852,572,84.54,1.3489,0.6491,0.8545,0.9366,1,1,1,0.0000,0.5504,0.7302,0.8651
i_troulos_1_2,illumination,1234,1073,79.46,0.9696,0.8509,0.9692,0.9895,1,1,1,0.0304,0.6768,0.8061,0.9030
i_troulos_1_3,illumination,1078,965,73.48,2.5292,0.4072,0.8980,0.9898,1,1,1,0.0000,0.1569,0.4942,0.7471
i_troulos_1_4,illumination,1183,1115,70.68,0.5149,0.9298,0.9882,0.9949,1,1,1,0.4851,0.8284,0.8970,0.9485
i_troulos_1_5,illumination,1149,990,66.89,1.2210,0.8190,0.9513,0.9861,1,1,1,0.0000,0.5930,0.7558,0.8779
i_troulos_1_6,illumination,1136,1070,72.38,0.9387,0.8548,0.9974,1.0000,1,1,1,0.0613,0.6871,0.8123,0.9061
i_veggies_1_2,illumination,1575,1540,78.57,0.2597,0.9790,0.9994,1.0000,1,1,1,0.7403,0.9134,0.9481,0.9740
i_veggies_1_3,illumination,1287,1233,76.84,0.4903,0.9518,0.9992,1.0000,1,1,1,0.5097,0.8366,0.9019,0.9510
i_veggies_1_4,illumination,1365,1308,73.66,0.3153,0.9553,0.9971,1.0000,1,1,1,0.6847,0.8949,0.9369,0.9685
i_veggies_1_5,illumination,1220,1106,69.65,0.5048,0.9025,0.9943,0.9992,1,1,1,0.4952,0.8317,0.8990,0.9495
i_veggies_1_6,illumination,1177,1037,79.54,0.5268,0.8777,0.9881,0.9992,1,1,1,0.4732,0.8244,0.8946,0.9473
i_village_1_2,illumination,1234,1183,81.95,0.7896,0.9587,0.9968,1.0000,1,1,1,0.2104,0.7368,0.8421,0.9210
i_village_1_3,illumination,1226,1187,77.51,0.6758,0.9649,1.0000,1.0000,1,1,1,0.3242,0.7747,0.8648,0.9324
i_village_1_4,illumination,1249,1222,77.33,0.6556,0.9744,0.9992,1.0000,1,1,1,0.3444,0.7815,0.8689,0.9344
i_village_1_5,illumination,1421,1403,77.18,0.2283,0.9894,1.0000,1.0000,1,1,1,0.7717,0.9239,0.9543,0.9772
i_village_1_6,illumination,1212,1176,73.88,0.5003,0.9521,1.0000,1.0000,1,1,1,0.4997,0.8332,0.8999,0.9500
i_yellowtent_1_2,illumination,1741,1682,70.86,0.1310,0.9632,0.9931,0.9994,1,1,1,0.8690,0.9563,0.9738,0.9869
i_yellowtent_1_3,illumination,1506,1474,69.23,0.2256,0.9728,0.9993,1.0000,1,1,1,0.7744,0.9248,0.9549,0.9774
i_yellowtent_1_4,illumination,1337,1296,67.32,0.3601,0.9574,0.9993,1.0000,1,1,1,0.6399,0.8800,0.9280,0.9640
i_yellowtent_1_5,illumination,1457,1347,77.61,0.3358,0.9204,0.9849,0.9931,1,1,1,0.6642,0.8881,0.9328,0.9664
i_yellowtent_1_6,illumination,1338,1245,77.44,0.4724,0.9208,0.9888,0.9993,1,1,1,0.5276,0.8425,0.9055,0.9528
i_zion_1_2,illumination,1384,1370,71.76,0.4632,0.9819,1.0000,1.0000,1,1,1,0.5368,0.8456,0.9074,0.9537
i_zion_1_3,illumination,1150,1115,66.90,0.6346,0.9548,1.0000,1.0000,1,1,1,0.3654,0.7885,0.8731,0.9365
i_zion_1_4,illumination,1123,1046,66.47,0.5328,0.8976,0.9955,1.0000,1,1,1,0.4672,0.8224,0.8934,0.9467
i_zion_1_5,illumination,1135,1010,66.70,0.8767,0.8344,0.9727,0.9921,1,1,1,0.1233,0.7078,0.8247,0.9123
i_zion_1_6,illumination,1188,1033,68.32,0.7210,0.8148,0.9764,0.9983,1,1,1,0.2790,0.7597,0.8558,0.9279
v_abstract_1_2,viewpoint,1319,1282,71.76,0.4354,0.9682,0.9992,1.0000,1,1,1,0.5646,0.8549,0.9129,0.9565
v_abstract_1_3,viewpoint,1274,1223,67.41,0.6034,0.9529,0.9992,1.0000,1,1,1,0.3966,0.7989,0.8793,0.9397
v_abstract_1_4,viewpoint,906,854,67.38,1.0749,0.9327,0.9967,1.0000,1,1,1,0.0000,0.6417,0.7850,0.8925
v_abstract_1_5,viewpoint,1090,1042,66.93,0.7653,0.9514,0.9982,1.0000,1,1,1,0.2347,0.7449,0.8469,0.9235
v_abstract_1_6,viewpoint,844,789,67.26,1.4832,0.9254,0.9917,0.9988,1,1,1,0.0000,0.5056,0.7034,0.8517
v_adam_1_2,viewpoint,1268,1251,70.45,0.4154,0.9826,1.0000,1.0000,1,1,1,0.5846,0.8615,0.9169,0.9585
v_adam_1_3,viewpoint,1178,1153,66.69,0.3706,0.9779,1.0000,1.0000,1,1,1,0.6294,0.8765,0.9259,0.9629
v_adam_1_4,viewpoint,873,837,68.16,1.0830,0.9233,0.9989,1.0000,1,1,1,0.0000,0.6390,0.7834,0.8917
v_adam_1_5,viewpoint,1077,1050,67.44,0.4926,0.9573,1.0000,1.0000,1,1,1,0.5074,0.8358,0.9015,0.9507
v_adam_1_6,viewpoint,1097,1063,66.78,0.6327,0.9590,1.0000,1.0000,1,1,1,0.3673,0.7891,0.8735,0.9367
v_apprentices_1_2,viewpoint,1459,1452,71.40,0.1886,0.9952,1.0000,1.0000,1,1,1,0.8114,0.9371,0.9623,0.9811
v_apprentices_1_3,viewpoint,1261,1249,67.21,0.5408,0.9889,1.0000,1.0000,1,1,1,0.4592,0.8197,0.8918,0.9459
v_apprentices_1_4,viewpoint,1127,1100,67.18,0.5523,0.9769,1.0000,1.0000,1,1,1,0.4477,0.8159,0.8895,0.9448
v_apprentices_1_5,viewpoint,1067,1039,67.82,0.5665,0.9738,1.0000,1.0000,1,1,1,0.4335,0.8112,0.8867,0.9434
v_apprentices_1_6,viewpoint,1051,1030,68.20,0.4184,0.9800,1.0000,1.0000,1,1,1,0.5816,0.8605,0.9163,0.9582
v_azzola_1_2,viewpoint,1232,1113,72.81,0.4214,0.8994,0.9943,0.9984,1,1,1,0.5786,0.8595,0.9157,0.9579
v_azzola_1_3,viewpoint,1083,931,68.16,0.8892,0.8310,0.9843,1.0000,1,1,1,0.1108,0.7036,0.8222,0.9111
v_azzola_1_4,viewpoint,1241,1171,67.09,0.3569,0.9412,0.9960,1.0000,1,1,1,0.6431,0.8810,0.9286,0.9643
v_azzola_1_5,viewpoint,928,832,67.61,0.6831,0.8664,0.9817,0.9978,1,1,1,0.3169,0.7723,0.8634,0.9317
v_azzola_1_6,viewpoint,756,639,67.34,1.2904,0.8307,0.9775,0.9974,1,1,1,0.0000,0.5699,0.7419,0.8710
v_bark_1_2,viewpoint,899,878,70.52,0.6988,0.9711,1.0000,1.0000,1,1,1,0.3012,0.7671,0.8602,0.9301
v_bark_1_3,viewpoint,440,408,66.52,1.0780,0.9114,0.9932,1.0000,1,1,1,0.0000,0.6407,0.7844,0.8922
v_bark_1_4,viewpoint,323,313,66.41,0.8025,0.9598,0.9969,1.0000,1,1,1,0.1975,0.7325,0.8395,0.9198
v_bark_1_5,viewpoint,245,244,66.38,0.6637,0.9714,1.0000,1.0000,1,1,1,0.3363,0.7788,0.8673,0.9336
v_bark_1_6,viewpoint,0,0,71.56,inf,0.0000,0.0000,0.0000,0,0,0,0.0000,0.0000,0.0000,0.0000
v_bees_1_2,viewpoint,1381,1326,78.79,0.4135,0.9602,0.9957,1.0000,1,1,1,0.5865,0.8622,0.9173,0.9586
v_bees_1_3,viewpoint,1444,1426,76.97,0.2735,0.9882,1.0000,1.0000,1,1,1,0.7265,0.9088,0.9453,0.9727
v_bees_1_4,viewpoint,1258,1239,77.22,0.8263,0.9817,1.0000,1.0000,1,1,1,0.1737,0.7246,0.8347,0.9174
v_bees_1_5,viewpoint,1071,1034,70.65,1.0899,0.9570,0.9991,1.0000,1,1,1,0.0000,0.6367,0.7820,0.8910
v_bees_1_6,viewpoint,1167,1116,67.11,0.5914,0.9434,0.9906,1.0000,1,1,1,0.4086,0.8029,0.8817,0.9409
v_beyus_1_2,viewpoint,893,880,71.20,0.7827,0.9776,1.0000,1.0000,1,1,1,0.2173,0.7391,0.8435,0.9217
v_beyus_1_3,viewpoint,793,719,67.64,2.8055,0.8651,0.9924,1.0000,1,1,1,0.0000,0.0648,0.4389,0.7194
v_beyus_1_4,viewpoint,982,967,68.88,0.4785,0.9756,1.0000,1.0000,1,1,1,0.5215,0.8405,0.9043,0.9522
v_beyus_1_5,viewpoint,771,704,67.60,2.3175,0.8898,0.9896,1.0000,1,1,1,0.0000,0.2275,0.5365,0.7682
v_beyus_1_6,viewpoint,861,816,67.36,0.8039,0.9338,0.9988,1.0000,1,1,1,0.1961,0.7320,0.8392,0.9196
v_bip_1_2,viewpoint,892,887,73.17,0.2504,0.9944,1.0000,1.0000,1,1,1,0.7496,0.9165,0.9499,0.9750
v_bip_1_3,viewpoint,808,795,74.62,0.5573,0.9790,1.0000,1.0000,1,1,1,0.4427,0.8142,0.8885,0.9443
v_bip_1_4,viewpoint,841,832,67.45,0.2708,0.9857,1.0000,1.0000,1,1,1,0.7292,0.9097,0.9458,0.9729
v_bip_1_5,viewpoint,556,546,67.21,0.9151,0.9694,0.9964,1.0000,1,1,1,0.0849,0.6950,0.8170,0.9085
v_bip_1_6,viewpoint,452,443,67.41,1.1384,0.9668,1.0000,1.0000,1,1,1,0.0000,0.6205,0.7723,0.8862
v_bird_1_2,viewpoint,777,774,74.97,76.9445,0.0000,0.0000,0.0000,0,0,0,0.0000,0.0000,0.0000,0.0000
v_bird_1_3,viewpoint,794,772,70.19,84.4636,0.0000,0.0000,0.0000,0,0,0,0.0000,0.0000,0.0000,0.0000
v_bird_1_4,viewpoint,787,755,69.26,99.6057,0.0000,0.0000,0.0000,0,0,0,0.0000,0.0000,0.0000,0.0000
v_bird_1_5,viewpoint,759,682,71.17,85.8646,0.0000,0.0000,0.0013,0,0,0,0.0000,0.0000,0.0000,0.0000
v_bird_1_6,viewpoint,591,495,69.66,184.4045,0.0000,0.0000,0.0000,0,0,0,0.0000,0.0000,0.0000,0.0000
v_birdwoman_1_2,viewpoint,220,208,73.27,45.5963,0.0000,0.0000,0.0000,0,0,0,0.0000,0.0000,0.0000,0.0000
v_birdwoman_1_3,viewpoint,551,516,76.47,53.3200,0.0000,0.0000,0.0000,0,0,0,0.0000,0.0000,0.0000,0.0000
v_birdwoman_1_4,viewpoint,664,630,77.75,50.9266,0.0000,0.0000,0.0000,0,0,0,0.0000,0.0000,0.0000,0.0000
v_birdwoman_1_5,viewpoint,1005,966,79.96,52.8855,0.0000,0.0000,0.0000,0,0,0,0.0000,0.0000,0.0000,0.0000
v_birdwoman_1_6,viewpoint,571,542,80.82,51.8053,0.0000,0.0000,0.0000,0,0,0,0.0000,0.0000,0.0000,0.0000
v_blueprint_1_2,viewpoint,1182,1163,79.46,0.2299,0.9805,1.0000,1.0000,1,1,1,0.7701,0.9234,0.9540,0.9770
v_blueprint_1_3,viewpoint,1089,1041,75.64,0.1607,0.9568,1.0000,1.0000,1,1,1,0.8393,0.9464,0.9679,0.9839
v_blueprint_1_4,viewpoint,1073,1061,75.84,0.5962,0.9814,1.0000,1.0000,1,1,1,0.4038,0.8013,0.8808,0.9404
v_blueprint_1_5,viewpoint,893,883,76.52,0.7441,0.9888,1.0000,1.0000,1,1,1,0.2559,0.7520,0.8512,0.9256
v_blueprint_1_6,viewpoint,826,800,71.66,0.5973,0.9613,1.0000,1.0000,1,1,1,0.4027,0.8009,0.8805,0.9403
v_boat_1_2,viewpoint,1435,1297,71.65,0.3302,0.9059,0.9791,0.9965,1,1,1,0.6698,0.8899,0.9340,0.9670
v_boat_1_3,viewpoint,979,955,67.85,0.2817,0.9755,1.0000,1.0000,1,1,1,0.7183,0.9061,0.9437,0.9718
v_boat_1_4,viewpoint,831,818,67.69,0.4887,0.9807,1.0000,1.0000,1,1,1,0.5113,0.8371,0.9023,0.9511
v_boat_1_5,viewpoint,742,716,69.00,0.7148,0.9542,0.9960,1.0000,1,1,1,0.2852,0.7617,0.8570,0.9285
v_boat_1_6,viewpoint,569,551,67.53,1.0992,0.9561,1.0000,1.0000,1,1,1,0.0000,0.6336,0.7802,0.8901
v_bricks_1_2,viewpoint,1499,1462,70.46,33.4338,0.0007,0.0113,0.0367,0,0,0,0.0000,0.0000,0.0000,0.0000
v_bricks_1_3,viewpoint,1425,1384,66.57,31.8864,0.0014,0.0091,0.0351,0,0,0,0.0000,0.0000,0.0000,0.0000
v_bricks_1_4,viewpoint,1176,1142,66.61,30.7658,0.0000,0.0026,0.0162,0,0,0,0.0000,0.0000,0.0000,0.0000
v_bricks_1_5,viewpoint,1032,994,68.50,27.7689,0.0000,0.0029,0.0300,0,0,0,0.0000,0.0000,0.0000,0.0000
v_bricks_1_6,viewpoint,781,743,66.47,26.7776,0.0000,0.0000,0.0013,0,0,0,0.0000,0.0000,0.0000,0.0000
v_busstop_1_2,viewpoint,1134,1104,70.76,0.3471,0.9718,0.9991,1.0000,1,1,1,0.6529,0.8843,0.9306,0.9653
v_busstop_1_3,viewpoint,1002,942,67.82,0.5213,0.9411,0.9960,1.0000,1,1,1,0.4787,0.8262,0.8957,0.9479
v_busstop_1_4,viewpoint,1013,970,68.36,0.5067,0.9585,1.0000,1.0000,1,1,1,0.4933,0.8311,0.8987,0.9493
v_busstop_1_5,viewpoint,965,951,67.15,0.4549,0.9845,1.0000,1.0000,1,1,1,0.5451,0.8484,0.9090,0.9545
v_busstop_1_6,viewpoint,1174,1157,67.16,0.3234,0.9864,1.0000,1.0000,1,1,1,0.6766,0.8922,0.9353,0.9677
v_calder_1_2,viewpoint,1019,1012,71.48,0.4876,0.9853,1.0000,1.0000,1,1,1,0.5124,0.8375,0.9025,0.9512
v_calder_1_3,viewpoint,1236,1214,67.53,0.2258,0.9830,0.9992,1.0000,1,1,1,0.7742,0.9247,0.9548,0.9774
v_calder_1_4,viewpoint,851,839,67.17,0.8820,0.9812,1.0000,1.0000,1,1,1,0.1180,0.7060,0.8236,0.9118
v_calder_1_5,viewpoint,728,718,67.19,0.2630,0.9849,1.0000,1.0000,1,1,1,0.7370,0.9123,0.9474,0.9737
v_calder_1_6,viewpoint,662,644,66.94,0.6118,0.9743,1.0000,1.0000,1,1,1,0.3882,0.7961,0.8776,0.9388
v_cartooncity_1_2,viewpoint,1319,1247,69.35,62.2625,0.0000,0.0000,0.0015,0,0,0,0.0000,0.0000,0.0000,0.0000
v_cartooncity_1_3,viewpoint,902,801,66.45,66.3862,0.0000,0.0000,0.0000,0,0,0,0.0000,0.0000,0.0000,0.0000
v_cartooncity_1_4,viewpoint,1218,1090,66.22,74.2330,0.0000,0.0008,0.0016,0,0,0,0.0000,0.0000,0.0000,0.0000
v_cartooncity_1_5,viewpoint,1031,922,66.39,76.0069,0.0000,0.0000,0.0000,0,0,0,0.0000,0.0000,0.0000,0.0000
v_cartooncity_1_6,viewpoint,839,767,66.12,70.2354,0.0000,0.0000,0.0000,0,0,0,0.0000,0.0000,0.0000,0.0000
v_charing_1_2,viewpoint,848,706,70.49,5.9079,0.7476,0.9387,0.9894,0,0,1,0.0000,0.0000,0.0000,0.4092
v_charing_1_3,viewpoint,654,498,67.26,14.3554,0.6284,0.8930,0.9679,0,0,0,0.0000,0.0000,0.0000,0.0000
v_charing_1_4,viewpoint,769,623,67.59,13.3813,0.7737,0.9675,0.9974,0,0,0,0.0000,0.0000,0.0000,0.0000
v_charing_1_5,viewpoint,753,609,67.43,68.9190,0.7583,0.9495,0.9894,0,0,0,0.0000,0.0000,0.0000,0.0000
v_charing_1_6,viewpoint,753,572,67.29,177.3581,0.7317,0.9628,0.9920,0,0,0,0.0000,0.0000,0.0000,0.0000
v_churchill_1_2,viewpoint,1175,1084,72.65,1.1908,0.9234,0.9991,1.0000,1,1,1,0.0000,0.6031,0.7618,0.8809
v_churchill_1_3,viewpoint,1026,935,67.46,1.3133,0.9094,0.9951,1.0000,1,1,1,0.0000,0.5622,0.7373,0.8687
v_churchill_1_4,viewpoint,1039,989,67.46,1.1821,0.9423,0.9981,1.0000,1,1,1,0.0000,0.6060,0.7636,0.8818
v_churchill_1_5,viewpoint,1428,1394,67.51,0.2517,0.9755,1.0000,1.0000,1,1,1,0.7483,0.9161,0.9497,0.9748
v_churchill_1_6,viewpoint,911,844,67.40,2.0651,0.9265,0.9989,1.0000,1,1,1,0.0000,0.3116,0.5870,0.7935
v_circus_1_2,viewpoint,1053,1050,70.64,0.5298,0.9953,1.0000,1.0000,1,1,1,0.4702,0.8234,0.8940,0.9470
v_circus_1_3,viewpoint,1048,982,67.27,0.6998,0.9370,0.9981,1.0000,1,1,1,0.3002,0.7667,0.8600,0.9300
v_circus_1_4,viewpoint,934,810,67.29,1.3635,0.8662,0.9839,1.0000,1,1,1,0.0000,0.5455,0.7273,0.8636
v_circus_1_5,viewpoint,1098,1061,67.31,0.4028,0.9663,0.9982,1.0000,1,1,1,0.5972,0.8657,0.9194,0.9597
v_circus_1_6,viewpoint,919,873,69.29,0.6039,0.9412,0.9967,0.9989,1,1,1,0.3961,0.7987,0.8792,0.9396
v_coffeehouse_1_2,viewpoint,1075,1067,69.56,0.5443,0.9888,1.0000,1.0000,1,1,1,0.4557,0.8186,0.8911,0.9456
v_coffeehouse_1_3,viewpoint,1142,1122,66.16,0.4487,0.9807,0.9982,1.0000,1,1,1,0.5513,0.8504,0.9103,0.9551
v_coffeehouse_1_4,viewpoint,1037,981,66.01,0.6864,0.9450,0.9932,1.0000,1,1,1,0.3136,0.7712,0.8627,0.9314
v_coffeehouse_1_5,viewpoint,942,933,66.10,0.7003,0.9841,0.9989,1.0000,1,1,1,0.2997,0.7666,0.8599,0.9300
v_coffeehouse_1_6,viewpoint,846,780,66.45,2.3203,0.9243,0.9965,1.0000,1,1,1,0.0000,0.2266,0.5359,0.7680
v_colors_1_2,viewpoint,1263,1077,69.69,0.6570,0.8440,0.9660,0.9850,1,1,1,0.3430,0.7810,0.8686,0.9343
v_colors_1_3,viewpoint,1208,1037,66.61,1.1811,0.8526,0.9611,0.9909,1,1,1,0.0000,0.6063,0.7638,0.8819
v_colors_1_4,viewpoint,923,691,66.51,3.7151,0.7400,0.8841,0.9512,0,1,1,0.0000,0.0000,0.2570,0.6285
v_colors_1_5,viewpoint,16,14,66.07,53.7173,0.8750,0.9375,0.9375,0,0,0,0.0000,0.0000,0.0000,0.0000
v_colors_1_6,viewpoint,0,0,65.78,inf,0.0000,0.0000,0.0000,0,0,0,0.0000,0.0000,0.0000,0.0000
v_courses_1_2,viewpoint,1420,1390,70.20,0.7501,0.9761,1.0000,1.0000,1,1,1,0.2499,0.7500,0.8500,0.9250
v_courses_1_3,viewpoint,1182,1085,67.49,2.0666,0.9019,0.9932,1.0000,1,1,1,0.0000,0.3111,0.5867,0.7933
v_courses_1_4,viewpoint,1223,1164,67.21,1.1738,0.9313,0.9984,1.0000,1,1,1,0.0000,0.6087,0.7652,0.8826
v_courses_1_5,viewpoint,1011,922,67.19,2.5382,0.8773,0.9911,1.0000,1,1,1,0.0000,0.1539,0.4924,0.7462
v_courses_1_6,viewpoint,931,805,67.26,3.1243,0.8163,0.9807,0.9979,0,1,1,0.0000,0.0000,0.3751,0.6876
v_dirtywall_1_2,viewpoint,1185,1171,70.26,0.3455,0.9899,1.0000,1.0000,1,1,1,0.6545,0.8848,0.9309,0.9655
v_dirtywall_1_3,viewpoint,1062,1042,66.24,0.4024,0.9812,0.9981,1.0000,1,1,1,0.5976,0.8659,0.9195,0.9598
v_dirtywall_1_4,viewpoint,955,917,66.59,0.6513,0.9571,0.9969,0.9990,1,1,1,0.3487,0.7829,0.8697,0.9349
v_dirtywall_1_5,viewpoint,920,903,66.28,0.4861,0.9772,0.9989,0.9989,1,1,1,0.5139,0.8380,0.9028,0.9514
v_dirtywall_1_6,viewpoint,638,623,66.31,0.5184,0.9702,0.9984,0.9984,1,1,1,0.4816,0.8272,0.8963,0.9482
v_dogman_1_2,viewpoint,1245,1110,70.20,0.9886,0.8884,0.9671,0.9727,1,1,1,0.0114,0.6705,0.8023,0.9011
v_dogman_1_3,viewpoint,1343,1234,66.73,1.1235,0.9144,0.9583,0.9695,1,1,1,0.0000,0.6255,0.7753,0.8877
v_dogman_1_4,viewpoint,799,671,66.62,3.9613,0.8123,0.9524,0.9837,0,1,1,0.0000,0.0000,0.2077,0.6039
v_dogman_1_5,viewpoint,1077,955,67.13,1.6166,0.8886,0.9489,0.9684,1,1,1,0.0000,0.4611,0.6767,0.8383
v_dogman_1_6,viewpoint,674,546,66.74,24.5948,0.8056,0.9525,0.9748,0,0,0,0.0000,0.0000,0.0000,0.0000
v_eastsouth_1_2,viewpoint,1205,1197,71.08,0.2721,0.9942,1.0000,1.0000,1,1,1,0.7279,0.9093,0.9456,0.9728
v_eastsouth_1_3,viewpoint,901,894,68.17,0.2195,0.9933,1.0000,1.0000,1,1,1,0.7805,0.9268,0.9561,0.9781
v_eastsouth_1_4,viewpoint,745,733,68.72,0.3628,0.9785,1.0000,1.0000,1,1,1,0.6372,0.8791,0.9274,0.9637
v_eastsouth_1_5,viewpoint,563,561,67.39,0.4026,0.9982,1.0000,1.0000,1,1,1,0.5974,0.8658,0.9195,0.9597
v_eastsouth_1_6,viewpoint,428,425,67.48,0.5534,0.9907,1.0000,1.0000,1,1,1,0.4466,0.8155,0.8893,0.9447
v_feast_1_2,viewpoint,996,980,70.40,0.3305,0.9809,1.0000,1.0000,1,1,1,0.6695,0.8898,0.9339,0.9669
v_feast_1_3,viewpoint,1104,1071,67.02,0.3483,0.9674,0.9991,1.0000,1,1,1,0.6517,0.8839,0.9303,0.9652
v_feast_1_4,viewpoint,845,805,67.19,0.9776,0.9325,0.9964,1.0000,1,1,1,0.0224,0.6741,0.8045,0.9022
v_feast_1_5,viewpoint,993,961,67.11,0.6017,0.9637,0.9990,1.0000,1,1,1,0.3983,0.7994,0.8797,0.9398
v_feast_1_6,viewpoint,888,852,67.11,0.4115,0.9516,0.9966,1.0000,1,1,1,0.5885,0.8628,0.9177,0.9589
v_fest_1_2,viewpoint,1198,1174,70.70,0.3878,0.9791,1.0000,1.0000,1,1,1,0.6122,0.8707,0.9224,0.9612
v_fest_1_3,viewpoint,942,877,67.43,1.0427,0.9246,0.9979,1.0000,1,1,1,0.0000,0.6524,0.7915,0.8957
v_fest_1_4,viewpoint,952,904,67.23,0.5231,0.9475,0.9989,1.0000,1,1,1,0.4769,0.8256,0.8954,0.9477
v_fest_1_5,viewpoint,946,876,67.75,1.1254,0.9281,0.9958,1.0000,1,1,1,0.0000,0.6249,0.7749,0.8875
v_fest_1_6,viewpoint,842,766,67.38,1.3335,0.9038,0.9976,1.0000,1,1,1,0.0000,0.5555,0.7333,0.8667
v_gardens_1_2,viewpoint,1111,1069,70.49,0.4673,0.9586,0.9982,1.0000,1,1,1,0.5327,0.8442,0.9065,0.9533
v_gardens_1_3,viewpoint,745,665,67.33,4.8078,0.8416,0.9745,0.9946,0,1,1,0.0000,0.0000,0.0384,0.5192
v_gardens_1_4,viewpoint,1224,1186,67.39,0.4541,0.9681,0.9992,1.0000,1,1,1,0.5459,0.8486,0.9092,0.9546
v_gardens_1_5,viewpoint,828,757,67.00,1.0699,0.9094,1.0000,1.0000,1,1,1,0.0000,0.6434,0.7860,0.8930
v_gardens_1_6,viewpoint,1211,1190,67.45,0.3920,0.9818,1.0000,1.0000,1,1,1,0.6080,0.8693,0.9216,0.9608
v_grace_1_2,viewpoint,1288,1227,69.47,0.5528,0.9464,0.9977,1.0000,1,1,1,0.4472,0.8157,0.8894,0.9447
v_grace_1_3,viewpoint,1166,1110,66.47,1.0956,0.9348,0.9983,1.0000,1,1,1,0.0000,0.6348,0.7809,0.8904
v_grace_1_4,viewpoint,1085,1016,66.40,1.7278,0.9226,0.9945,0.9991,1,1,1,0.0000,0.4241,0.6544,0.8272
v_grace_1_5,viewpoint,921,871,66.12,1.1332,0.9305,0.9978,1.0000,1,1,1,0.0000,0.6223,0.7734,0.8867
v_grace_1_6,viewpoint,768,708,66.28,2.0224,0.9089,0.9909,1.0000,1,1,1,0.0000,0.3259,0.5955,0.7978
v_graffiti_1_2,viewpoint,1056,1039,71.16,0.4103,0.9773,1.0000,1.0000,1,1,1,0.5897,0.8632,0.9179,0.9590
v_graffiti_1_3,viewpoint,893,857,67.57,1.3949,0.9474,0.9989,1.0000,1,1,1,0.0000,0.5350,0.7210,0.8605
v_graffiti_1_4,viewpoint,768,712,67.96,1.3240,0.8685,0.9857,1.0000,1,1,1,0.0000,0.5587,0.7352,0.8676
v_graffiti_1_5,viewpoint,595,539,68.27,1.4320,0.8622,0.9613,0.9933,1,1,1,0.0000,0.5227,0.7136,0.8568
v_graffiti_1_6,viewpoint,525,444,69.71,2.1271,0.7619,0.9086,0.9867,1,1,1,0.0000,0.2910,0.5746,0.7873
v_home_1_2,viewpoint,900,858,70.90,0.4085,0.9456,0.9978,0.9989,1,1,1,0.5915,0.8638,0.9183,0.9592
v_home_1_3,viewpoint,892,854,67.37,1.0155,0.9451,0.9966,1.0000,1,1,1,0.0000,0.6615,0.7969,0.8985
v_home_1_4,viewpoint,844,837,66.91,0.5699,0.9870,1.0000,1.0000,1,1,1,0.4301,0.8100,0.8860,0.9430
v_home_1_5,viewpoint,868,816,67.10,5.0443,0.8917,0.9827,0.9977,0,0,1,0.0000,0.0000,0.0000,0.4956
v_home_1_6,viewpoint,883,858,67.29,0.5629,0.9706,1.0000,1.0000,1,1,1,0.4371,0.8124,0.8874,0.9437
v_laptop_1_2,viewpoint,1380,1366,70.65,0.4051,0.9891,1.0000,1.0000,1,1,1,0.5949,0.8650,0.9190,0.9595
v_laptop_1_3,viewpoint,988,969,67.85,0.5107,0.9696,0.9990,0.9990,1,1,1,0.4893,0.8298,0.8979,0.9489
v_laptop_1_4,viewpoint,880,855,67.27,1.0056,0.9534,0.9989,1.0000,1,1,1,0.0000,0.6648,0.7989,0.8994
v_laptop_1_5,viewpoint,893,873,67.49,0.8666,0.9653,1.0000,1.0000,1,1,1,0.1334,0.7111,0.8267,0.9133
v_laptop_1_6,viewpoint,997,982,67.51,0.5970,0.9769,1.0000,1.0000,1,1,1,0.4030,0.8010,0.8806,0.9403
v_london_1_2,viewpoint,1230,1207,69.81,0.3640,0.9789,0.9992,1.0000,1,1,1,0.6360,0.8787,0.9272,0.9636
v_london_1_3,viewpoint,1162,1140,71.27,0.6490,0.9785,1.0000,1.0000,1,1,1,0.3510,0.7837,0.8702,0.9351
v_london_1_4,viewpoint,1078,1038,77.53,0.5261,0.9629,0.9972,1.0000,1,1,1,0.4739,0.8246,0.8948,0.9474
v_london_1_5,viewpoint,1252,1228,76.83,0.5872,0.9792,1.0000,1.0000,1,1,1,0.4128,0.8043,0.8826,0.9413
v_london_1_6,viewpoint,1291,1265,75.99,0.2197,0.9806,0.9992,0.9992,1,1,1,0.7803,0.9268,0.9561,0.9780
v_machines_1_2,viewpoint,1191,1143,73.54,0.5758,0.9589,1.0000,1.0000,1,1,1,0.4242,0.8081,0.8848,0.9424
v_machines_1_3,viewpoint,1017,904,69.24,3.2387,0.8181,0.9656,0.9990,0,1,1,0.0000,0.0000,0.3523,0.6761
v_machines_1_4,viewpoint,1121,1109,67.36,0.6650,0.9893,1.0000,1.0000,1,1,1,0.3350,0.7783,0.8670,0.9335
v_machines_1_5,viewpoint,1003,937,67.42,1.8714,0.9073,0.9980,1.0000,1,1,1,0.0000,0.3762,0.6257,0.8129
v_machines_1_6,viewpoint,1081,1071,67.79,0.3645,0.9861,1.0000,1.0000,1,1,1,0.6355,0.8785,0.9271,0.9635
v_man_1_2,viewpoint,1110,1024,71.90,2.2998,0.9108,0.9883,1.0000,1,1,1,0.0000,0.2334,0.5400,0.7700
v_man_1_3,viewpoint,855,777,67.81,3.9150,0.8433,0.9825,0.9965,0,1,1,0.0000,0.0000,0.2170,0.6085
v_man_1_4,viewpoint,935,836,67.60,3.5268,0.8449,0.9733,1.0000,0,1,1,0.0000,0.0000,0.2946,0.6473
v_man_1_5,viewpoint,1132,1055,72.51,2.3050,0.8816,0.9965,1.0000,1,1,1,0.0000,0.2317,0.5390,0.7695
v_man_1_6,viewpoint,1070,978,77.60,2.4254,0.9000,0.9907,1.0000,1,1,1,0.0000,0.1915,0.5149,0.7575
v_maskedman_1_2,viewpoint,1069,1025,72.87,0.8685,0.9551,1.0000,1.0000,1,1,1,0.1315,0.7105,0.8263,0.9131
v_maskedman_1_3,viewpoint,960,903,66.66,1.7843,0.9000,0.9875,0.9969,1,1,1,0.0000,0.4052,0.6431,0.8216
v_maskedman_1_4,viewpoint,1061,1015,70.37,1.5974,0.9406,0.9981,1.0000,1,1,1,0.0000,0.4675,0.6805,0.8403
v_maskedman_1_5,viewpoint,1092,1069,75.97,1.5460,0.9661,0.9991,1.0000,1,1,1,0.0000,0.4847,0.6908,0.8454
v_maskedman_1_6,viewpoint,536,470,71.05,3.5558,0.8302,0.9851,0.9925,0,1,1,0.0000,0.0000,0.2888,0.6444
v_pomegranate_1_2,viewpoint,1263,1194,79.30,0.4801,0.9470,0.9992,1.0000,1,1,1,0.5199,0.8400,0.9040,0.9520
v_pomegranate_1_3,viewpoint,1185,1125,76.68,1.3203,0.9342,0.9907,0.9992,1,1,1,0.0000,0.5599,0.7359,0.8680
v_pomegranate_1_4,viewpoint,1108,1075,67.71,0.6397,0.9585,0.9991,1.0000,1,1,1,0.3603,0.7868,0.8721,0.9360
v_pomegranate_1_5,viewpoint,1167,1138,67.29,0.8330,0.9709,0.9991,1.0000,1,1,1,0.1670,0.7223,0.8334,0.9167
v_pomegranate_1_6,viewpoint,1231,1203,66.77,0.3733,0.9732,1.0000,1.0000,1,1,1,0.6267,0.8756,0.9253,0.9627
v_posters_1_2,viewpoint,756,752,77.79,115.3752,0.0000,0.0000,0.0000,0,0,0,0.0000,0.0000,0.0000,0.0000
v_posters_1_3,viewpoint,950,946,76.31,120.7585,0.0000,0.0000,0.0000,0,0,0,0.0000,0.0000,0.0000,0.0000
v_posters_1_4,viewpoint,890,883,76.55,112.7243,0.0000,0.0000,0.0000,0,0,0,0.0000,0.0000,0.0000,0.0000
v_posters_1_5,viewpoint,765,746,70.92,124.6203,0.0000,0.0000,0.0000,0,0,0,0.0000,0.0000,0.0000,0.0000
v_posters_1_6,viewpoint,793,745,70.59,147.7754,0.0000,0.0000,0.0000,0,0,0,0.0000,0.0000,0.0000,0.0000
v_samples_1_2,viewpoint,1085,1071,76.65,68.2051,0.0000,0.0000,0.0000,0,0,0,0.0000,0.0000,0.0000,0.0000
v_samples_1_3,viewpoint,1109,1093,81.55,72.6562,0.0000,0.0000,0.0000,0,0,0,0.0000,0.0000,0.0000,0.0000
v_samples_1_4,viewpoint,1026,1012,80.16,71.7260,0.0000,0.0000,0.0029,0,0,0,0.0000,0.0000,0.0000,0.0000
v_samples_1_5,viewpoint,1051,1045,75.68,80.6734,0.0000,0.0000,0.0000,0,0,0,0.0000,0.0000,0.0000,0.0000
v_samples_1_6,viewpoint,984,960,75.55,66.9336,0.0000,0.0000,0.0030,0,0,0,0.0000,0.0000,0.0000,0.0000
v_soldiers_1_2,viewpoint,1192,1127,74.98,0.9370,0.9404,0.9950,1.0000,1,1,1,0.0630,0.6877,0.8126,0.9063
v_soldiers_1_3,viewpoint,1017,933,72.19,2.2847,0.9095,0.9872,0.9980,1,1,1,0.0000,0.2384,0.5431,0.7715
v_soldiers_1_4,viewpoint,818,758,68.52,1.8724,0.9205,0.9914,0.9963,1,1,1,0.0000,0.3759,0.6255,0.8128
v_soldiers_1_5,viewpoint,637,541,67.28,4.1587,0.7991,0.9702,0.9906,0,1,1,0.0000,0.0000,0.1683,0.5841
v_soldiers_1_6,viewpoint,1073,1046,68.25,96.8094,0.0000,0.0000,0.0000,0,0,0,0.0000,0.0000,0.0000,0.0000
v_strand_1_2,viewpoint,1503,1471,71.90,0.1530,0.9794,1.0000,1.0000,1,1,1,0.8470,0.9490,0.9694,0.9847
v_strand_1_3,viewpoint,1247,1110,70.40,0.5836,0.8669,0.9912,1.0000,1,1,1,0.4164,0.8055,0.8833,0.9416
v_strand_1_4,viewpoint,1240,1149,69.00,2.4077,0.9113,0.9944,0.9992,1,1,1,0.0000,0.1974,0.5185,0.7592
v_strand_1_5,viewpoint,1286,1213,68.13,2.6407,0.8841,0.9953,0.9992,1,1,1,0.0000,0.1198,0.4719,0.7359
v_strand_1_6,viewpoint,1183,1080,67.38,4.6648,0.8385,0.9620,0.9975,0,1,1,0.0000,0.0000,0.0670,0.5335
v_sunseason_1_2,viewpoint,1614,1451,70.13,0.2919,0.9009,0.9616,0.9851,1,1,1,0.7081,0.9027,0.9416,0.9708
v_sunseason_1_3,viewpoint,1368,1269,66.48,0.2451,0.9262,0.9846,0.9978,1,1,1,0.7549,0.9183,0.9510,0.9755
v_sunseason_1_4,viewpoint,868,838,66.75,0.5384,0.9631,1.0000,1.0000,1,1,1,0.4616,0.8205,0.8923,0.9462
v_sunseason_1_5,viewpoint,829,789,67.44,1.1702,0.9361,0.9928,0.9988,1,1,1,0.0000,0.6099,0.7660,0.8830
v_sunseason_1_6,viewpoint,683,633,66.41,0.5290,0.9268,0.9941,0.9985,1,1,1,0.4710,0.8237,0.8942,0.9471
v_tabletop_1_2,viewpoint,1024,1015,72.84,0.3631,0.9844,1.0000,1.0000,1,1,1,0.6369,0.8790,0.9274,0.9637
v_tabletop_1_3,viewpoint,797,775,67.29,0.4789,0.9611,1.0000,1.0000,1,1,1,0.5211,0.8404,0.9042,0.9521
v_tabletop_1_4,viewpoint,765,739,67.32,0.5235,0.9529,1.0000,1.0000,1,1,1,0.4765,0.8255,0.8953,0.9476
v_tabletop_1_5,viewpoint,799,762,67.29,0.5955,0.9387,0.9987,1.0000,1,1,1,0.4045,0.8015,0.8809,0.9404
v_tabletop_1_6,viewpoint,759,728,67.45,0.5965,0.9499,1.0000,1.0000,1,1,1,0.4035,0.8012,0.8807,0.9403
v_tempera_1_2,viewpoint,1075,1053,70.60,0.3727,0.9767,1.0000,1.0000,1,1,1,0.6273,0.8758,0.9255,0.9627
v_tempera_1_3,viewpoint,1136,1111,67.37,0.5054,0.9780,1.0000,1.0000,1,1,1,0.4946,0.8315,0.8989,0.9495
v_tempera_1_4,viewpoint,1024,1007,67.48,1.0737,0.9492,1.0000,1.0000,1,1,1,0.0000,0.6421,0.7853,0.8926
v_tempera_1_5,viewpoint,973,941,67.19,1.1632,0.9373,1.0000,1.0000,1,1,1,0.0000,0.6123,0.7674,0.8837
v_tempera_1_6,viewpoint,794,737,66.99,2.6979,0.8841,0.9937,0.9962,1,1,1,0.0000,0.1007,0.4604,0.7302
v_there_1_2,viewpoint,1132,1080,69.62,1.0504,0.9479,1.0000,1.0000,1,1,1,0.0000,0.6499,0.7899,0.8950
v_there_1_3,viewpoint,395,382,66.28,1.6717,0.9114,0.9975,1.0000,1,1,1,0.0000,0.4428,0.6657,0.8328
v_there_1_4,viewpoint,209,206,66.24,1.9529,0.9282,0.9952,1.0000,1,1,1,0.0000,0.3490,0.6094,0.8047
v_there_1_5,viewpoint,100,95,66.33,1.9167,0.9200,1.0000,1.0000,1,1,1,0.0000,0.3611,0.6167,0.8083
v_there_1_6,viewpoint,0,0,65.74,inf,0.0000,0.0000,0.0000,0,0,0,0.0000,0.0000,0.0000,0.0000
v_underground_1_2,viewpoint,1428,1394,69.82,0.1927,0.9755,1.0000,1.0000,1,1,1,0.8073,0.9358,0.9615,0.9807
v_underground_1_3,viewpoint,1253,1236,66.36,0.4193,0.9840,0.9992,1.0000,1,1,1,0.5807,0.8602,0.9161,0.9581
v_underground_1_4,viewpoint,955,921,66.16,1.0215,0.9613,1.0000,1.0000,1,1,1,0.0000,0.6595,0.7957,0.8978
v_underground_1_5,viewpoint,898,836,68.89,1.5444,0.9254,0.9967,0.9989,1,1,1,0.0000,0.4852,0.6911,0.8456
v_underground_1_6,viewpoint,707,608,66.52,4.7192,0.8175,0.9816,0.9958,0,1,1,0.0000,0.0000,0.0562,0.5281
v_vitro_1_2,viewpoint,1479,1405,70.74,0.2613,0.9500,0.9953,1.0000,1,1,1,0.7387,0.9129,0.9477,0.9739
v_vitro_1_3,viewpoint,1335,1265,67.44,0.1199,0.9438,0.9940,1.0000,1,1,1,0.8801,0.9600,0.9760,0.9880
v_vitro_1_4,viewpoint,1230,1079,67.58,0.5292,0.8732,0.9846,0.9976,1,1,1,0.4708,0.8236,0.8942,0.9471
v_vitro_1_5,viewpoint,1280,1225,67.82,0.3055,0.9547,0.9984,1.0000,1,1,1,0.6945,0.8982,0.9389,0.9695
v_vitro_1_6,viewpoint,1201,1113,76.15,0.4032,0.9176,0.9958,0.9992,1,1,1,0.5968,0.8656,0.9194,0.9597
v_wall_1_2,viewpoint,1337,1304,77.41,0.3771,0.9731,1.0000,1.0000,1,1,1,0.6229,0.8743,0.9246,0.9623
v_wall_1_3,viewpoint,1203,1115,70.33,2.4518,0.9002,0.9842,0.9992,1,1,1,0.0000,0.1827,0.5096,0.7548
v_wall_1_4,viewpoint,1289,1275,66.12,0.2452,0.9876,0.9977,0.9977,1,1,1,0.7548,0.9183,0.9510,0.9755
v_wall_1_5,viewpoint,1104,1040,65.80,1.2385,0.9303,0.9918,0.9982,1,1,1,0.0000,0.5872,0.7523,0.8761
v_wall_1_6,viewpoint,1106,973,65.97,4.1068,0.8463,0.9693,0.9919,0,1,1,0.0000,0.0000,0.1786,0.5893
v_wapping_1_2,viewpoint,1101,1003,70.95,0.3827,0.9028,0.9918,1.0000,1,1,1,0.6173,0.8724,0.9235,0.9617
v_wapping_1_3,viewpoint,964,837,67.78,1.7877,0.8506,0.9689,0.9907,1,1,1,0.0000,0.4041,0.6425,0.8212
v_wapping_1_4,viewpoint,913,792,67.17,1.2000,0.8609,0.9912,0.9989,1,1,1,0.0000,0.6000,0.7600,0.8800
v_wapping_1_5,viewpoint,696,644,67.32,0.9165,0.9181,0.9971,0.9986,1,1,1,0.0835,0.6945,0.8167,0.9084
v_wapping_1_6,viewpoint,552,519,67.07,3.9807,0.8678,0.9783,0.9982,0,1,1,0.0000,0.0000,0.2039,0.6019
v_war_1_2,viewpoint,934,854,70.55,1.1057,0.9069,0.9979,1.0000,1,1,1,0.0000,0.6314,0.7789,0.8894
v_war_1_3,viewpoint,864,775,67.53,2.6189,0.8530,0.9931,1.0000,1,1,1,0.0000,0.1270,0.4762,0.7381
v_war_1_4,viewpoint,1119,1113,67.55,0.4221,0.9946,1.0000,1.0000,1,1,1,0.5779,0.8593,0.9156,0.9578
v_war_1_5,viewpoint,1082,1058,67.30,0.6813,0.9760,1.0000,1.0000,1,1,1,0.3187,0.7729,0.8637,0.9319
v_war_1_6,viewpoint,886,792,67.38,2.7546,0.8228,0.9887,1.0000,1,1,1,0.0000,0.0818,0.4491,0.7245
v_weapons_1_2,viewpoint,1270,1248,70.83,0.7396,0.9756,1.0000,1.0000,1,1,1,0.2604,0.7535,0.8521,0.9260
v_weapons_1_3,viewpoint,1070,1042,67.48,0.5837,0.9701,1.0000,1.0000,1,1,1,0.4163,0.8054,0.8833,0.9416
v_weapons_1_4,viewpoint,1097,1007,67.42,0.8739,0.9134,0.9982,1.0000,1,1,1,0.1261,0.7087,0.8252,0.9126
v_weapons_1_5,viewpoint,1274,1258,67.32,1.1664,0.9749,0.9984,1.0000,1,1,1,0.0000,0.6112,0.7667,0.8834
v_weapons_1_6,viewpoint,1196,1181,67.43,1.3234,0.9565,0.9992,0.9992,1,1,1,0.0000,0.5589,0.7353,0.8677
v_woman_1_2,viewpoint,713,689,71.75,46.0856,0.0000,0.0000,0.0000,0,0,0,0.0000,0.0000,0.0000,0.0000
v_woman_1_3,viewpoint,898,879,67.12,49.4762,0.0000,0.0000,0.0000,0,0,0,0.0000,0.0000,0.0000,0.0000
v_woman_1_4,viewpoint,858,814,67.27,50.1039,0.0000,0.0000,0.0000,0,0,0,0.0000,0.0000,0.0000,0.0000
v_woman_1_5,viewpoint,600,581,66.91,44.2059,0.0000,0.0000,0.0000,0,0,0,0.0000,0.0000,0.0000,0.0000
v_woman_1_6,viewpoint,688,658,66.80,48.8809,0.0000,0.0000,0.0000,0,0,0,0.0000,0.0000,0.0000,0.0000
v_wormhole_1_2,viewpoint,959,940,70.02,0.3835,0.9729,0.9979,1.0000,1,1,1,0.6165,0.8722,0.9233,0.9616
v_wormhole_1_3,viewpoint,1221,1186,65.73,0.1882,0.9705,0.9992,1.0000,1,1,1,0.8118,0.9373,0.9624,0.9812
v_wormhole_1_4,viewpoint,1271,1242,65.80,0.3492,0.9764,0.9992,1.0000,1,1,1,0.6508,0.8836,0.9302,0.9651
v_wormhole_1_5,viewpoint,932,864,65.97,3.6652,0.9067,0.9925,0.9989,0,1,1,0.0000,0.0000,0.2670,0.6335
v_wormhole_1_6,viewpoint,674,552,65.89,7.8595,0.8145,0.9614,0.9896,0,0,0,0.0000,0.0000,0.0000,0.2141
v_wounded_1_2,viewpoint,1350,1305,70.58,0.5683,0.9630,0.9978,1.0000,1,1,1,0.4317,0.8106,0.8863,0.9432
v_wounded_1_3,viewpoint,1022,879,67.62,15.9494,0.7573,0.9178,0.9569,0,0,0,0.0000,0.0000,0.0000,0.0000
v_wounded_1_4,viewpoint,664,560,67.28,16.2833,0.8027,0.9548,0.9849,0,0,0,0.0000,0.0000,0.0000,0.0000
v_wounded_1_5,viewpoint,1035,906,67.50,5.5633,0.7884,0.9556,0.9942,0,0,1,0.0000,0.0000,0.0000,0.4437
v_wounded_1_6,viewpoint,746,645,67.25,2.3740,0.8432,0.9812,0.9973,1,1,1,0.0000,0.2087,0.5252,0.7626
v_yard_1_2,viewpoint,1137,1115,70.88,0.2837,0.9771,1.0000,1.0000,1,1,1,0.7163,0.9054,0.9433,0.9716
v_yard_1_3,viewpoint,729,593,67.20,1.7782,0.7942,0.9849,1.0000,1,1,1,0.0000,0.4073,0.6444,0.8222
v_yard_1_4,viewpoint,1015,995,66.71,0.2627,0.9783,1.0000,1.0000,1,1,1,0.7373,0.9124,0.9475,0.9737
v_yard_1_5,viewpoint,906,832,66.98,0.9010,0.9073,0.9912,0.9989,1,1,1,0.0990,0.6997,0.8198,0.9099
v_yard_1_6,viewpoint,797,643,67.34,1.6807,0.7829,0.9812,0.9987,1,1,1,0.0000,0.4398,0.6639,0.8319
v_yuri_1_2,viewpoint,1333,1309,71.19,1.0597,0.9752,1.0000,1.0000,1,1,1,0.0000,0.6468,0.7881,0.8940
v_yuri_1_3,viewpoint,1079,933,67.96,2.9582,0.8489,0.9898,1.0000,1,1,1,0.0000,0.0139,0.4084,0.7042
v_yuri_1_4,viewpoint,862,696,68.01,21.7202,0.7738,0.9617,0.9942,0,0,0,0.0000,0.0000,0.0000,0.0000
v_yuri_1_5,viewpoint,1087,969,67.97,1.9504,0.8740,0.9936,0.9991,1,1,1,0.0000,0.3499,0.6099,0.8050
v_yuri_1_6,viewpoint,930,777,67.41,1.9779,0.8183,0.9774,0.9968,1,1,1,0.0000,0.3407,0.6044,0.8022
