PairName,SeqType,NumMatches,Inliers,TimeMS,H_Error,MMA@3,MMA@5,MMA@7,MHA_Acc@3,MHA_Acc@5,MHA_Acc@7,AUC@1,AUC@3,AUC@5,AUC@10
i_ajuntament_1_2,illumination,942,862,251.89,0.3034,0.9087,0.9522,0.9756,1,1,1,0.6966,0.8989,0.9393,0.9697
i_ajuntament_1_3,illumination,752,581,6.08,1.1250,0.7527,0.8590,0.9016,1,1,1,0.0000,0.6250,0.7750,0.8875
i_ajuntament_1_4,illumination,519,273,5.78,0.9291,0.5164,0.6570,0.7341,1,1,1,0.0709,0.6903,0.8142,0.9071
i_ajuntament_1_5,illumination,522,271,5.53,0.9567,0.5172,0.6513,0.7261,1,1,1,0.0433,0.6811,0.8087,0.9043
i_ajuntament_1_6,illumination,540,289,5.89,1.5314,0.5185,0.6796,0.7685,1,1,1,0.0000,0.4895,0.6937,0.8469
i_autannes_1_2,illumination,984,870,13.41,0.4358,0.8841,0.9360,0.9624,1,1,1,0.5642,0.8547,0.9128,0.9564
i_autannes_1_3,illumination,907,760,7.24,0.3394,0.8368,0.9063,0.9338,1,1,1,0.6606,0.8869,0.9321,0.9661
i_autannes_1_4,illumination,1000,735,7.58,1.2868,0.7250,0.8310,0.8880,1,1,1,0.0000,0.5711,0.7426,0.8713
i_autannes_1_5,illumination,979,738,7.46,1.1820,0.7508,0.8417,0.8907,1,1,1,0.0000,0.6060,0.7636,0.8818
i_autannes_1_6,illumination,980,833,6.31,0.8593,0.8429,0.9143,0.9429,1,1,1,0.1407,0.7136,0.8281,0.9141
i_bologna_1_2,illumination,719,671,11.10,0.3470,0.9360,0.9666,0.9805,1,1,1,0.6530,0.8843,0.9306,0.9653
i_bologna_1_3,illumination,672,595,4.65,0.0000,0.8869,0.9360,0.9554,1,1,1,1.0000,1.0000,1.0000,1.0000
i_bologna_1_4,illumination,692,614,4.81,0.8009,0.8887,0.9292,0.9538,1,1,1,0.1991,0.7330,0.8398,0.9199
i_bologna_1_5,illumination,709,638,4.98,0.9047,0.8956,0.9394,0.9563,1,1,1,0.0953,0.6984,0.8191,0.9095
i_bologna_1_6,illumination,700,611,4.87,1.3957,0.8714,0.9243,0.9543,1,1,1,0.0000,0.5348,0.7209,0.8604
i_books_1_2,illumination,600,569,4.81,0.0000,0.9500,0.9683,0.9733,1,1,1,1.0000,1.0000,1.0000,1.0000
i_books_1_3,illumination,784,722,5.23,0.3262,0.9209,0.9439,0.9566,1,1,1,0.6738,0.8913,0.9348,0.9674
i_books_1_4,illumination,786,735,5.18,0.0000,0.9364,0.9618,0.9733,1,1,1,1.0000,1.0000,1.0000,1.0000
i_books_1_5,illumination,782,730,5.30,0.0000,0.9348,0.9540,0.9642,1,1,1,1.0000,1.0000,1.0000,1.0000
i_books_1_6,illumination,669,625,4.98,0.0000,0.9342,0.9432,0.9537,1,1,1,1.0000,1.0000,1.0000,1.0000
i_boutique_1_2,illumination,1289,1184,7.63,0.2298,0.9131,0.9542,0.9643,1,1,1,0.7702,0.9234,0.9540,0.9770
i_boutique_1_3,illumination,1301,1143,8.90,0.3946,0.8663,0.9308,0.9608,1,1,1,0.6054,0.8685,0.9211,0.9605
i_boutique_1_4,illumination,1267,1100,8.39,0.3544,0.8548,0.9171,0.9440,1,1,1,0.6456,0.8819,0.9291,0.9646
i_boutique_1_5,illumination,1092,770,7.91,0.5688,0.6969,0.7995,0.8535,1,1,1,0.4312,0.8104,0.8862,0.9431
i_boutique_1_6,illumination,1049,749,8.14,0.5470,0.7054,0.8017,0.8475,1,1,1,0.4530,0.8177,0.8906,0.9453
i_bridger_1_2,illumination,1358,1190,14.65,0.5647,0.8652,0.9359,0.9705,1,1,1,0.4353,0.8118,0.8871,0.9435
i_bridger_1_3,illumination,1302,1052,7.17,0.0000,0.8149,0.9078,0.9386,1,1,1,1.0000,1.0000,1.0000,1.0000
i_bridger_1_4,illumination,1197,1039,6.88,0.2987,0.8672,0.9315,0.9683,1,1,1,0.7013,0.9004,0.9403,0.9701
i_bridger_1_5,illumination,1037,853,6.48,0.6130,0.8206,0.9132,0.9470,1,1,1,0.3870,0.7957,0.8774,0.9387
i_bridger_1_6,illumination,532,342,5.54,1.1916,0.6410,0.7575,0.8383,1,1,1,0.0000,0.6028,0.7617,0.8808
i_brooklyn_1_2,illumination,1546,1324,8.88,0.5551,0.8467,0.9288,0.9592,1,1,1,0.4449,0.8150,0.8890,0.9445
i_brooklyn_1_3,illumination,1627,1475,9.28,1.2819,0.8857,0.9564,0.9785,1,1,1,0.0000,0.5727,0.7436,0.8718
i_brooklyn_1_4,illumination,1395,1112,8.36,1.0433,0.7670,0.8810,0.9219,1,1,1,0.0000,0.6522,0.7913,0.8957
i_brooklyn_1_5,illumination,1606,1443,8.21,1.5723,0.8636,0.9427,0.9751,1,1,1,0.0000,0.4759,0.6855,0.8428
i_brooklyn_1_6,illumination,1520,1288,8.10,1.4870,0.8105,0.9197,0.9612,1,1,1,0.0000,0.5043,0.7026,0.8513
i_castle_1_2,illumination,1420,1060,8.28,0.7156,0.7387,0.8296,0.8803,1,1,1,0.2844,0.7615,0.8569,0.9284
i_castle_1_3,illumination,1526,1300,7.82,0.2313,0.8558,0.9253,0.9456,1,1,1,0.7687,0.9229,0.9537,0.9769
i_castle_1_4,illumination,1362,1180,7.58,0.8942,0.8421,0.9156,0.9435,1,1,1,0.1058,0.7019,0.8212,0.9106
i_castle_1_5,illumination,1154,857,7.58,0.5675,0.7314,0.8328,0.8804,1,1,1,0.4325,0.8108,0.8865,0.9432
i_castle_1_6,illumination,1167,823,7.70,0.3674,0.6992,0.7952,0.8458,1,1,1,0.6326,0.8775,0.9265,0.9633
i_chestnuts_1_2,illumination,1136,1021,6.52,0.3796,0.8979,0.9375,0.9718,1,1,1,0.6204,0.8735,0.9241,0.9620
i_chestnuts_1_3,illumination,1114,1014,7.29,0.2588,0.9084,0.9417,0.9704,1,1,1,0.7412,0.9137,0.9482,0.9741
i_chestnuts_1_4,illumination,1101,977,7.24,0.0000,0.8892,0.9319,0.9637,1,1,1,1.0000,1.0000,1.0000,1.0000
i_chestnuts_1_5,illumination,1045,909,6.50,0.0000,0.8727,0.9187,0.9522,1,1,1,1.0000,1.0000,1.0000,1.0000
i_chestnuts_1_6,illumination,963,817,6.52,0.3404,0.8453,0.9013,0.9367,1,1,1,0.6596,0.8865,0.9319,0.9660
i_crownday_1_2,illumination,1091,834,7.27,0.8613,0.7562,0.8598,0.9148,1,1,1,0.1387,0.7129,0.8277,0.9139
i_crownday_1_3,illumination,1207,982,10.85,0.8473,0.8094,0.8931,0.9387,1,1,1,0.1527,0.7176,0.8305,0.9153
i_crownday_1_4,illumination,1234,1055,7.05,0.5920,0.8525,0.9206,0.9522,1,1,1,0.4080,0.8027,0.8816,0.9408
i_crownday_1_5,illumination,1313,1160,7.27,0.0000,0.8850,0.9398,0.9703,1,1,1,1.0000,1.0000,1.0000,1.0000
i_crownday_1_6,illumination,1075,801,7.28,1.0869,0.7395,0.8540,0.9135,1,1,1,0.0000,0.6377,0.7826,0.8913
i_dome_1_2,illumination,1405,1328,7.74,0.1885,0.9431,0.9658,0.9744,1,1,1,0.8115,0.9372,0.9623,0.9811
i_dome_1_3,illumination,858,624,7.80,0.7585,0.7238,0.8042,0.8450,1,1,1,0.2415,0.7472,0.8483,0.9241
i_dome_1_4,illumination,864,623,7.35,1.6764,0.7211,0.8009,0.8380,1,1,1,0.0000,0.4412,0.6647,0.8324
i_dome_1_5,illumination,871,641,6.74,1.1749,0.7371,0.8163,0.8530,1,1,1,0.0000,0.6084,0.7650,0.8825
i_dome_1_6,illumination,1200,1002,7.17,0.3763,0.8383,0.8908,0.9133,1,1,1,0.6237,0.8746,0.9247,0.9624
i_duda_1_2,illumination,705,691,4.51,0.2659,0.9816,0.9915,0.9972,1,1,1,0.7341,0.9114,0.9468,0.9734
i_duda_1_3,illumination,673,656,4.45,0.3733,0.9777,0.9896,0.9985,1,1,1,0.6267,0.8756,0.9253,0.9627
i_duda_1_4,illumination,641,618,4.36,0.2351,0.9657,0.9813,0.9938,1,1,1,0.7649,0.9216,0.9530,0.9765
i_duda_1_5,illumination,612,582,4.33,0.7205,0.9444,0.9804,0.9918,1,1,1,0.2795,0.7598,0.8559,0.9279
i_duda_1_6,illumination,515,470,4.23,0.7538,0.9126,0.9495,0.9748,1,1,1,0.2462,0.7487,0.8492,0.9246
i_fenis_1_2,illumination,1496,1387,7.04,0.3328,0.9218,0.9612,0.9806,1,1,1,0.6672,0.8891,0.9334,0.9667
i_fenis_1_3,illumination,1363,1126,7.32,0.3747,0.8261,0.8995,0.9435,1,1,1,0.6253,0.8751,0.9251,0.9625
i_fenis_1_4,illumination,919,521,7.24,0.8641,0.5615,0.6649,0.7225,1,1,1,0.1359,0.7120,0.8272,0.9136
i_fenis_1_5,illumination,773,403,6.92,0.9129,0.4981,0.5990,0.6585,1,1,1,0.0871,0.6957,0.8174,0.9087
i_fenis_1_6,illumination,897,541,6.78,0.8535,0.5842,0.7023,0.7614,1,1,1,0.1465,0.7155,0.8293,0.9146
i_fog_1_2,illumination,1300,1205,6.80,0.1866,0.9308,0.9662,0.9777,1,1,1,0.8134,0.9378,0.9627,0.9813
i_fog_1_3,illumination,1119,984,7.47,0.4842,0.8803,0.9285,0.9491,1,1,1,0.5158,0.8386,0.9032,0.9516
i_fog_1_4,illumination,1024,880,6.89,0.2813,0.8604,0.9219,0.9512,1,1,1,0.7187,0.9062,0.9437,0.9719
i_fog_1_5,illumination,658,561,5.61,0.5502,0.8587,0.8891,0.9043,1,1,1,0.4498,0.8166,0.8900,0.9450
i_fog_1_6,illumination,524,433,5.23,0.7036,0.8206,0.8550,0.8702,1,1,1,0.2964,0.7655,0.8593,0.9296
i_fruits_1_2,illumination,1074,993,12.97,0.2608,0.9236,0.9628,0.9786,1,1,1,0.7392,0.9131,0.9478,0.9739
i_fruits_1_3,illumination,1073,948,6.78,0.2077,0.8844,0.9413,0.9646,1,1,1,0.7923,0.9308,0.9585,0.9792
i_fruits_1_4,illumination,1077,943,6.72,0.2969,0.8765,0.9369,0.9647,1,1,1,0.7031,0.9010,0.9406,0.9703
i_fruits_1_5,illumination,1060,936,6.85,0.4469,0.8840,0.9500,0.9708,1,1,1,0.5531,0.8510,0.9106,0.9553
i_fruits_1_6,illumination,1070,953,6.75,0.6809,0.8907,0.9533,0.9766,1,1,1,0.3191,0.7730,0.8638,0.9319
i_gonnenberg_1_2,illumination,1476,1345,7.30,0.1728,0.9092,0.9390,0.9553,1,1,1,0.8272,0.9424,0.9654,0.9827
i_gonnenberg_1_3,illumination,1453,1305,7.25,0.5904,0.8940,0.9277,0.9511,1,1,1,0.4096,0.8032,0.8819,0.9410
i_gonnenberg_1_4,illumination,1426,1272,7.38,0.6004,0.8871,0.9299,0.9467,1,1,1,0.3996,0.7999,0.8799,0.9400
i_gonnenberg_1_5,illumination,1420,1265,7.07,0.3057,0.8901,0.9261,0.9465,1,1,1,0.6943,0.8981,0.9389,0.9694
i_gonnenberg_1_6,illumination,1461,1288,6.94,0.0000,0.8871,0.9206,0.9439,1,1,1,1.0000,1.0000,1.0000,1.0000
i_greenhouse_1_2,illumination,1514,1315,8.33,0.2490,0.8719,0.9254,0.9531,1,1,1,0.7510,0.9170,0.9502,0.9751
i_greenhouse_1_3,illumination,1557,1344,8.45,0.5675,0.8645,0.9127,0.9422,1,1,1,0.4325,0.8108,0.8865,0.9433
i_greenhouse_1_4,illumination,1445,1223,8.80,0.4543,0.8450,0.9024,0.9294,1,1,1,0.5457,0.8486,0.9091,0.9546
i_greenhouse_1_5,illumination,1454,1220,8.24,0.5938,0.8343,0.8934,0.9257,1,1,1,0.4062,0.8021,0.8812,0.9406
i_greenhouse_1_6,illumination,1360,1074,8.36,0.7847,0.7882,0.8610,0.8904,1,1,1,0.2153,0.7384,0.8431,0.9215
i_greentea_1_2,illumination,1139,1049,7.15,0.2929,0.9210,0.9473,0.9631,1,1,1,0.7071,0.9024,0.9414,0.9707
i_greentea_1_3,illumination,1330,1261,7.05,0.0000,0.9511,0.9737,0.9835,1,1,1,1.0000,1.0000,1.0000,1.0000
i_greentea_1_4,illumination,1341,1284,6.74,0.1576,0.9590,0.9784,0.9858,1,1,1,0.8424,0.9475,0.9685,0.9842
i_greentea_1_5,illumination,1293,1236,6.64,0.4504,0.9559,0.9722,0.9807,1,1,1,0.5496,0.8499,0.9099,0.9550
i_greentea_1_6,illumination,1104,1036,6.25,0.5524,0.9375,0.9638,0.9764,1,1,1,0.4476,0.8159,0.8895,0.9448
i_indiana_1_2,illumination,1327,1090,6.98,0.2892,0.8191,0.9028,0.9412,1,1,1,0.7108,0.9036,0.9422,0.9711
i_indiana_1_3,illumination,1342,1083,7.39,0.3366,0.8055,0.8897,0.9374,1,1,1,0.6634,0.8878,0.9327,0.9663
i_indiana_1_4,illumination,1283,985,7.07,0.7179,0.7623,0.8722,0.9150,1,1,1,0.2821,0.7607,0.8564,0.9282
i_indiana_1_5,illumination,1245,932,7.13,0.5206,0.7382,0.8450,0.9036,1,1,1,0.4794,0.8265,0.8959,0.9479
i_indiana_1_6,illumination,1183,868,7.14,0.4830,0.7202,0.8309,0.8850,1,1,1,0.5170,0.8390,0.9034,0.9517
i_kions_1_2,illumination,656,531,11.56,0.7438,0.7820,0.8780,0.9131,1,1,1,0.2562,0.7521,0.8512,0.9256
i_kions_1_3,illumination,675,552,5.38,0.4557,0.8074,0.8844,0.9111,1,1,1,0.5443,0.8481,0.9089,0.9544
i_kions_1_4,illumination,579,456,5.72,0.9497,0.7686,0.8826,0.9102,1,1,1,0.0503,0.6834,0.8101,0.9050
i_kions_1_5,illumination,606,469,4.69,0.7127,0.7475,0.8663,0.8977,1,1,1,0.2873,0.7624,0.8575,0.9287
i_kions_1_6,illumination,666,516,5.37,0.4528,0.7628,0.8529,0.8859,1,1,1,0.5472,0.8491,0.9094,0.9547
i_ktirio_1_2,illumination,917,872,5.46,0.2524,0.9520,0.9749,0.9804,1,1,1,0.7476,0.9159,0.9495,0.9748
i_ktirio_1_3,illumination,797,676,5.59,0.7153,0.8331,0.9021,0.9310,1,1,1,0.2847,0.7616,0.8569,0.9285
i_ktirio_1_4,illumination,750,586,5.50,1.0378,0.7640,0.8453,0.8960,1,1,1,0.0000,0.6541,0.7924,0.8962
i_ktirio_1_5,illumination,771,587,5.53,0.9662,0.7562,0.8301,0.8560,1,1,1,0.0338,0.6779,0.8068,0.9034
i_ktirio_1_6,illumination,716,515,5.63,0.9556,0.7123,0.8087,0.8673,1,1,1,0.0444,0.6815,0.8089,0.9044
i_kurhaus_1_2,illumination,1540,1431,7.23,0.1913,0.9299,0.9617,0.9747,1,1,1,0.8087,0.9362,0.9617,0.9809
i_kurhaus_1_3,illumination,1405,1258,7.54,0.3872,0.8940,0.9409,0.9616,1,1,1,0.6128,0.8709,0.9226,0.9613
i_kurhaus_1_4,illumination,1360,1151,7.30,0.0000,0.8507,0.9103,0.9294,1,1,1,1.0000,1.0000,1.0000,1.0000
i_kurhaus_1_5,illumination,1316,1063,7.39,0.4541,0.8055,0.8716,0.9081,1,1,1,0.5459,0.8486,0.9092,0.9546
i_kurhaus_1_6,illumination,1253,975,7.52,0.8451,0.7757,0.8540,0.8899,1,1,1,0.1549,0.7183,0.8310,0.9155
i_leuven_1_2,illumination,943,906,5.62,0.8854,0.9597,0.9767,0.9852,1,1,1,0.1146,0.7049,0.8229,0.9115
i_leuven_1_3,illumination,936,893,6.01,0.8389,0.9541,0.9776,0.9861,1,1,1,0.1611,0.7204,0.8322,0.9161
i_leuven_1_4,illumination,902,839,5.78,1.6774,0.9324,0.9712,0.9800,1,1,1,0.0000,0.4409,0.6645,0.8323
i_leuven_1_5,illumination,859,798,6.28,1.4284,0.9232,0.9581,0.9709,1,1,1,0.0000,0.5239,0.7143,0.8572
i_leuven_1_6,illumination,829,729,6.41,6.3724,0.7226,0.8637,0.9168,0,0,1,0.0000,0.0000,0.0000,0.3628
i_lionday_1_2,illumination,1008,740,7.00,1.2295,0.7202,0.8105,0.8690,1,1,1,0.0000,0.5902,0.7541,0.8770
i_lionday_1_3,illumination,1020,788,6.92,1.3089,0.7637,0.8402,0.8775,1,1,1,0.0000,0.5637,0.7382,0.8691
i_lionday_1_4,illumination,809,375,6.88,3.4543,0.3758,0.5377,0.6403,0,1,1,0.0000,0.0000,0.3091,0.6546
i_lionday_1_5,illumination,943,567,7.01,2.8763,0.5143,0.6819,0.7519,1,1,1,0.0000,0.0412,0.4247,0.7124
i_lionday_1_6,illumination,1063,795,6.91,1.5968,0.7291,0.8194,0.8692,1,1,1,0.0000,0.4677,0.6806,0.8403
i_lionnight_1_2,illumination,1386,1309,7.63,0.6687,0.9444,0.9632,0.9690,1,1,1,0.3313,0.7771,0.8663,0.9331
i_lionnight_1_3,illumination,1288,1121,7.23,1.5714,0.8579,0.9037,0.9231,1,1,1,0.0000,0.4762,0.6857,0.8429
i_lionnight_1_4,illumination,1421,1358,7.22,0.7850,0.9529,0.9719,0.9782,1,1,1,0.2150,0.7383,0.8430,0.9215
i_lionnight_1_5,illumination,1381,1278,7.21,1.3454,0.9232,0.9385,0.9428,1,1,1,0.0000,0.5515,0.7309,0.8655
i_lionnight_1_6,illumination,1370,1302,7.26,0.9889,0.9474,0.9664,0.9708,1,1,1,0.0111,0.6704,0.8022,0.9011
i_londonbridge_1_2,illumination,959,904,5.86,1.1370,0.9239,0.9625,0.9802,1,1,1,0.0000,0.6210,0.7726,0.8863
i_londonbridge_1_3,illumination,967,897,6.12,0.9972,0.9214,0.9628,0.9752,1,1,1,0.0028,0.6676,0.8006,0.9003
i_londonbridge_1_4,illumination,961,823,6.00,2.1189,0.8127,0.9230,0.9615,1,1,1,0.0000,0.2937,0.5762,0.7881
i_londonbridge_1_5,illumination,817,530,6.25,2.0778,0.5618,0.7454,0.8311,1,1,1,0.0000,0.3074,0.5844,0.7922
i_londonbridge_1_6,illumination,925,817,6.08,0.6744,0.8768,0.9449,0.9643,1,1,1,0.3256,0.7752,0.8651,0.9326
i_melon_1_2,illumination,652,622,4.75,0.2571,0.9555,0.9785,0.9893,1,1,1,0.7429,0.9143,0.9486,0.9743
i_melon_1_3,illumination,607,539,4.49,0.4458,0.8847,0.9506,0.9736,1,1,1,0.5542,0.8514,0.9108,0.9554
i_melon_1_4,illumination,487,328,4.43,1.4087,0.6612,0.7433,0.8029,1,1,1,0.0000,0.5304,0.7183,0.8591
i_melon_1_5,illumination,606,498,4.56,0.7978,0.8135,0.8795,0.9274,1,1,1,0.2022,0.7341,0.8404,0.9202
i_melon_1_6,illumination,573,459,4.59,1.0297,0.7888,0.8691,0.9250,1,1,1,0.0000,0.6568,0.7941,0.8970
i_miniature_1_2,illumination,1509,1444,7.13,0.4821,0.9523,0.9788,0.9927,1,1,1,0.5179,0.8393,0.9036,0.9518
i_miniature_1_3,illumination,1383,1245,6.95,0.4154,0.8879,0.9501,0.9732,1,1,1,0.5846,0.8615,0.9169,0.9585
i_miniature_1_4,illumination,1098,890,6.90,0.6619,0.7923,0.8689,0.9026,1,1,1,0.3381,0.7794,0.8676,0.9338
i_miniature_1_5,illumination,726,469,6.49,0.8672,0.6419,0.7397,0.7865,1,1,1,0.1328,0.7109,0.8266,0.9133
i_miniature_1_6,illumination,1376,1229,7.07,0.6419,0.8837,0.9346,0.9571,1,1,1,0.3581,0.7860,0.8716,0.9358
i_nescafe_1_2,illumination,838,728,5.50,0.0000,0.8699,0.9308,0.9475,1,1,1,1.0000,1.0000,1.0000,1.0000
i_nescafe_1_3,illumination,967,847,6.70,0.0000,0.8790,0.9131,0.9431,1,1,1,1.0000,1.0000,1.0000,1.0000
i_nescafe_1_4,illumination,973,866,6.87,0.2275,0.8859,0.9209,0.9414,1,1,1,0.7725,0.9242,0.9545,0.9772
i_nescafe_1_5,illumination,831,716,6.45,0.3018,0.8616,0.9025,0.9194,1,1,1,0.6982,0.8994,0.9396,0.9698
i_nescafe_1_6,illumination,936,786,6.25,0.2709,0.8387,0.8932,0.9434,1,1,1,0.7291,0.9097,0.9458,0.9729
i_nijmegen_1_2,illumination,1596,1296,7.96,1.1186,0.7888,0.8684,0.9198,1,1,1,0.0000,0.6271,0.7763,0.8881
i_nijmegen_1_3,illumination,1643,1377,8.19,0.7429,0.8156,0.9044,0.9434,1,1,1,0.2571,0.7524,0.8514,0.9257
i_nijmegen_1_4,illumination,1138,776,7.72,0.9145,0.6696,0.7882,0.8383,1,1,1,0.0855,0.6952,0.8171,0.9085
i_nijmegen_1_5,illumination,1627,1362,8.28,0.8070,0.8125,0.9084,0.9453,1,1,1,0.1930,0.7310,0.8386,0.9193
i_nijmegen_1_6,illumination,1594,1289,8.62,0.7209,0.7880,0.8858,0.9291,1,1,1,0.2791,0.7597,0.8558,0.9279
i_nuts_1_2,illumination,1197,948,7.70,0.7326,0.7853,0.8772,0.9265,1,1,1,0.2674,0.7558,0.8535,0.9267
i_nuts_1_3,illumination,1010,734,7.50,0.9441,0.7287,0.8178,0.8762,1,1,1,0.0559,0.6853,0.8112,0.9056
i_nuts_1_4,illumination,796,533,7.64,0.8007,0.6545,0.7751,0.8405,1,1,1,0.1993,0.7331,0.8399,0.9199
i_nuts_1_5,illumination,613,348,10.20,1.0362,0.5432,0.6917,0.7716,1,1,1,0.0000,0.6546,0.7928,0.8964
i_nuts_1_6,illumination,503,220,7.46,1.7523,0.4095,0.5348,0.6262,1,1,1,0.0000,0.4159,0.6495,0.8248
i_objects_1_2,illumination,1488,1252,8.02,0.6553,0.8380,0.9267,0.9637,1,1,1,0.3447,0.7816,0.8689,0.9345
i_objects_1_3,illumination,1471,1196,8.53,0.7998,0.8001,0.9123,0.9477,1,1,1,0.2002,0.7334,0.8400,0.9200
i_objects_1_4,illumination,1335,980,8.69,0.7436,0.7326,0.8622,0.9288,1,1,1,0.2564,0.7521,0.8513,0.9256
i_objects_1_5,illumination,1346,958,7.70,1.2774,0.7095,0.8455,0.9108,1,1,1,0.0000,0.5742,0.7445,0.8723
i_objects_1_6,illumination,1569,1414,7.48,0.2285,0.9095,0.9567,0.9777,1,1,1,0.7715,0.9238,0.9543,0.9772
i_parking_1_2,illumination,915,788,5.81,0.3077,0.8656,0.9301,0.9661,1,1,1,0.6923,0.8974,0.9385,0.9692
i_parking_1_3,illumination,904,749,5.58,0.4135,0.8363,0.9082,0.9425,1,1,1,0.5865,0.8622,0.9173,0.9587
i_parking_1_4,illumination,810,602,5.45,1.2313,0.7272,0.8370,0.9012,1,1,1,0.0000,0.5896,0.7537,0.8769
i_parking_1_5,illumination,726,453,5.65,1.2279,0.6226,0.7369,0.8030,1,1,1,0.0000,0.5907,0.7544,0.8772
i_parking_1_6,illumination,774,592,5.68,0.8313,0.7506,0.8282,0.8837,1,1,1,0.1687,0.7229,0.8337,0.9169
i_partyfood_1_2,illumination,511,509,3.93,0.5367,0.9961,0.9980,0.9980,1,1,1,0.4633,0.8211,0.8927,0.9463
i_partyfood_1_3,illumination,469,461,3.76,0.5621,0.9851,0.9957,0.9979,1,1,1,0.4379,0.8126,0.8876,0.9438
i_partyfood_1_4,illumination,453,434,3.91,0.2678,0.9558,0.9801,0.9890,1,1,1,0.7322,0.9107,0.9464,0.9732
i_partyfood_1_5,illumination,432,415,3.82,0.6452,0.9583,0.9861,0.9907,1,1,1,0.3548,0.7849,0.8710,0.9355
i_partyfood_1_6,illumination,400,376,3.72,0.4778,0.9400,0.9725,0.9850,1,1,1,0.5222,0.8407,0.9044,0.9522
i_pinard_1_2,illumination,598,553,4.61,0.2154,0.9247,0.9615,0.9783,1,1,1,0.7846,0.9282,0.9569,0.9785
i_pinard_1_3,illumination,565,461,4.97,0.7070,0.8177,0.8637,0.8903,1,1,1,0.2930,0.7643,0.8586,0.9293
i_pinard_1_4,illumination,576,465,4.77,0.6265,0.8073,0.8524,0.8767,1,1,1,0.3735,0.7912,0.8747,0.9374
i_pinard_1_5,illumination,578,481,5.46,0.6805,0.8322,0.8685,0.9014,1,1,1,0.3195,0.7732,0.8639,0.9320
i_pinard_1_6,illumination,560,482,4.66,0.2594,0.8589,0.8982,0.9339,1,1,1,0.7406,0.9135,0.9481,0.9741
i_pool_1_2,illumination,476,305,5.00,0.3957,0.6345,0.7416,0.7962,1,1,1,0.6043,0.8681,0.9209,0.9604
i_pool_1_3,illumination,347,170,4.71,1.4340,0.4784,0.5533,0.5908,1,1,1,0.0000,0.5220,0.7132,0.8566
i_pool_1_4,illumination,359,159,4.50,2.0398,0.4345,0.5181,0.5794,1,1,1,0.0000,0.3201,0.5920,0.7960
i_pool_1_5,illumination,415,233,4.89,0.0000,0.5639,0.6361,0.7012,1,1,1,1.0000,1.0000,1.0000,1.0000
i_pool_1_6,illumination,383,220,4.66,2.1672,0.5666,0.6449,0.6893,1,1,1,0.0000,0.2776,0.5666,0.7833
i_porta_1_2,illumination,764,480,5.64,0.7791,0.6322,0.7827,0.8743,1,1,1,0.2209,0.7403,0.8442,0.9221
i_porta_1_3,illumination,764,492,5.32,0.3974,0.6440,0.7736,0.8521,1,1,1,0.6026,0.8675,0.9205,0.9603
i_porta_1_4,illumination,763,449,5.50,0.5276,0.5858,0.7471,0.8322,1,1,1,0.4724,0.8241,0.8945,0.9472
i_porta_1_5,illumination,467,348,4.71,0.9004,0.7409,0.8544,0.9143,1,1,1,0.0996,0.6999,0.8199,0.9100
i_porta_1_6,illumination,486,292,5.03,0.8805,0.5905,0.6955,0.7593,1,1,1,0.1195,0.7065,0.8239,0.9119
i_resort_1_2,illumination,1562,1378,8.24,0.2652,0.8860,0.9411,0.9699,1,1,1,0.7348,0.9116,0.9470,0.9735
i_resort_1_3,illumination,1642,1562,7.79,0.1719,0.9488,0.9750,0.9860,1,1,1,0.8281,0.9427,0.9656,0.9828
i_resort_1_4,illumination,1656,1574,7.74,0.2872,0.9499,0.9764,0.9885,1,1,1,0.7128,0.9043,0.9426,0.9713
i_resort_1_5,illumination,1520,1288,7.72,0.0000,0.8507,0.9243,0.9618,1,1,1,1.0000,1.0000,1.0000,1.0000
i_resort_1_6,illumination,1423,1249,7.28,0.6082,0.8637,0.9283,0.9613,1,1,1,0.3918,0.7973,0.8784,0.9392
i_salon_1_2,illumination,1621,1527,7.52,0.0000,0.9445,0.9729,0.9920,1,1,1,1.0000,1.0000,1.0000,1.0000
i_salon_1_3,illumination,1372,1216,7.18,0.6204,0.8644,0.9300,0.9555,1,1,1,0.3796,0.7932,0.8759,0.9380
i_salon_1_4,illumination,1215,1002,7.27,0.6512,0.8049,0.8848,0.9267,1,1,1,0.3488,0.7829,0.8698,0.9349
i_salon_1_5,illumination,1479,1329,7.31,0.4633,0.8905,0.9500,0.9709,1,1,1,0.5367,0.8456,0.9073,0.9537
i_salon_1_6,illumination,1356,1145,7.13,0.3973,0.8311,0.9049,0.9528,1,1,1,0.6027,0.8676,0.9205,0.9603
i_santuario_1_2,illumination,1529,1319,7.61,1.1211,0.8430,0.9326,0.9627,1,1,1,0.0000,0.6263,0.7758,0.8879
i_santuario_1_3,illumination,1540,1304,7.86,1.2189,0.8279,0.9201,0.9565,1,1,1,0.0000,0.5937,0.7562,0.8781
i_santuario_1_4,illumination,1433,1209,7.48,1.3415,0.8039,0.9197,0.9609,1,1,1,0.0000,0.5528,0.7317,0.8659
i_santuario_1_5,illumination,1538,1318,7.55,0.4721,0.8563,0.9311,0.9629,1,1,1,0.5279,0.8426,0.9056,0.9528
i_santuario_1_6,illumination,1346,1129,7.58,0.9011,0.8269,0.9138,0.9554,1,1,1,0.0989,0.6996,0.8198,0.9099
i_school_1_2,illumination,1302,1213,6.97,0.1864,0.9309,0.9631,0.9816,1,1,1,0.8136,0.9379,0.9627,0.9814
i_school_1_3,illumination,1273,1189,7.61,0.2471,0.9301,0.9647,0.9804,1,1,1,0.7529,0.9176,0.9506,0.9753
i_school_1_4,illumination,1138,941,7.85,0.6887,0.8163,0.8910,0.9359,1,1,1,0.3113,0.7704,0.8623,0.9311
i_school_1_5,illumination,1212,1052,7.65,0.8351,0.8655,0.9224,0.9513,1,1,1,0.1649,0.7216,0.8330,0.9165
i_school_1_6,illumination,998,757,7.00,1.0116,0.7575,0.8377,0.8768,1,1,1,0.0000,0.6628,0.7977,0.8988
i_ski_1_2,illumination,1643,1533,7.78,0.3316,0.9330,0.9665,0.9823,1,1,1,0.6684,0.8895,0.9337,0.9668
i_ski_1_3,illumination,1558,1417,7.58,0.3071,0.9012,0.9557,0.9775,1,1,1,0.6929,0.8976,0.9386,0.9693
i_ski_1_4,illumination,1523,1326,7.65,0.6121,0.8601,0.9402,0.9659,1,1,1,0.3879,0.7960,0.8776,0.9388
i_ski_1_5,illumination,1479,1248,7.88,0.5271,0.8377,0.9283,0.9615,1,1,1,0.4729,0.8243,0.8946,0.9473
i_ski_1_6,illumination,1453,1172,7.54,0.4600,0.7956,0.9043,0.9498,1,1,1,0.5400,0.8467,0.9080,0.9540
i_smurf_1_2,illumination,1126,996,6.61,0.5156,0.8819,0.9218,0.9520,1,1,1,0.4844,0.8281,0.8969,0.9484
i_smurf_1_3,illumination,1124,976,6.35,0.2252,0.8665,0.9146,0.9377,1,1,1,0.7748,0.9249,0.9550,0.9775
i_smurf_1_4,illumination,1113,951,6.52,0.2643,0.8518,0.8958,0.9236,1,1,1,0.7357,0.9119,0.9471,0.9736
i_smurf_1_5,illumination,1073,918,6.30,0.3973,0.8546,0.8947,0.9245,1,1,1,0.6027,0.8676,0.9205,0.9603
i_smurf_1_6,illumination,941,707,6.30,0.6810,0.7513,0.8268,0.8714,1,1,1,0.3190,0.7730,0.8638,0.9319
i_steps_1_2,illumination,1075,1032,6.09,0.3202,0.9498,0.9851,0.9953,1,1,1,0.6798,0.8933,0.9360,0.9680
i_steps_1_3,illumination,1177,1090,6.36,0.5635,0.9184,0.9669,0.9813,1,1,1,0.4365,0.8122,0.8873,0.9436
i_steps_1_4,illumination,1214,1141,6.65,0.5886,0.9325,0.9703,0.9835,1,1,1,0.4114,0.8038,0.8823,0.9411
i_steps_1_5,illumination,1000,884,6.94,0.5949,0.8750,0.9360,0.9600,1,1,1,0.4051,0.8017,0.8810,0.9405
i_steps_1_6,illumination,1122,1025,6.73,0.4396,0.9029,0.9519,0.9777,1,1,1,0.5604,0.8535,0.9121,0.9560
i_table_1_2,illumination,1488,1252,8.53,0.6553,0.8380,0.9267,0.9637,1,1,1,0.3447,0.7816,0.8689,0.9345
i_table_1_3,illumination,1471,1196,7.60,0.7998,0.8001,0.9123,0.9477,1,1,1,0.2002,0.7334,0.8400,0.9200
i_table_1_4,illumination,1335,980,7.81,0.7436,0.7326,0.8622,0.9288,1,1,1,0.2564,0.7521,0.8513,0.9256
i_table_1_5,illumination,1346,958,7.56,1.2774,0.7095,0.8455,0.9108,1,1,1,0.0000,0.5742,0.7445,0.8723
i_table_1_6,illumination,1569,1414,7.41,0.2285,0.9095,0.9567,0.9777,1,1,1,0.7715,0.9238,0.9543,0.9772
i_tools_1_2,illumination,664,356,5.58,2.6654,0.4804,0.6340,0.7801,1,1,1,0.0000,0.1115,0.4669,0.7335
i_tools_1_3,illumination,689,567,4.94,1.5392,0.8142,0.9303,0.9666,1,1,1,0.0000,0.4869,0.6922,0.8461
i_tools_1_4,illumination,663,373,5.45,2.9474,0.5430,0.7059,0.8250,1,1,1,0.0000,0.0175,0.4105,0.7053
i_tools_1_5,illumination,676,503,4.88,1.6303,0.7293,0.8506,0.9216,1,1,1,0.0000,0.4566,0.6739,0.8370
i_tools_1_6,illumination,638,313,5.33,6.1535,0.3166,0.4781,0.6740,0,0,1,0.0000,0.0000,0.0000,0.3847
i_toy_1_2,illumination,1678,1476,9.35,0.3492,0.8737,0.9327,0.9648,1,1,1,0.6508,0.8836,0.9302,0.9651
i_toy_1_3,illumination,1603,1326,10.03,0.3631,0.8203,0.8989,0.9414,1,1,1,0.6369,0.8790,0.9274,0.9637
i_toy_1_4,illumination,1547,1166,10.36,0.5679,0.7408,0.8378,0.8953,1,1,1,0.4321,0.8107,0.8864,0.9432
i_toy_1_5,illumination,1436,936,9.43,1.1099,0.6407,0.7465,0.8224,1,1,1,0.0000,0.6300,0.7780,0.8890
i_toy_1_6,illumination,1241,645,10.18,0.8420,0.5060,0.6221,0.7010,1,1,1,0.1580,0.7193,0.8316,0.9158
i_troulos_1_2,illumination,570,503,5.32,0.6914,0.8561,0.9491,0.9772,1,1,1,0.3086,0.7695,0.8617,0.9309
i_troulos_1_3,illumination,502,401,4.66,2.6158,0.4542,0.8745,0.9343,1,1,1,0.0000,0.1281,0.4768,0.7384
i_troulos_1_4,illumination,691,648,5.50,0.4364,0.9334,0.9783,0.9899,1,1,1,0.5636,0.8545,0.9127,0.9564
i_troulos_1_5,illumination,623,515,4.63,0.9512,0.8042,0.9085,0.9422,1,1,1,0.0488,0.6829,0.8098,0.9049
i_troulos_1_6,illumination,600,501,4.46,1.4594,0.7967,0.9100,0.9483,1,1,1,0.0000,0.5135,0.7081,0.8541
i_veggies_1_2,illumination,1135,1080,6.22,0.1896,0.9533,0.9727,0.9859,1,1,1,0.8104,0.9368,0.9621,0.9810
i_veggies_1_3,illumination,993,837,6.33,0.4280,0.8459,0.9094,0.9335,1,1,1,0.5720,0.8573,0.9144,0.9572
i_veggies_1_4,illumination,1109,1001,6.29,0.2777,0.9017,0.9477,0.9729,1,1,1,0.7223,0.9074,0.9445,0.9722
i_veggies_1_5,illumination,933,686,6.26,0.3158,0.7342,0.8307,0.8789,1,1,1,0.6842,0.8947,0.9368,0.9684
i_veggies_1_6,illumination,863,610,6.24,0.6676,0.7010,0.7972,0.8459,1,1,1,0.3324,0.7775,0.8665,0.9332
i_village_1_2,illumination,1421,1157,15.84,0.2434,0.8135,0.8916,0.9346,1,1,1,0.7566,0.9189,0.9513,0.9757
i_village_1_3,illumination,1509,1209,9.62,0.3822,0.7985,0.8767,0.9231,1,1,1,0.6178,0.8726,0.9236,0.9618
i_village_1_4,illumination,1475,1206,8.66,0.4089,0.8129,0.8942,0.9247,1,1,1,0.5911,0.8637,0.9182,0.9591
i_village_1_5,illumination,1645,1509,8.12,0.3543,0.9179,0.9495,0.9714,1,1,1,0.6457,0.8819,0.9291,0.9646
i_village_1_6,illumination,1453,1130,8.06,0.9030,0.7688,0.8582,0.9057,1,1,1,0.0970,0.6990,0.8194,0.9097
i_yellowtent_1_2,illumination,1240,1202,6.37,0.1895,0.9613,0.9863,0.9927,1,1,1,0.8105,0.9368,0.9621,0.9811
i_yellowtent_1_3,illumination,1149,1029,6.31,0.6450,0.8738,0.9487,0.9765,1,1,1,0.3550,0.7850,0.8710,0.9355
i_yellowtent_1_4,illumination,1034,839,6.22,1.1120,0.7940,0.8791,0.9139,1,1,1,0.0000,0.6293,0.7776,0.8888
i_yellowtent_1_5,illumination,1073,912,6.26,0.4368,0.8453,0.9003,0.9413,1,1,1,0.5632,0.8544,0.9126,0.9563
i_yellowtent_1_6,illumination,1000,796,6.38,0.5292,0.7900,0.8570,0.8950,1,1,1,0.4708,0.8236,0.8942,0.9471
i_zion_1_2,illumination,1706,1583,8.28,0.1795,0.9267,0.9672,0.9795,1,1,1,0.8205,0.9402,0.9641,0.9821
i_zion_1_3,illumination,1525,1279,7.81,0.5208,0.8334,0.8990,0.9298,1,1,1,0.4792,0.8264,0.8958,0.9479
i_zion_1_4,illumination,1276,1026,7.65,0.6178,0.7947,0.8613,0.8856,1,1,1,0.3822,0.7941,0.8764,0.9382
i_zion_1_5,illumination,910,592,7.40,1.0785,0.6308,0.7121,0.7571,1,1,1,0.0000,0.6405,0.7843,0.8922
i_zion_1_6,illumination,728,476,6.65,0.8855,0.6401,0.7143,0.7679,1,1,1,0.1145,0.7048,0.8229,0.9114
v_abstract_1_2,viewpoint,1391,1309,7.86,0.4277,0.9410,0.9727,0.9770,1,1,1,0.5723,0.8574,0.9145,0.9572
v_abstract_1_3,viewpoint,1354,1248,7.65,0.4480,0.9173,0.9535,0.9668,1,1,1,0.5520,0.8507,0.9104,0.9552
v_abstract_1_4,viewpoint,1065,918,12.46,0.9761,0.8554,0.9146,0.9380,1,1,1,0.0239,0.6746,0.8048,0.9024
v_abstract_1_5,viewpoint,1118,977,7.80,0.7041,0.8730,0.9079,0.9213,1,1,1,0.2959,0.7653,0.8592,0.9296
v_abstract_1_6,viewpoint,923,729,11.18,0.6634,0.7844,0.8548,0.8765,1,1,1,0.3366,0.7789,0.8673,0.9337
v_adam_1_2,viewpoint,968,905,6.06,0.3738,0.9339,0.9628,0.9742,1,1,1,0.6262,0.8754,0.9252,0.9626
v_adam_1_3,viewpoint,844,788,6.78,0.5239,0.9336,0.9645,0.9787,1,1,1,0.4761,0.8254,0.8952,0.9476
v_adam_1_4,viewpoint,604,528,5.32,0.9901,0.8609,0.9272,0.9454,1,1,1,0.0099,0.6700,0.8020,0.9010
v_adam_1_5,viewpoint,773,703,5.65,0.7154,0.9030,0.9586,0.9664,1,1,1,0.2846,0.7615,0.8569,0.9285
v_adam_1_6,viewpoint,748,671,5.88,0.6505,0.8917,0.9666,0.9840,1,1,1,0.3495,0.7832,0.8699,0.9350
v_apprentices_1_2,viewpoint,1737,1685,14.78,0.1794,0.9706,0.9833,0.9902,1,1,1,0.8206,0.9402,0.9641,0.9821
v_apprentices_1_3,viewpoint,1513,1447,8.02,0.5773,0.9551,0.9808,0.9841,1,1,1,0.4227,0.8076,0.8845,0.9423
v_apprentices_1_4,viewpoint,1355,1266,7.85,0.6468,0.9328,0.9609,0.9734,1,1,1,0.3532,0.7844,0.8706,0.9353
v_apprentices_1_5,viewpoint,1182,1078,7.55,1.0700,0.9086,0.9475,0.9611,1,1,1,0.0000,0.6433,0.7860,0.8930
v_apprentices_1_6,viewpoint,1055,949,6.90,0.6791,0.8910,0.9393,0.9517,1,1,1,0.3209,0.7736,0.8642,0.9321
v_azzola_1_2,viewpoint,1475,1372,15.93,0.6536,0.9207,0.9675,0.9749,1,1,1,0.3464,0.7821,0.8693,0.9346
v_azzola_1_3,viewpoint,1328,1116,8.87,0.9865,0.8245,0.9443,0.9669,1,1,1,0.0135,0.6712,0.8027,0.9013
v_azzola_1_4,viewpoint,1501,1440,8.20,0.6002,0.9554,0.9767,0.9840,1,1,1,0.3998,0.7999,0.8800,0.9400
v_azzola_1_5,viewpoint,1157,990,7.80,1.0908,0.8211,0.9404,0.9585,1,1,1,0.0000,0.6364,0.7818,0.8909
v_azzola_1_6,viewpoint,766,523,7.64,2.3619,0.6906,0.8094,0.8499,1,1,1,0.0000,0.2127,0.5276,0.7638
v_bark_1_2,viewpoint,795,420,8.52,1.2192,0.5195,0.6264,0.6792,1,1,1,0.0000,0.5936,0.7562,0.8781
v_bark_1_3,viewpoint,322,8,7.77,396.1184,0.0000,0.0000,0.0000,0,0,0,0.0000,0.0000,0.0000,0.0000
v_bark_1_4,viewpoint,331,8,7.86,294.8461,0.0000,0.0000,0.0000,0,0,0,0.0000,0.0000,0.0000,0.0000
v_bark_1_5,viewpoint,441,39,7.59,5.0766,0.0884,0.1247,0.1338,0,0,1,0.0000,0.0000,0.0000,0.4923
v_bark_1_6,viewpoint,384,7,7.74,382.8899,0.0000,0.0000,0.0000,0,0,0,0.0000,0.0000,0.0000,0.0000
v_bees_1_2,viewpoint,1684,1616,8.80,0.2756,0.9590,0.9768,0.9840,1,1,1,0.7244,0.9081,0.9449,0.9724
v_bees_1_3,viewpoint,1684,1629,8.30,0.2232,0.9679,0.9834,0.9881,1,1,1,0.7768,0.9256,0.9554,0.9777
v_bees_1_4,viewpoint,1580,1530,8.89,0.4336,0.9684,0.9842,0.9911,1,1,1,0.5664,0.8555,0.9133,0.9566
v_bees_1_5,viewpoint,1207,1120,8.16,0.7927,0.9213,0.9611,0.9727,1,1,1,0.2073,0.7358,0.8415,0.9207
v_bees_1_6,viewpoint,1408,1296,8.00,0.5600,0.9119,0.9638,0.9794,1,1,1,0.4400,0.8133,0.8880,0.9440
v_beyus_1_2,viewpoint,492,425,11.64,0.8252,0.8598,0.9228,0.9431,1,1,1,0.1748,0.7249,0.8350,0.9175
v_beyus_1_3,viewpoint,544,397,5.34,3.4411,0.7243,0.8290,0.8732,0,1,1,0.0000,0.0000,0.3118,0.6559
v_beyus_1_4,viewpoint,650,566,5.46,0.6759,0.8708,0.9323,0.9631,1,1,1,0.3241,0.7747,0.8648,0.9324
v_beyus_1_5,viewpoint,438,323,5.17,2.0826,0.7534,0.8447,0.8927,1,1,1,0.0000,0.3058,0.5835,0.7917
v_beyus_1_6,viewpoint,569,469,5.20,1.5463,0.8260,0.8963,0.9244,1,1,1,0.0000,0.4846,0.6907,0.8454
v_bip_1_2,viewpoint,1180,1089,8.75,0.2465,0.9229,0.9407,0.9475,1,1,1,0.7535,0.9178,0.9507,0.9753
v_bip_1_3,viewpoint,1097,994,8.61,0.2507,0.9052,0.9307,0.9426,1,1,1,0.7493,0.9164,0.9499,0.9749
v_bip_1_4,viewpoint,1093,1006,8.29,0.3395,0.9195,0.9433,0.9524,1,1,1,0.6605,0.8868,0.9321,0.9661
v_bip_1_5,viewpoint,625,347,7.49,0.9849,0.5520,0.6208,0.6512,1,1,1,0.0151,0.6717,0.8030,0.9015
v_bip_1_6,viewpoint,425,95,7.15,0.8258,0.2212,0.2776,0.2988,1,1,1,0.1742,0.7247,0.8348,0.9174
v_bird_1_2,viewpoint,1134,1071,8.00,76.7486,0.0000,0.0000,0.0000,0,0,0,0.0000,0.0000,0.0000,0.0000
v_bird_1_3,viewpoint,1032,927,8.09,84.0401,0.0000,0.0010,0.0010,0,0,0,0.0000,0.0000,0.0000,0.0000
v_bird_1_4,viewpoint,1055,930,7.91,99.3102,0.0000,0.0000,0.0000,0,0,0,0.0000,0.0000,0.0000,0.0000
v_bird_1_5,viewpoint,1038,816,8.10,85.8139,0.0000,0.0010,0.0029,0,0,0,0.0000,0.0000,0.0000,0.0000
v_bird_1_6,viewpoint,708,422,7.73,185.8724,0.0000,0.0000,0.0000,0,0,0,0.0000,0.0000,0.0000,0.0000
v_birdwoman_1_2,viewpoint,644,454,8.25,44.6040,0.0000,0.0000,0.0000,0,0,0,0.0000,0.0000,0.0000,0.0000
v_birdwoman_1_3,viewpoint,877,697,7.97,54.6498,0.0000,0.0000,0.0011,0,0,0,0.0000,0.0000,0.0000,0.0000
v_birdwoman_1_4,viewpoint,1144,1031,8.50,50.3761,0.0000,0.0000,0.0000,0,0,0,0.0000,0.0000,0.0000,0.0000
v_birdwoman_1_5,viewpoint,1469,1381,8.42,52.7201,0.0000,0.0000,0.0000,0,0,0,0.0000,0.0000,0.0000,0.0000
v_birdwoman_1_6,viewpoint,1119,1011,7.89,51.4128,0.0000,0.0000,0.0000,0,0,0,0.0000,0.0000,0.0000,0.0000
v_blueprint_1_2,viewpoint,1544,1435,8.08,0.3642,0.9288,0.9650,0.9825,1,1,1,0.6358,0.8786,0.9272,0.9636
v_blueprint_1_3,viewpoint,1360,1238,8.11,0.6154,0.9096,0.9551,0.9728,1,1,1,0.3846,0.7949,0.8769,0.9385
v_blueprint_1_4,viewpoint,1410,1317,7.87,0.4344,0.9333,0.9652,0.9844,1,1,1,0.5656,0.8552,0.9131,0.9566
v_blueprint_1_5,viewpoint,1134,996,7.60,0.3934,0.8792,0.9392,0.9550,1,1,1,0.6066,0.8689,0.9213,0.9607
v_blueprint_1_6,viewpoint,861,691,7.35,1.0334,0.7991,0.8571,0.8850,1,1,1,0.0000,0.6555,0.7933,0.8967
v_boat_1_2,viewpoint,1531,1353,15.50,0.4487,0.8824,0.9471,0.9700,1,1,1,0.5513,0.8504,0.9103,0.9551
v_boat_1_3,viewpoint,660,271,8.56,1.5708,0.4030,0.5212,0.5864,1,1,1,0.0000,0.4764,0.6858,0.8429
v_boat_1_4,viewpoint,294,7,8.44,400.8414,0.0068,0.0136,0.0238,0,0,0,0.0000,0.0000,0.0000,0.0000
v_boat_1_5,viewpoint,304,10,7.73,408.8345,0.0000,0.0000,0.0033,0,0,0,0.0000,0.0000,0.0000,0.0000
v_boat_1_6,viewpoint,734,393,7.34,0.7578,0.5354,0.5995,0.6458,1,1,1,0.2422,0.7474,0.8484,0.9242
v_bricks_1_2,viewpoint,1629,1567,8.14,33.4810,0.0031,0.0209,0.0528,0,0,0,0.0000,0.0000,0.0000,0.0000
v_bricks_1_3,viewpoint,1603,1507,7.93,32.0405,0.0006,0.0125,0.0412,0,0,0,0.0000,0.0000,0.0000,0.0000
v_bricks_1_4,viewpoint,1400,1282,7.83,31.0543,0.0000,0.0021,0.0207,0,0,0,0.0000,0.0000,0.0000,0.0000
v_bricks_1_5,viewpoint,1260,1117,7.91,27.8893,0.0016,0.0071,0.0349,0,0,0,0.0000,0.0000,0.0000,0.0000
v_bricks_1_6,viewpoint,954,770,7.55,27.6493,0.0010,0.0010,0.0052,0,0,0,0.0000,0.0000,0.0000,0.0000
v_busstop_1_2,viewpoint,1422,1338,8.60,0.4680,0.9409,0.9655,0.9761,1,1,1,0.5320,0.8440,0.9064,0.9532
v_busstop_1_3,viewpoint,1264,1143,8.38,0.6617,0.9051,0.9494,0.9620,1,1,1,0.3383,0.7794,0.8677,0.9338
v_busstop_1_4,viewpoint,1226,1159,8.82,0.7660,0.9462,0.9739,0.9772,1,1,1,0.2340,0.7447,0.8468,0.9234
v_busstop_1_5,viewpoint,1297,1202,8.03,0.7890,0.9268,0.9576,0.9668,1,1,1,0.2110,0.7370,0.8422,0.9211
v_busstop_1_6,viewpoint,1497,1399,8.17,0.6319,0.9345,0.9633,0.9746,1,1,1,0.3681,0.7894,0.8736,0.9368
v_calder_1_2,viewpoint,1045,968,6.92,0.3466,0.9282,0.9608,0.9684,1,1,1,0.6534,0.8845,0.9307,0.9653
v_calder_1_3,viewpoint,1177,1115,7.33,0.2074,0.9473,0.9728,0.9779,1,1,1,0.7926,0.9309,0.9585,0.9793
v_calder_1_4,viewpoint,800,681,6.64,0.5718,0.8475,0.8800,0.8950,1,1,1,0.4282,0.8094,0.8856,0.9428
v_calder_1_5,viewpoint,743,585,6.94,0.2160,0.7900,0.8304,0.8479,1,1,1,0.7840,0.9280,0.9568,0.9784
v_calder_1_6,viewpoint,608,354,6.64,0.4009,0.5789,0.6414,0.6694,1,1,1,0.5991,0.8664,0.9198,0.9599
v_cartooncity_1_2,viewpoint,1632,1572,9.31,62.1263,0.0000,0.0000,0.0006,0,0,0,0.0000,0.0000,0.0000,0.0000
v_cartooncity_1_3,viewpoint,1126,902,8.59,66.2233,0.0009,0.0009,0.0009,0,0,0,0.0000,0.0000,0.0000,0.0000
v_cartooncity_1_4,viewpoint,1509,1409,8.47,74.2690,0.0000,0.0007,0.0013,0,0,0,0.0000,0.0000,0.0000,0.0000
v_cartooncity_1_5,viewpoint,1177,1044,7.74,76.0439,0.0000,0.0000,0.0000,0,0,0,0.0000,0.0000,0.0000,0.0000
v_cartooncity_1_6,viewpoint,1096,871,7.82,70.7076,0.0018,0.0027,0.0036,0,0,0,0.0000,0.0000,0.0000,0.0000
v_charing_1_2,viewpoint,765,512,6.35,2.5597,0.6497,0.7569,0.7856,1,1,1,0.0000,0.1468,0.4881,0.7440
v_charing_1_3,viewpoint,604,342,5.65,71.9574,0.5546,0.7053,0.7632,0,0,0,0.0000,0.0000,0.0000,0.0000
v_charing_1_4,viewpoint,653,459,6.04,2.6741,0.6845,0.7841,0.8208,1,1,1,0.0000,0.1086,0.4652,0.7326
v_charing_1_5,viewpoint,554,418,5.33,37.2261,0.7473,0.8610,0.8917,0,0,0,0.0000,0.0000,0.0000,0.0000
v_charing_1_6,viewpoint,556,423,10.28,72.4926,0.7248,0.8381,0.8813,0,0,0,0.0000,0.0000,0.0000,0.0000
v_churchill_1_2,viewpoint,998,937,7.41,0.6361,0.9409,0.9699,0.9820,1,1,1,0.3639,0.7880,0.8728,0.9364
v_churchill_1_3,viewpoint,955,835,7.74,2.3134,0.8743,0.9236,0.9476,1,1,1,0.0000,0.2289,0.5373,0.7687
v_churchill_1_4,viewpoint,923,805,6.71,0.6959,0.8754,0.9317,0.9523,1,1,1,0.3041,0.7680,0.8608,0.9304
v_churchill_1_5,viewpoint,1113,1066,6.43,0.3812,0.9578,0.9793,0.9883,1,1,1,0.6188,0.8729,0.9238,0.9619
v_churchill_1_6,viewpoint,761,634,6.41,2.0922,0.8226,0.8962,0.9304,1,1,1,0.0000,0.3026,0.5816,0.7908
v_circus_1_2,viewpoint,1257,1104,7.62,0.3474,0.8775,0.9419,0.9650,1,1,1,0.6526,0.8842,0.9305,0.9653
v_circus_1_3,viewpoint,1150,958,7.59,0.9010,0.8165,0.9261,0.9600,1,1,1,0.0990,0.6997,0.8198,0.9099
v_circus_1_4,viewpoint,953,697,7.07,1.9596,0.7314,0.8804,0.9182,1,1,1,0.0000,0.3468,0.6081,0.8040
v_circus_1_5,viewpoint,1165,1010,7.58,0.5164,0.8635,0.9356,0.9528,1,1,1,0.4836,0.8279,0.8967,0.9484
v_circus_1_6,viewpoint,1015,830,7.21,0.8522,0.8069,0.9232,0.9458,1,1,1,0.1478,0.7159,0.8296,0.9148
v_coffeehouse_1_2,viewpoint,962,893,7.70,0.7775,0.9231,0.9459,0.9563,1,1,1,0.2225,0.7408,0.8445,0.9222
v_coffeehouse_1_3,viewpoint,1000,916,7.50,0.6276,0.9160,0.9380,0.9570,1,1,1,0.3724,0.7908,0.8745,0.9372
v_coffeehouse_1_4,viewpoint,927,847,6.39,1.2211,0.9072,0.9428,0.9504,1,1,1,0.0000,0.5930,0.7558,0.8779
v_coffeehouse_1_5,viewpoint,889,813,6.51,0.5175,0.9156,0.9438,0.9494,1,1,1,0.4825,0.8275,0.8965,0.9482
v_coffeehouse_1_6,viewpoint,796,680,6.17,0.9590,0.8518,0.8920,0.9045,1,1,1,0.0410,0.6803,0.8082,0.9041
v_colors_1_2,viewpoint,264,175,3.89,0.5974,0.6629,0.7879,0.8333,1,1,1,0.4026,0.8009,0.8805,0.9403
v_colors_1_3,viewpoint,258,154,3.94,0.7688,0.5969,0.6977,0.7558,1,1,1,0.2312,0.7437,0.8462,0.9231
v_colors_1_4,viewpoint,206,66,4.17,7.8658,0.3107,0.3835,0.4369,0,0,0,0.0000,0.0000,0.0000,0.2134
v_colors_1_5,viewpoint,192,43,4.37,10.3664,0.2292,0.2812,0.3229,0,0,0,0.0000,0.0000,0.0000,0.0000
v_colors_1_6,viewpoint,160,28,4.25,8.0745,0.1875,0.2313,0.2938,0,0,0,0.0000,0.0000,0.0000,0.1925
v_courses_1_2,viewpoint,1214,1147,7.35,0.8650,0.9415,0.9753,0.9786,1,1,1,0.1350,0.7117,0.8270,0.9135
v_courses_1_3,viewpoint,1078,991,6.91,1.3162,0.9174,0.9675,0.9805,1,1,1,0.0000,0.5613,0.7368,0.8684
v_courses_1_4,viewpoint,1063,995,7.25,0.6272,0.9323,0.9765,0.9821,1,1,1,0.3728,0.7909,0.8746,0.9373
v_courses_1_5,viewpoint,937,824,6.71,1.3972,0.8634,0.9498,0.9658,1,1,1,0.0000,0.5343,0.7206,0.8603
v_courses_1_6,viewpoint,854,707,6.56,1.9901,0.7951,0.9204,0.9426,1,1,1,0.0000,0.3366,0.6020,0.8010
v_dirtywall_1_2,viewpoint,1446,1367,14.31,0.3237,0.9454,0.9737,0.9806,1,1,1,0.6763,0.8921,0.9353,0.9676
v_dirtywall_1_3,viewpoint,1367,1257,7.93,0.6070,0.9203,0.9590,0.9729,1,1,1,0.3930,0.7977,0.8786,0.9393
v_dirtywall_1_4,viewpoint,1203,1047,7.79,0.6613,0.8695,0.9177,0.9377,1,1,1,0.3387,0.7796,0.8677,0.9339
v_dirtywall_1_5,viewpoint,1239,1124,7.76,0.7240,0.9048,0.9387,0.9508,1,1,1,0.2760,0.7587,0.8552,0.9276
v_dirtywall_1_6,viewpoint,921,752,7.63,1.0258,0.8165,0.8730,0.8914,1,1,1,0.0000,0.6581,0.7948,0.8974
v_dogman_1_2,viewpoint,729,630,5.20,1.0996,0.8669,0.9177,0.9383,1,1,1,0.0000,0.6335,0.7801,0.8900
v_dogman_1_3,viewpoint,782,707,6.04,0.4107,0.9028,0.9258,0.9425,1,1,1,0.5893,0.8631,0.9179,0.9589
v_dogman_1_4,viewpoint,551,411,5.06,0.6642,0.7387,0.8276,0.8639,1,1,1,0.3358,0.7786,0.8672,0.9336
v_dogman_1_5,viewpoint,626,527,5.00,1.2990,0.8355,0.8978,0.9329,1,1,1,0.0000,0.5670,0.7402,0.8701
v_dogman_1_6,viewpoint,393,241,5.06,29.2348,0.6056,0.6947,0.7277,0,0,0,0.0000,0.0000,0.0000,0.0000
v_eastsouth_1_2,viewpoint,1561,1491,8.15,0.2432,0.9558,0.9737,0.9808,1,1,1,0.7568,0.9189,0.9514,0.9757
v_eastsouth_1_3,viewpoint,679,195,8.03,1.8858,0.2857,0.3667,0.4168,1,1,1,0.0000,0.3714,0.6228,0.8114
v_eastsouth_1_4,viewpoint,399,9,7.75,4273.9772,0.0025,0.0025,0.0025,0,0,0,0.0000,0.0000,0.0000,0.0000
v_eastsouth_1_5,viewpoint,528,18,8.08,94.6310,0.0758,0.1023,0.1193,0,0,0,0.0000,0.0000,0.0000,0.0000
v_eastsouth_1_6,viewpoint,649,220,7.66,1.7822,0.3390,0.3914,0.4145,1,1,1,0.0000,0.4059,0.6436,0.8218
v_feast_1_2,viewpoint,1328,1232,7.95,0.3910,0.9270,0.9631,0.9782,1,1,1,0.6090,0.8697,0.9218,0.9609
v_feast_1_3,viewpoint,1393,1295,7.92,0.9422,0.9203,0.9663,0.9813,1,1,1,0.0578,0.6859,0.8116,0.9058
v_feast_1_4,viewpoint,1111,976,7.81,0.3986,0.8749,0.9253,0.9370,1,1,1,0.6014,0.8671,0.9203,0.9601
v_feast_1_5,viewpoint,1275,1171,7.93,0.3815,0.9208,0.9600,0.9733,1,1,1,0.6185,0.8728,0.9237,0.9618
v_feast_1_6,viewpoint,1134,997,7.90,0.9099,0.8651,0.9374,0.9506,1,1,1,0.0901,0.6967,0.8180,0.9090
v_fest_1_2,viewpoint,1463,1359,8.49,0.4447,0.9316,0.9556,0.9672,1,1,1,0.5553,0.8518,0.9111,0.9555
v_fest_1_3,viewpoint,1191,1019,8.12,0.9618,0.8581,0.9152,0.9362,1,1,1,0.0382,0.6794,0.8076,0.9038
v_fest_1_4,viewpoint,1173,1101,8.28,0.5229,0.9344,0.9659,0.9744,1,1,1,0.4771,0.8257,0.8954,0.9477
v_fest_1_5,viewpoint,1164,1052,8.48,1.2832,0.8986,0.9519,0.9665,1,1,1,0.0000,0.5723,0.7434,0.8717
v_fest_1_6,viewpoint,1036,859,8.19,2.6804,0.8147,0.8986,0.9266,1,1,1,0.0000,0.1065,0.4639,0.7320
v_gardens_1_2,viewpoint,1372,1252,7.95,0.8065,0.9089,0.9483,0.9599,1,1,1,0.1935,0.7312,0.8387,0.9194
v_gardens_1_3,viewpoint,833,635,7.37,2.9332,0.7455,0.8283,0.8595,1,1,1,0.0000,0.0223,0.4134,0.7067
v_gardens_1_4,viewpoint,1559,1472,7.98,0.6120,0.9391,0.9705,0.9827,1,1,1,0.3880,0.7960,0.8776,0.9388
v_gardens_1_5,viewpoint,1037,880,7.98,1.5380,0.8409,0.9074,0.9277,1,1,1,0.0000,0.4873,0.6924,0.8462
v_gardens_1_6,viewpoint,1324,1068,8.07,0.8293,0.8066,0.9086,0.9403,1,1,1,0.1707,0.7236,0.8341,0.9171
v_grace_1_2,viewpoint,882,790,6.27,0.3489,0.8980,0.9456,0.9615,1,1,1,0.6511,0.8837,0.9302,0.9651
v_grace_1_3,viewpoint,781,681,6.67,0.9112,0.8681,0.9270,0.9437,1,1,1,0.0888,0.6963,0.8178,0.9089
v_grace_1_4,viewpoint,697,573,6.88,1.2769,0.8250,0.8737,0.8981,1,1,1,0.0000,0.5744,0.7446,0.8723
v_grace_1_5,viewpoint,555,377,5.84,1.1543,0.6847,0.7369,0.7622,1,1,1,0.0000,0.6152,0.7691,0.8846
v_grace_1_6,viewpoint,467,219,5.55,1.8569,0.4625,0.5332,0.5610,1,1,1,0.0000,0.3810,0.6286,0.8143
v_graffiti_1_2,viewpoint,1092,877,8.02,0.5367,0.8031,0.8901,0.9194,1,1,1,0.4633,0.8211,0.8927,0.9463
v_graffiti_1_3,viewpoint,1022,813,7.49,1.6280,0.7828,0.8689,0.9022,1,1,1,0.0000,0.4573,0.6744,0.8372
v_graffiti_1_4,viewpoint,655,189,7.33,2.0440,0.2901,0.3878,0.4351,1,1,1,0.0000,0.3187,0.5912,0.7956
v_graffiti_1_5,viewpoint,733,477,7.23,0.9220,0.6344,0.7422,0.7804,1,1,1,0.0780,0.6927,0.8156,0.9078
v_graffiti_1_6,viewpoint,421,44,7.13,8.5383,0.1188,0.1449,0.1829,0,0,0,0.0000,0.0000,0.0000,0.1462
v_home_1_2,viewpoint,870,781,7.12,0.7650,0.8931,0.9333,0.9448,1,1,1,0.2350,0.7450,0.8470,0.9235
v_home_1_3,viewpoint,749,627,6.78,1.4772,0.8344,0.8745,0.8945,1,1,1,0.0000,0.5076,0.7046,0.8523
v_home_1_4,viewpoint,909,810,7.32,1.2681,0.8922,0.9263,0.9395,1,1,1,0.0000,0.5773,0.7464,0.8732
v_home_1_5,viewpoint,781,637,7.17,4.1979,0.7990,0.8796,0.9027,0,1,1,0.0000,0.0000,0.1604,0.5802
v_home_1_6,viewpoint,499,201,6.88,1.4082,0.3828,0.5070,0.5792,1,1,1,0.0000,0.5306,0.7184,0.8592
v_laptop_1_2,viewpoint,1134,1072,6.45,0.2897,0.9462,0.9797,0.9921,1,1,1,0.7103,0.9034,0.9421,0.9710
v_laptop_1_3,viewpoint,675,464,6.20,0.9366,0.6726,0.7896,0.8519,1,1,1,0.0634,0.6878,0.8127,0.9063
v_laptop_1_4,viewpoint,368,12,6.07,98.7621,0.0462,0.0870,0.1250,0,0,0,0.0000,0.0000,0.0000,0.0000
v_laptop_1_5,viewpoint,310,8,5.85,402.0766,0.0032,0.0097,0.0161,0,0,0,0.0000,0.0000,0.0000,0.0000
v_laptop_1_6,viewpoint,353,11,6.18,1412.5638,0.0000,0.0028,0.0057,0,0,0,0.0000,0.0000,0.0000,0.0000
v_london_1_2,viewpoint,1538,1457,8.38,0.1700,0.9486,0.9714,0.9818,1,1,1,0.8300,0.9433,0.9660,0.9830
v_london_1_3,viewpoint,1374,1281,8.97,0.2731,0.9309,0.9571,0.9687,1,1,1,0.7269,0.9090,0.9454,0.9727
v_london_1_4,viewpoint,1385,1256,8.16,0.8947,0.9061,0.9516,0.9682,1,1,1,0.1053,0.7018,0.8211,0.9105
v_london_1_5,viewpoint,1543,1458,8.17,0.3760,0.9436,0.9682,0.9806,1,1,1,0.6240,0.8747,0.9248,0.9624
v_london_1_6,viewpoint,1674,1604,8.00,0.3197,0.9582,0.9791,0.9881,1,1,1,0.6803,0.8934,0.9361,0.9680
v_machines_1_2,viewpoint,1315,1227,7.35,0.5284,0.9300,0.9703,0.9817,1,1,1,0.4716,0.8239,0.8943,0.9472
v_machines_1_3,viewpoint,958,802,6.60,2.2653,0.7985,0.9290,0.9562,1,1,1,0.0000,0.2449,0.5469,0.7735
v_machines_1_4,viewpoint,1083,1042,6.56,0.5052,0.9621,0.9825,0.9889,1,1,1,0.4948,0.8316,0.8990,0.9495
v_machines_1_5,viewpoint,844,753,6.95,1.5508,0.8673,0.9538,0.9704,1,1,1,0.0000,0.4831,0.6898,0.8449
v_machines_1_6,viewpoint,1060,1024,7.71,0.3900,0.9651,0.9840,0.9896,1,1,1,0.6100,0.8700,0.9220,0.9610
v_man_1_2,viewpoint,974,895,7.65,1.7872,0.9189,0.9466,0.9548,1,1,1,0.0000,0.4043,0.6426,0.8213
v_man_1_3,viewpoint,796,677,7.51,3.0430,0.8354,0.9045,0.9246,0,1,1,0.0000,0.0000,0.3914,0.6957
v_man_1_4,viewpoint,805,655,6.25,2.4676,0.7963,0.9006,0.9354,1,1,1,0.0000,0.1775,0.5065,0.7532
v_man_1_5,viewpoint,979,901,6.54,1.7957,0.9122,0.9612,0.9694,1,1,1,0.0000,0.4014,0.6409,0.8204
v_man_1_6,viewpoint,969,868,6.62,1.9821,0.8947,0.9370,0.9494,1,1,1,0.0000,0.3393,0.6036,0.8018
v_maskedman_1_2,viewpoint,754,593,5.52,0.6605,0.7918,0.8647,0.8979,1,1,1,0.3395,0.7798,0.8679,0.9340
v_maskedman_1_3,viewpoint,651,495,5.74,1.5061,0.7604,0.8218,0.8541,1,1,1,0.0000,0.4980,0.6988,0.8494
v_maskedman_1_4,viewpoint,747,651,5.41,1.9258,0.8742,0.9170,0.9304,1,1,1,0.0000,0.3581,0.6148,0.8074
v_maskedman_1_5,viewpoint,776,715,5.63,1.3717,0.9188,0.9407,0.9536,1,1,1,0.0000,0.5428,0.7257,0.8628
v_maskedman_1_6,viewpoint,415,197,5.35,3.7693,0.4386,0.5133,0.5446,0,1,1,0.0000,0.0000,0.2461,0.6231
v_pomegranate_1_2,viewpoint,1533,1380,8.80,0.4142,0.8995,0.9524,0.9700,1,1,1,0.5858,0.8619,0.9172,0.9586
v_pomegranate_1_3,viewpoint,1504,1290,8.83,0.9032,0.8424,0.9322,0.9588,1,1,1,0.0968,0.6989,0.8194,0.9097
v_pomegranate_1_4,viewpoint,1428,1256,8.78,0.3986,0.8782,0.9335,0.9566,1,1,1,0.6014,0.8671,0.9203,0.9601
v_pomegranate_1_5,viewpoint,1372,1248,8.10,0.7721,0.9082,0.9541,0.9767,1,1,1,0.2279,0.7426,0.8456,0.9228
v_pomegranate_1_6,viewpoint,1385,1279,7.92,0.5485,0.9242,0.9697,0.9841,1,1,1,0.4515,0.8172,0.8903,0.9452
v_posters_1_2,viewpoint,1025,904,14.67,115.0573,0.0000,0.0000,0.0000,0,0,0,0.0000,0.0000,0.0000,0.0000
v_posters_1_3,viewpoint,1245,1129,8.17,120.7374,0.0000,0.0000,0.0000,0,0,0,0.0000,0.0000,0.0000,0.0000
v_posters_1_4,viewpoint,1153,1058,8.26,112.3081,0.0000,0.0000,0.0000,0,0,0,0.0000,0.0000,0.0000,0.0000
v_posters_1_5,viewpoint,987,834,8.00,124.4827,0.0000,0.0000,0.0000,0,0,0,0.0000,0.0000,0.0000,0.0000
v_posters_1_6,viewpoint,1006,773,8.18,147.2823,0.0000,0.0000,0.0000,0,0,0,0.0000,0.0000,0.0000,0.0000
v_samples_1_2,viewpoint,1411,1321,8.72,67.9962,0.0000,0.0000,0.0000,0,0,0,0.0000,0.0000,0.0000,0.0000
v_samples_1_3,viewpoint,1506,1412,9.38,72.5397,0.0000,0.0000,0.0013,0,0,0,0.0000,0.0000,0.0000,0.0000
v_samples_1_4,viewpoint,1294,1159,8.52,71.6568,0.0000,0.0008,0.0062,0,0,0,0.0000,0.0000,0.0000,0.0000
v_samples_1_5,viewpoint,1404,1312,8.18,80.5742,0.0000,0.0000,0.0000,0,0,0,0.0000,0.0000,0.0000,0.0000
v_samples_1_6,viewpoint,1230,1089,8.26,66.9966,0.0000,0.0000,0.0073,0,0,0,0.0000,0.0000,0.0000,0.0000
v_soldiers_1_2,viewpoint,1116,1033,6.95,0.4309,0.9256,0.9686,0.9821,1,1,1,0.5691,0.8564,0.9138,0.9569
v_soldiers_1_3,viewpoint,857,749,6.69,0.8364,0.8693,0.9428,0.9592,1,1,1,0.1636,0.7212,0.8327,0.9164
v_soldiers_1_4,viewpoint,695,545,6.63,0.6103,0.7871,0.8360,0.8576,1,1,1,0.3897,0.7966,0.8779,0.9390
v_soldiers_1_5,viewpoint,640,397,6.71,2.1434,0.6172,0.6813,0.7078,1,1,1,0.0000,0.2855,0.5713,0.7857
v_soldiers_1_6,viewpoint,1021,920,7.35,97.3328,0.0000,0.0000,0.0000,0,0,0,0.0000,0.0000,0.0000,0.0000
v_strand_1_2,viewpoint,1248,1181,7.85,0.1428,0.9471,0.9688,0.9848,1,1,1,0.8572,0.9524,0.9714,0.9857
v_strand_1_3,viewpoint,950,867,7.37,0.6529,0.9032,0.9684,0.9747,1,1,1,0.3471,0.7824,0.8694,0.9347
v_strand_1_4,viewpoint,907,836,6.36,2.3186,0.9052,0.9559,0.9713,1,1,1,0.0000,0.2271,0.5363,0.7681
v_strand_1_5,viewpoint,959,886,6.50,2.3042,0.8968,0.9635,0.9771,1,1,1,0.0000,0.2319,0.5392,0.7696
v_strand_1_6,viewpoint,796,703,5.99,3.7709,0.8141,0.9384,0.9711,0,1,1,0.0000,0.0000,0.2458,0.6229
v_sunseason_1_2,viewpoint,1736,1622,8.46,0.1064,0.9343,0.9620,0.9683,1,1,1,0.8936,0.9645,0.9787,0.9894
v_sunseason_1_3,viewpoint,1568,1448,8.13,0.2342,0.9247,0.9471,0.9534,1,1,1,0.7658,0.9219,0.9532,0.9766
v_sunseason_1_4,viewpoint,1134,920,7.88,0.6993,0.8113,0.8457,0.8527,1,1,1,0.3007,0.7669,0.8601,0.9301
v_sunseason_1_5,viewpoint,981,764,7.87,0.8226,0.7798,0.8084,0.8257,1,1,1,0.1774,0.7258,0.8355,0.9177
v_sunseason_1_6,viewpoint,854,610,7.91,1.1636,0.7096,0.7436,0.7646,1,1,1,0.0000,0.6121,0.7673,0.8836
v_tabletop_1_2,viewpoint,1300,1174,8.57,0.6037,0.8992,0.9369,0.9508,1,1,1,0.3963,0.7988,0.8793,0.9396
v_tabletop_1_3,viewpoint,1028,646,9.01,1.6590,0.6226,0.6936,0.7286,1,1,1,0.0000,0.4470,0.6682,0.8341
v_tabletop_1_4,viewpoint,1035,820,8.22,1.0601,0.7826,0.8531,0.8705,1,1,1,0.0000,0.6466,0.7880,0.8940
v_tabletop_1_5,viewpoint,1039,855,7.79,0.7116,0.8181,0.8768,0.8970,1,1,1,0.2884,0.7628,0.8577,0.9288
v_tabletop_1_6,viewpoint,1037,867,7.93,0.7810,0.8322,0.8881,0.9045,1,1,1,0.2190,0.7397,0.8438,0.9219
v_tempera_1_2,viewpoint,771,731,5.40,0.3013,0.9442,0.9728,0.9805,1,1,1,0.6987,0.8996,0.9397,0.9699
v_tempera_1_3,viewpoint,750,699,5.52,0.5176,0.9280,0.9640,0.9747,1,1,1,0.4824,0.8275,0.8965,0.9482
v_tempera_1_4,viewpoint,763,702,5.74,0.5571,0.9187,0.9581,0.9790,1,1,1,0.4429,0.8143,0.8886,0.9443
v_tempera_1_5,viewpoint,696,627,5.68,0.8662,0.8922,0.9440,0.9555,1,1,1,0.1338,0.7113,0.8268,0.9134
v_tempera_1_6,viewpoint,406,302,4.96,0.9113,0.7389,0.8128,0.8399,1,1,1,0.0887,0.6962,0.8177,0.9089
v_there_1_2,viewpoint,484,415,5.15,1.0528,0.8512,0.9277,0.9628,1,1,1,0.0000,0.6491,0.7894,0.8947
v_there_1_3,viewpoint,360,139,5.02,1.7337,0.3694,0.4583,0.4722,1,1,1,0.0000,0.4221,0.6533,0.8266
v_there_1_4,viewpoint,307,40,5.42,2.0555,0.1173,0.1726,0.1857,1,1,1,0.0000,0.3148,0.5889,0.7945
v_there_1_5,viewpoint,260,8,5.24,302.6987,0.0308,0.0500,0.0615,0,0,0,0.0000,0.0000,0.0000,0.0000
v_there_1_6,viewpoint,242,9,5.41,1400.2794,0.0041,0.0041,0.0041,0,0,0,0.0000,0.0000,0.0000,0.0000
v_underground_1_2,viewpoint,1482,1430,7.58,0.2144,0.9636,0.9818,0.9852,1,1,1,0.7856,0.9285,0.9571,0.9786
v_underground_1_3,viewpoint,1313,1234,7.33,0.2974,0.9406,0.9665,0.9718,1,1,1,0.7026,0.9009,0.9405,0.9703
v_underground_1_4,viewpoint,1045,950,6.96,0.6607,0.9072,0.9512,0.9636,1,1,1,0.3393,0.7798,0.8679,0.9339
v_underground_1_5,viewpoint,901,750,7.24,0.3627,0.8291,0.8901,0.9068,1,1,1,0.6373,0.8791,0.9275,0.9637
v_underground_1_6,viewpoint,724,541,6.62,3.3645,0.7486,0.8191,0.8425,0,1,1,0.0000,0.0000,0.3271,0.6635
v_vitro_1_2,viewpoint,1644,1577,9.15,0.1593,0.9599,0.9745,0.9818,1,1,1,0.8407,0.9469,0.9681,0.9841
v_vitro_1_3,viewpoint,1500,1411,8.94,0.3096,0.9407,0.9627,0.9673,1,1,1,0.6904,0.8968,0.9381,0.9690
v_vitro_1_4,viewpoint,1290,1176,7.86,0.3869,0.9109,0.9581,0.9651,1,1,1,0.6131,0.8710,0.9226,0.9613
v_vitro_1_5,viewpoint,1506,1433,8.28,0.3276,0.9502,0.9774,0.9827,1,1,1,0.6724,0.8908,0.9345,0.9672
v_vitro_1_6,viewpoint,1352,1247,7.78,0.4806,0.9216,0.9638,0.9675,1,1,1,0.5194,0.8398,0.9039,0.9519
v_wall_1_2,viewpoint,1094,1027,6.44,0.5154,0.9406,0.9653,0.9790,1,1,1,0.4846,0.8282,0.8969,0.9485
v_wall_1_3,viewpoint,961,864,6.05,1.5865,0.9011,0.9303,0.9469,1,1,1,0.0000,0.4712,0.6827,0.8413
v_wall_1_4,viewpoint,1129,1085,6.53,0.1774,0.9619,0.9796,0.9858,1,1,1,0.8226,0.9409,0.9645,0.9823
v_wall_1_5,viewpoint,955,849,6.46,0.8978,0.8859,0.9351,0.9592,1,1,1,0.1022,0.7007,0.8204,0.9102
v_wall_1_6,viewpoint,882,747,6.07,4.2951,0.8401,0.8900,0.9104,0,1,1,0.0000,0.0000,0.1410,0.5705
v_wapping_1_2,viewpoint,1353,989,8.49,0.5046,0.7288,0.8359,0.8891,1,1,1,0.4954,0.8318,0.8991,0.9495
v_wapping_1_3,viewpoint,1058,741,8.19,0.9753,0.7051,0.8072,0.8459,1,1,1,0.0247,0.6749,0.8049,0.9025
v_wapping_1_4,viewpoint,1070,715,8.73,1.8196,0.6598,0.7654,0.8121,1,1,1,0.0000,0.3935,0.6361,0.8180
v_wapping_1_5,viewpoint,855,536,7.96,0.5812,0.6269,0.7088,0.7520,1,1,1,0.4188,0.8063,0.8838,0.9419
v_wapping_1_6,viewpoint,714,316,7.59,3.5884,0.4300,0.5126,0.5560,0,1,1,0.0000,0.0000,0.2823,0.6412
v_war_1_2,viewpoint,1196,1041,7.79,1.2418,0.8771,0.9565,0.9699,1,1,1,0.0000,0.5861,0.7516,0.8758
v_war_1_3,viewpoint,966,792,12.22,1.7642,0.8075,0.9244,0.9493,1,1,1,0.0000,0.4119,0.6472,0.8236
v_war_1_4,viewpoint,1397,1336,8.05,0.4299,0.9499,0.9814,0.9850,1,1,1,0.5701,0.8567,0.9140,0.9570
v_war_1_5,viewpoint,1303,1218,12.34,0.5822,0.9401,0.9754,0.9831,1,1,1,0.4178,0.8059,0.8836,0.9418
v_war_1_6,viewpoint,896,743,6.95,1.8737,0.7991,0.8973,0.9219,1,1,1,0.0000,0.3754,0.6253,0.8126
v_weapons_1_2,viewpoint,1291,1224,8.54,0.4777,0.9466,0.9721,0.9814,1,1,1,0.5223,0.8408,0.9045,0.9522
v_weapons_1_3,viewpoint,1142,1050,8.82,0.5855,0.9221,0.9623,0.9781,1,1,1,0.4145,0.8048,0.8829,0.9415
v_weapons_1_4,viewpoint,1230,1121,7.96,0.7527,0.9106,0.9561,0.9715,1,1,1,0.2473,0.7491,0.8495,0.9247
v_weapons_1_5,viewpoint,1245,1186,7.76,0.8888,0.9510,0.9831,0.9904,1,1,1,0.1112,0.7037,0.8222,0.9111
v_weapons_1_6,viewpoint,1109,1052,7.14,0.9070,0.9441,0.9757,0.9865,1,1,1,0.0930,0.6977,0.8186,0.9093
v_woman_1_2,viewpoint,647,503,6.36,46.6313,0.0000,0.0000,0.0015,0,0,0,0.0000,0.0000,0.0000,0.0000
v_woman_1_3,viewpoint,753,639,6.30,49.7612,0.0000,0.0000,0.0000,0,0,0,0.0000,0.0000,0.0000,0.0000
v_woman_1_4,viewpoint,647,514,5.98,50.4070,0.0000,0.0000,0.0015,0,0,0,0.0000,0.0000,0.0000,0.0000
v_woman_1_5,viewpoint,552,370,6.49,43.9652,0.0000,0.0000,0.0000,0,0,0,0.0000,0.0000,0.0000,0.0000
v_woman_1_6,viewpoint,588,445,5.96,49.3611,0.0000,0.0000,0.0000,0,0,0,0.0000,0.0000,0.0000,0.0000
v_wormhole_1_2,viewpoint,1104,1014,7.79,0.3631,0.9167,0.9511,0.9620,1,1,1,0.6369,0.8790,0.9274,0.9637
v_wormhole_1_3,viewpoint,1228,1118,8.00,0.7146,0.9096,0.9528,0.9707,1,1,1,0.2854,0.7618,0.8571,0.9285
v_wormhole_1_4,viewpoint,1400,1317,8.33,0.5337,0.9386,0.9700,0.9807,1,1,1,0.4663,0.8221,0.8933,0.9466
v_wormhole_1_5,viewpoint,1041,889,7.81,4.0224,0.8482,0.9126,0.9318,0,1,1,0.0000,0.0000,0.1955,0.5978
v_wormhole_1_6,viewpoint,722,473,7.11,2.2603,0.6108,0.7562,0.8089,1,1,1,0.0000,0.2466,0.5479,0.7740
v_wounded_1_2,viewpoint,1065,986,6.46,0.5860,0.9230,0.9615,0.9728,1,1,1,0.4140,0.8047,0.8828,0.9414
v_wounded_1_3,viewpoint,785,594,5.77,5.4636,0.7554,0.8000,0.8242,0,0,1,0.0000,0.0000,0.0000,0.4536
v_wounded_1_4,viewpoint,471,322,5.23,23.4486,0.6879,0.7707,0.8259,0,0,0,0.0000,0.0000,0.0000,0.0000
v_wounded_1_5,viewpoint,698,575,5.76,1.7919,0.8266,0.8897,0.9083,1,1,1,0.0000,0.4027,0.6416,0.8208
v_wounded_1_6,viewpoint,481,310,5.55,4.5374,0.6383,0.7318,0.7983,0,1,1,0.0000,0.0000,0.0925,0.5463
v_yard_1_2,viewpoint,1411,1331,8.77,0.3399,0.9461,0.9731,0.9794,1,1,1,0.6601,0.8867,0.9320,0.9660
v_yard_1_3,viewpoint,908,688,8.37,1.7171,0.7192,0.8513,0.8921,1,1,1,0.0000,0.4276,0.6566,0.8283
v_yard_1_4,viewpoint,1308,1209,8.42,0.5786,0.9228,0.9557,0.9679,1,1,1,0.4214,0.8071,0.8843,0.9421
v_yard_1_5,viewpoint,1091,903,8.24,1.1229,0.8323,0.9028,0.9221,1,1,1,0.0000,0.6257,0.7754,0.8877
v_yard_1_6,viewpoint,928,621,7.73,1.9072,0.6562,0.7823,0.8222,1,1,1,0.0000,0.3643,0.6186,0.8093
v_yuri_1_2,viewpoint,730,668,5.52,0.5398,0.9137,0.9658,0.9822,1,1,1,0.4602,0.8201,0.8920,0.9460
v_yuri_1_3,viewpoint,644,580,5.61,1.9752,0.8820,0.9519,0.9674,1,1,1,0.0000,0.3416,0.6050,0.8025
v_yuri_1_4,viewpoint,553,400,5.87,53.0132,0.6944,0.8192,0.8590,0,0,0,0.0000,0.0000,0.0000,0.0000
v_yuri_1_5,viewpoint,684,604,5.33,0.8816,0.8801,0.9357,0.9649,1,1,1,0.1184,0.7061,0.8237,0.9118
v_yuri_1_6,viewpoint,577,470,5.17,4.6252,0.7920,0.9047,0.9393,0,1,1,0.0000,0.0000,0.0750,0.5375
