PairName,SeqType,NumMatches,Inliers,TimeMS,H_Error,MMA@3,MMA@5,MMA@7,MHA_Acc@3,MHA_Acc@5,MHA_Acc@7,AUC@1,AUC@3,AUC@5,AUC@10
i_ajuntament_1_2,illumination,940,851,231.42,0.2512,0.8936,0.9468,0.9734,1,1,1,0.7488,0.9163,0.9498,0.9749
i_ajuntament_1_3,illumination,602,391,3.91,1.1143,0.6379,0.7326,0.7674,1,1,1,0.0000,0.6286,0.7771,0.8886
i_ajuntament_1_4,illumination,453,188,3.62,0.8414,0.4018,0.4724,0.5276,1,1,1,0.1586,0.7195,0.8317,0.9159
i_ajuntament_1_5,illumination,443,194,3.20,1.2616,0.4266,0.4944,0.5395,1,1,1,0.0000,0.5795,0.7477,0.8738
i_ajuntament_1_6,illumination,451,188,3.24,1.1954,0.4102,0.4701,0.5277,1,1,1,0.0000,0.6015,0.7609,0.8805
i_autannes_1_2,illumination,995,912,7.81,0.2799,0.9166,0.9528,0.9628,1,1,1,0.7201,0.9067,0.9440,0.9720
i_autannes_1_3,illumination,868,720,3.67,0.4197,0.8249,0.8813,0.9067,1,1,1,0.5803,0.8601,0.9161,0.9580
i_autannes_1_4,illumination,861,490,4.00,1.3711,0.5436,0.6725,0.7236,1,1,1,0.0000,0.5430,0.7258,0.8629
i_autannes_1_5,illumination,850,489,5.45,0.9777,0.5671,0.6529,0.7082,1,1,1,0.0223,0.6741,0.8045,0.9022
i_autannes_1_6,illumination,1057,810,4.35,0.9317,0.7597,0.8458,0.8950,1,1,1,0.0683,0.6894,0.8137,0.9068
i_bologna_1_2,illumination,582,538,6.72,0.0000,0.9261,0.9759,0.9811,1,1,1,1.0000,1.0000,1.0000,1.0000
i_bologna_1_3,illumination,550,477,2.94,0.7368,0.8673,0.9182,0.9327,1,1,1,0.2632,0.7544,0.8526,0.9263
i_bologna_1_4,illumination,529,443,2.93,1.4256,0.8318,0.8904,0.9130,1,1,1,0.0000,0.5248,0.7149,0.8574
i_bologna_1_5,illumination,536,443,3.15,0.7280,0.8190,0.8750,0.9104,1,1,1,0.2720,0.7573,0.8544,0.9272
i_bologna_1_6,illumination,519,426,2.97,2.0568,0.8112,0.8632,0.8805,1,1,1,0.0000,0.3144,0.5886,0.7943
i_books_1_2,illumination,501,462,3.07,0.2818,0.9182,0.9401,0.9521,1,1,1,0.7182,0.9061,0.9436,0.9718
i_books_1_3,illumination,695,599,3.32,0.3594,0.8647,0.9050,0.9266,1,1,1,0.6406,0.8802,0.9281,0.9641
i_books_1_4,illumination,724,658,3.31,0.0000,0.9144,0.9448,0.9641,1,1,1,1.0000,1.0000,1.0000,1.0000
i_books_1_5,illumination,745,669,3.24,0.0000,0.8993,0.9302,0.9490,1,1,1,1.0000,1.0000,1.0000,1.0000
i_books_1_6,illumination,644,587,3.04,0.4166,0.9068,0.9317,0.9441,1,1,1,0.5834,0.8611,0.9167,0.9583
i_boutique_1_2,illumination,1194,1079,3.75,0.2993,0.9020,0.9464,0.9623,1,1,1,0.7007,0.9002,0.9401,0.9701
i_boutique_1_3,illumination,1210,1021,4.21,0.2919,0.8397,0.9099,0.9289,1,1,1,0.7081,0.9027,0.9416,0.9708
i_boutique_1_4,illumination,1188,1021,3.98,0.3832,0.8502,0.9200,0.9419,1,1,1,0.6168,0.8723,0.9234,0.9617
i_boutique_1_5,illumination,943,545,4.84,0.7401,0.5652,0.6490,0.6988,1,1,1,0.2599,0.7533,0.8520,0.9260
i_boutique_1_6,illumination,882,467,3.79,0.9201,0.5204,0.6077,0.6576,1,1,1,0.0799,0.6933,0.8160,0.9080
i_bridger_1_2,illumination,1400,1170,7.20,0.5364,0.8143,0.9171,0.9607,1,1,1,0.4636,0.8212,0.8927,0.9464
i_bridger_1_3,illumination,1245,977,4.23,0.4664,0.7703,0.8602,0.9052,1,1,1,0.5336,0.8445,0.9067,0.9534
i_bridger_1_4,illumination,1126,902,3.65,0.5038,0.7922,0.8801,0.9121,1,1,1,0.4962,0.8321,0.8992,0.9496
i_bridger_1_5,illumination,885,688,3.50,0.4526,0.7774,0.8757,0.9232,1,1,1,0.5474,0.8491,0.9095,0.9547
i_bridger_1_6,illumination,192,87,3.50,1.8979,0.4323,0.5260,0.5677,1,1,1,0.0000,0.3674,0.6204,0.8102
i_brooklyn_1_2,illumination,1206,966,4.53,0.5853,0.8010,0.8897,0.9262,1,1,1,0.4147,0.8049,0.8829,0.9415
i_brooklyn_1_3,illumination,1295,1143,4.87,1.2036,0.8602,0.9452,0.9753,1,1,1,0.0000,0.5988,0.7593,0.8796
i_brooklyn_1_4,illumination,981,657,4.67,0.9526,0.6442,0.7604,0.8308,1,1,1,0.0474,0.6825,0.8095,0.9047
i_brooklyn_1_5,illumination,1294,1130,4.37,1.4141,0.8385,0.9258,0.9575,1,1,1,0.0000,0.5286,0.7172,0.8586
i_brooklyn_1_6,illumination,1181,907,4.73,1.3744,0.7299,0.8586,0.9153,1,1,1,0.0000,0.5419,0.7251,0.8626
i_castle_1_2,illumination,1149,677,4.75,1.0256,0.5762,0.6719,0.7189,1,1,1,0.0000,0.6581,0.7949,0.8974
i_castle_1_3,illumination,1281,1027,4.99,0.2735,0.8048,0.8712,0.9032,1,1,1,0.7265,0.9088,0.9453,0.9727
i_castle_1_4,illumination,1090,847,4.15,0.7535,0.7606,0.8450,0.8725,1,1,1,0.2465,0.7488,0.8493,0.9246
i_castle_1_5,illumination,793,420,5.22,0.9629,0.5233,0.6217,0.6646,1,1,1,0.0371,0.6790,0.8074,0.9037
i_castle_1_6,illumination,901,463,3.76,0.7483,0.5094,0.6004,0.6459,1,1,1,0.2517,0.7506,0.8503,0.9252
i_chestnuts_1_2,illumination,1159,1015,3.77,0.4266,0.8671,0.9232,0.9517,1,1,1,0.5734,0.8578,0.9147,0.9573
i_chestnuts_1_3,illumination,1146,981,4.52,0.0000,0.8586,0.9136,0.9380,1,1,1,1.0000,1.0000,1.0000,1.0000
i_chestnuts_1_4,illumination,1137,971,3.79,0.3555,0.8487,0.8865,0.9235,1,1,1,0.6445,0.8815,0.9289,0.9645
i_chestnuts_1_5,illumination,1057,857,4.87,0.0000,0.8146,0.8732,0.8969,1,1,1,1.0000,1.0000,1.0000,1.0000
i_chestnuts_1_6,illumination,937,736,3.49,0.5098,0.7748,0.8356,0.8602,1,1,1,0.4902,0.8301,0.8980,0.9490
i_crownday_1_2,illumination,887,583,3.85,0.7337,0.6505,0.7610,0.8467,1,1,1,0.2663,0.7554,0.8533,0.9266
i_crownday_1_3,illumination,1005,767,3.80,0.0000,0.7682,0.8587,0.9055,1,1,1,1.0000,1.0000,1.0000,1.0000
i_crownday_1_4,illumination,1045,866,4.17,0.8863,0.8239,0.8871,0.9167,1,1,1,0.1137,0.7046,0.8227,0.9114
i_crownday_1_5,illumination,1123,1006,4.13,0.3882,0.8949,0.9377,0.9617,1,1,1,0.6118,0.8706,0.9224,0.9612
i_crownday_1_6,illumination,842,537,4.23,0.6471,0.6271,0.7458,0.8124,1,1,1,0.3529,0.7843,0.8706,0.9353
i_dome_1_2,illumination,1311,1233,4.18,0.1671,0.9436,0.9672,0.9725,1,1,1,0.8329,0.9443,0.9666,0.9833
i_dome_1_3,illumination,725,455,4.12,0.0000,0.6276,0.6938,0.7379,1,1,1,1.0000,1.0000,1.0000,1.0000
i_dome_1_4,illumination,726,452,4.14,0.8229,0.6212,0.6901,0.7383,1,1,1,0.1771,0.7257,0.8354,0.9177
i_dome_1_5,illumination,741,456,3.85,0.7693,0.6167,0.6977,0.7395,1,1,1,0.2307,0.7436,0.8461,0.9231
i_dome_1_6,illumination,1080,898,4.80,0.2443,0.8333,0.8917,0.9231,1,1,1,0.7557,0.9186,0.9511,0.9756
i_duda_1_2,illumination,619,604,4.42,0.3118,0.9742,0.9919,0.9919,1,1,1,0.6882,0.8961,0.9376,0.9688
i_duda_1_3,illumination,588,560,4.09,0.2436,0.9507,0.9762,0.9847,1,1,1,0.7564,0.9188,0.9513,0.9756
i_duda_1_4,illumination,548,510,4.87,0.4003,0.9142,0.9635,0.9781,1,1,1,0.5997,0.8666,0.9199,0.9600
i_duda_1_5,illumination,508,461,4.49,0.7821,0.8996,0.9449,0.9626,1,1,1,0.2179,0.7393,0.8436,0.9218
i_duda_1_6,illumination,381,322,4.35,0.7861,0.8425,0.8898,0.9134,1,1,1,0.2139,0.7380,0.8428,0.9214
i_fenis_1_2,illumination,1507,1403,4.00,0.3158,0.9250,0.9648,0.9808,1,1,1,0.6842,0.8947,0.9368,0.9684
i_fenis_1_3,illumination,1276,1027,4.44,0.5268,0.8033,0.8777,0.9075,1,1,1,0.4732,0.8244,0.8946,0.9473
i_fenis_1_4,illumination,943,447,4.12,1.6434,0.4698,0.5695,0.6278,1,1,1,0.0000,0.4522,0.6713,0.8357
i_fenis_1_5,illumination,791,350,4.02,0.7855,0.4071,0.5221,0.5879,1,1,1,0.2145,0.7382,0.8429,0.9215
i_fenis_1_6,illumination,851,429,6.12,1.3336,0.4783,0.5875,0.6545,1,1,1,0.0000,0.5555,0.7333,0.8666
i_fog_1_2,illumination,1595,1460,4.46,0.1764,0.9154,0.9505,0.9649,1,1,1,0.8236,0.9412,0.9647,0.9824
i_fog_1_3,illumination,1178,991,3.88,0.2370,0.8421,0.8684,0.8871,1,1,1,0.7630,0.9210,0.9526,0.9763
i_fog_1_4,illumination,1162,985,4.83,0.1932,0.8485,0.8752,0.8881,1,1,1,0.8068,0.9356,0.9614,0.9807
i_fog_1_5,illumination,789,661,3.41,0.3681,0.8390,0.8619,0.8682,1,1,1,0.6319,0.8773,0.9264,0.9632
i_fog_1_6,illumination,704,593,4.56,0.2628,0.8466,0.8707,0.8835,1,1,1,0.7372,0.9124,0.9474,0.9737
i_fruits_1_2,illumination,1260,1166,8.35,0.2463,0.9230,0.9698,0.9810,1,1,1,0.7537,0.9179,0.9507,0.9754
i_fruits_1_3,illumination,1226,1082,4.12,0.2029,0.8825,0.9372,0.9576,1,1,1,0.7971,0.9324,0.9594,0.9797
i_fruits_1_4,illumination,1228,1078,4.24,0.3002,0.8770,0.9414,0.9544,1,1,1,0.6998,0.8999,0.9400,0.9700
i_fruits_1_5,illumination,1185,1015,5.45,0.4130,0.8549,0.9215,0.9519,1,1,1,0.5870,0.8623,0.9174,0.9587
i_fruits_1_6,illumination,1221,1049,4.20,0.2770,0.8575,0.9386,0.9517,1,1,1,0.7230,0.9077,0.9446,0.9723
i_gonnenberg_1_2,illumination,1426,1295,4.15,0.2561,0.9081,0.9404,0.9551,1,1,1,0.7439,0.9146,0.9488,0.9744
i_gonnenberg_1_3,illumination,1429,1289,4.23,0.0000,0.9034,0.9293,0.9433,1,1,1,1.0000,1.0000,1.0000,1.0000
i_gonnenberg_1_4,illumination,1353,1212,3.89,0.5212,0.8891,0.9231,0.9387,1,1,1,0.4788,0.8263,0.8958,0.9479
i_gonnenberg_1_5,illumination,1366,1239,3.87,0.4500,0.9070,0.9348,0.9451,1,1,1,0.5500,0.8500,0.9100,0.9550
i_gonnenberg_1_6,illumination,1382,1237,3.66,0.0000,0.8980,0.9363,0.9530,1,1,1,1.0000,1.0000,1.0000,1.0000
i_greenhouse_1_2,illumination,1305,1128,4.41,0.3830,0.8674,0.9149,0.9333,1,1,1,0.6170,0.8723,0.9234,0.9617
i_greenhouse_1_3,illumination,1311,1100,4.03,0.4688,0.8413,0.8993,0.9252,1,1,1,0.5312,0.8437,0.9062,0.9531
i_greenhouse_1_4,illumination,1186,925,3.87,0.5718,0.7740,0.8229,0.8465,1,1,1,0.4282,0.8094,0.8856,0.9428
i_greenhouse_1_5,illumination,1185,895,3.92,0.6833,0.7544,0.8093,0.8422,1,1,1,0.3167,0.7722,0.8633,0.9317
i_greenhouse_1_6,illumination,1060,729,3.72,0.6656,0.6792,0.7604,0.7953,1,1,1,0.3344,0.7781,0.8669,0.9334
i_greentea_1_2,illumination,1091,952,4.14,0.0000,0.8744,0.9047,0.9148,1,1,1,1.0000,1.0000,1.0000,1.0000
i_greentea_1_3,illumination,1422,1326,4.14,0.0000,0.9339,0.9620,0.9705,1,1,1,1.0000,1.0000,1.0000,1.0000
i_greentea_1_4,illumination,1475,1402,4.31,0.1493,0.9498,0.9681,0.9797,1,1,1,0.8507,0.9502,0.9701,0.9851
i_greentea_1_5,illumination,1417,1333,5.35,0.0000,0.9435,0.9577,0.9718,1,1,1,1.0000,1.0000,1.0000,1.0000
i_greentea_1_6,illumination,1243,1116,3.85,0.3919,0.8978,0.9332,0.9541,1,1,1,0.6081,0.8694,0.9216,0.9608
i_indiana_1_2,illumination,1291,1015,4.13,0.5975,0.7792,0.8683,0.9063,1,1,1,0.4025,0.8008,0.8805,0.9402
i_indiana_1_3,illumination,1289,938,4.67,0.3603,0.7192,0.8262,0.8681,1,1,1,0.6397,0.8799,0.9279,0.9640
i_indiana_1_4,illumination,1221,851,4.18,0.5438,0.6871,0.7871,0.8444,1,1,1,0.4562,0.8187,0.8912,0.9456
i_indiana_1_5,illumination,1180,760,4.29,0.6513,0.6381,0.7339,0.8008,1,1,1,0.3487,0.7829,0.8697,0.9349
i_indiana_1_6,illumination,1130,682,4.13,0.7175,0.5956,0.6903,0.7584,1,1,1,0.2825,0.7608,0.8565,0.9283
i_kions_1_2,illumination,781,574,6.99,1.3402,0.7119,0.8195,0.8489,1,1,1,0.0000,0.5533,0.7320,0.8660
i_kions_1_3,illumination,715,446,3.45,0.4762,0.6112,0.7161,0.7538,1,1,1,0.5238,0.8413,0.9048,0.9524
i_kions_1_4,illumination,660,450,3.23,0.9493,0.6530,0.7636,0.8030,1,1,1,0.0507,0.6836,0.8101,0.9051
i_kions_1_5,illumination,633,442,3.23,0.9961,0.6746,0.7899,0.8262,1,1,1,0.0039,0.6680,0.8008,0.9004
i_kions_1_6,illumination,709,433,3.24,0.2292,0.6093,0.6968,0.7377,1,1,1,0.7708,0.9236,0.9542,0.9771
i_ktirio_1_2,illumination,1071,1027,3.44,0.1945,0.9570,0.9813,0.9851,1,1,1,0.8055,0.9352,0.9611,0.9806
i_ktirio_1_3,illumination,797,647,7.27,0.6810,0.8118,0.8846,0.9059,1,1,1,0.3190,0.7730,0.8638,0.9319
i_ktirio_1_4,illumination,635,415,3.39,0.7534,0.6457,0.7543,0.8189,1,1,1,0.2466,0.7489,0.8493,0.9247
i_ktirio_1_5,illumination,762,563,3.41,0.6726,0.7310,0.8189,0.8530,1,1,1,0.3274,0.7758,0.8655,0.9327
i_ktirio_1_6,illumination,594,345,3.49,0.7564,0.5640,0.6650,0.7407,1,1,1,0.2436,0.7479,0.8487,0.9244
i_kurhaus_1_2,illumination,1497,1369,4.63,0.2477,0.9165,0.9532,0.9679,1,1,1,0.7523,0.9174,0.9505,0.9752
i_kurhaus_1_3,illumination,1393,1172,5.62,0.3241,0.8399,0.8938,0.9282,1,1,1,0.6759,0.8920,0.9352,0.9676
i_kurhaus_1_4,illumination,1312,1058,5.70,0.0000,0.8079,0.8613,0.9002,1,1,1,1.0000,1.0000,1.0000,1.0000
i_kurhaus_1_5,illumination,1243,958,4.93,0.2490,0.7747,0.8359,0.8681,1,1,1,0.7510,0.9170,0.9502,0.9751
i_kurhaus_1_6,illumination,1188,860,4.32,0.0000,0.7306,0.8089,0.8451,1,1,1,1.0000,1.0000,1.0000,1.0000
i_leuven_1_2,illumination,921,850,4.05,1.2491,0.9142,0.9631,0.9826,1,1,1,0.0000,0.5836,0.7502,0.8751
i_leuven_1_3,illumination,929,821,3.63,1.0069,0.8924,0.9516,0.9731,1,1,1,0.0000,0.6644,0.7986,0.8993
i_leuven_1_4,illumination,924,790,3.68,2.6726,0.8387,0.9167,0.9481,1,1,1,0.0000,0.1091,0.4655,0.7327
i_leuven_1_5,illumination,845,686,3.53,3.1629,0.8024,0.8746,0.9041,0,1,1,0.0000,0.0000,0.3674,0.6837
i_leuven_1_6,illumination,768,561,3.28,8.9546,0.5807,0.7357,0.8047,0,0,0,0.0000,0.0000,0.0000,0.1045
i_lionday_1_2,illumination,912,552,3.53,2.0783,0.5855,0.7007,0.7588,1,1,1,0.0000,0.3072,0.5843,0.7922
i_lionday_1_3,illumination,945,643,3.80,2.0293,0.6635,0.7799,0.8328,1,1,1,0.0000,0.3236,0.5941,0.7971
i_lionday_1_4,illumination,737,294,3.98,1.9038,0.3446,0.4898,0.5889,1,1,1,0.0000,0.3654,0.6192,0.8096
i_lionday_1_5,illumination,812,411,3.67,2.2479,0.4557,0.6047,0.6897,1,1,1,0.0000,0.2507,0.5504,0.7752
i_lionday_1_6,illumination,947,649,3.61,1.8881,0.6558,0.7878,0.8427,1,1,1,0.0000,0.3706,0.6224,0.8112
i_lionnight_1_2,illumination,1009,878,3.84,0.7944,0.8642,0.9177,0.9346,1,1,1,0.2056,0.7352,0.8411,0.9206
i_lionnight_1_3,illumination,823,692,4.14,1.1248,0.8311,0.8821,0.9064,1,1,1,0.0000,0.6251,0.7750,0.8875
i_lionnight_1_4,illumination,1062,958,4.03,0.8224,0.9002,0.9416,0.9520,1,1,1,0.1776,0.7259,0.8355,0.9178
i_lionnight_1_5,illumination,1032,927,3.67,1.1550,0.8905,0.9244,0.9351,1,1,1,0.0000,0.6150,0.7690,0.8845
i_lionnight_1_6,illumination,1036,936,4.84,0.9611,0.8919,0.9353,0.9479,1,1,1,0.0389,0.6796,0.8078,0.9039
i_londonbridge_1_2,illumination,934,879,4.39,1.0515,0.9272,0.9690,0.9872,1,1,1,0.0000,0.6495,0.7897,0.8949
i_londonbridge_1_3,illumination,939,858,4.51,0.7559,0.9042,0.9553,0.9691,1,1,1,0.2441,0.7480,0.8488,0.9244
i_londonbridge_1_4,illumination,876,690,4.34,2.2126,0.7443,0.8961,0.9441,1,1,1,0.0000,0.2625,0.5575,0.7787
i_londonbridge_1_5,illumination,672,356,3.82,2.4529,0.4777,0.6265,0.7247,1,1,1,0.0000,0.1824,0.5094,0.7547
i_londonbridge_1_6,illumination,858,709,3.52,0.8315,0.8193,0.8974,0.9417,1,1,1,0.1685,0.7228,0.8337,0.9169
i_melon_1_2,illumination,812,746,3.33,0.0000,0.9187,0.9606,0.9828,1,1,1,1.0000,1.0000,1.0000,1.0000
i_melon_1_3,illumination,714,577,3.32,1.1727,0.8067,0.8725,0.9160,1,1,1,0.0000,0.6091,0.7655,0.8827
i_melon_1_4,illumination,461,234,3.22,2.2381,0.4881,0.5835,0.6486,1,1,1,0.0000,0.2540,0.5524,0.7762
i_melon_1_5,illumination,720,550,3.58,0.9763,0.7597,0.8444,0.8903,1,1,1,0.0237,0.6746,0.8047,0.9024
i_melon_1_6,illumination,676,481,3.46,1.3504,0.7145,0.8033,0.8550,1,1,1,0.0000,0.5499,0.7299,0.8650
i_miniature_1_2,illumination,1363,1293,3.84,0.2485,0.9457,0.9773,0.9890,1,1,1,0.7515,0.9172,0.9503,0.9752
i_miniature_1_3,illumination,1188,1028,4.04,0.3501,0.8603,0.9099,0.9386,1,1,1,0.6499,0.8833,0.9300,0.9650
i_miniature_1_4,illumination,864,564,3.71,1.2652,0.6331,0.7350,0.7581,1,1,1,0.0000,0.5783,0.7470,0.8735
i_miniature_1_5,illumination,553,232,4.36,0.0000,0.4250,0.5045,0.5353,1,1,1,1.0000,1.0000,1.0000,1.0000
i_miniature_1_6,illumination,1171,1018,4.03,0.6105,0.8523,0.9223,0.9419,1,1,1,0.3895,0.7965,0.8779,0.9389
i_nescafe_1_2,illumination,891,723,4.59,0.3086,0.8081,0.8608,0.8855,1,1,1,0.6914,0.8971,0.9383,0.9691
i_nescafe_1_3,illumination,1045,865,3.62,0.0000,0.8316,0.8785,0.9053,1,1,1,1.0000,1.0000,1.0000,1.0000
i_nescafe_1_4,illumination,1080,918,6.13,0.3168,0.8528,0.8963,0.9185,1,1,1,0.6832,0.8944,0.9366,0.9683
i_nescafe_1_5,illumination,913,744,4.46,0.2805,0.8127,0.8521,0.8828,1,1,1,0.7195,0.9065,0.9439,0.9720
i_nescafe_1_6,illumination,947,711,4.17,0.1949,0.7476,0.8099,0.8501,1,1,1,0.8051,0.9350,0.9610,0.9805
i_nijmegen_1_2,illumination,1472,1159,4.68,0.9325,0.7425,0.8648,0.9130,1,1,1,0.0675,0.6892,0.8135,0.9067
i_nijmegen_1_3,illumination,1550,1272,5.75,0.7810,0.7794,0.8852,0.9258,1,1,1,0.2190,0.7397,0.8438,0.9219
i_nijmegen_1_4,illumination,762,443,5.15,0.7754,0.5696,0.6719,0.7297,1,1,1,0.2246,0.7415,0.8449,0.9225
i_nijmegen_1_5,illumination,1561,1259,5.79,0.8614,0.7668,0.8642,0.9129,1,1,1,0.1386,0.7129,0.8277,0.9139
i_nijmegen_1_6,illumination,1469,1169,5.05,0.8759,0.7726,0.8727,0.9265,1,1,1,0.1241,0.7080,0.8248,0.9124
i_nuts_1_2,illumination,1298,921,4.87,0.9804,0.7173,0.8059,0.8498,1,1,1,0.0196,0.6732,0.8039,0.9020
i_nuts_1_3,illumination,1041,600,4.99,0.6316,0.5696,0.6330,0.6705,1,1,1,0.3684,0.7895,0.8737,0.9368
i_nuts_1_4,illumination,857,374,4.35,0.8015,0.4224,0.4901,0.5321,1,1,1,0.1985,0.7328,0.8397,0.9198
i_nuts_1_5,illumination,808,225,3.93,0.9007,0.2686,0.3441,0.3837,1,1,1,0.0993,0.6998,0.8199,0.9099
i_nuts_1_6,illumination,781,160,4.72,1.6504,0.1895,0.2433,0.3009,1,1,1,0.0000,0.4499,0.6699,0.8350
i_objects_1_2,illumination,1460,1182,5.06,0.7421,0.8021,0.9034,0.9527,1,1,1,0.2579,0.7526,0.8516,0.9258
i_objects_1_3,illumination,1333,974,4.38,1.3582,0.7187,0.8417,0.8890,1,1,1,0.0000,0.5473,0.7284,0.8642
i_objects_1_4,illumination,1157,681,4.75,1.8382,0.5696,0.7131,0.7710,1,1,1,0.0000,0.3873,0.6324,0.8162
i_objects_1_5,illumination,1214,699,4.23,1.9197,0.5700,0.7010,0.7776,1,1,1,0.0000,0.3601,0.6161,0.8080
i_objects_1_6,illumination,1576,1395,4.18,0.0000,0.8902,0.9480,0.9708,1,1,1,1.0000,1.0000,1.0000,1.0000
i_parking_1_2,illumination,1014,897,3.68,0.2462,0.8925,0.9586,0.9872,1,1,1,0.7538,0.9179,0.9508,0.9754
i_parking_1_3,illumination,1035,859,3.46,0.5828,0.8280,0.9391,0.9662,1,1,1,0.4172,0.8057,0.8834,0.9417
i_parking_1_4,illumination,888,667,3.66,1.0747,0.7128,0.8491,0.9133,1,1,1,0.0000,0.6418,0.7851,0.8925
i_parking_1_5,illumination,714,372,3.67,1.2795,0.4902,0.6148,0.6821,1,1,1,0.0000,0.5735,0.7441,0.8720
i_parking_1_6,illumination,809,579,3.52,0.8780,0.6860,0.8109,0.8603,1,1,1,0.1220,0.7073,0.8244,0.9122
i_partyfood_1_2,illumination,480,476,3.00,0.0000,0.9938,0.9979,0.9979,1,1,1,1.0000,1.0000,1.0000,1.0000
i_partyfood_1_3,illumination,456,443,3.09,0.2451,0.9737,0.9912,0.9956,1,1,1,0.7549,0.9183,0.9510,0.9755
i_partyfood_1_4,illumination,432,407,3.07,0.3738,0.9421,0.9861,0.9954,1,1,1,0.6262,0.8754,0.9252,0.9626
i_partyfood_1_5,illumination,408,378,2.97,0.4208,0.9265,0.9755,0.9926,1,1,1,0.5792,0.8597,0.9158,0.9579
i_partyfood_1_6,illumination,383,340,3.39,0.9630,0.8930,0.9478,0.9817,1,1,1,0.0370,0.6790,0.8074,0.9037
i_pinard_1_2,illumination,624,567,3.20,0.7689,0.9054,0.9407,0.9679,1,1,1,0.2311,0.7437,0.8462,0.9231
i_pinard_1_3,illumination,561,379,3.27,1.5181,0.6827,0.7326,0.7807,1,1,1,0.0000,0.4940,0.6964,0.8482
i_pinard_1_4,illumination,561,406,3.25,0.7661,0.7255,0.7825,0.8235,1,1,1,0.2339,0.7446,0.8468,0.9234
i_pinard_1_5,illumination,591,443,3.44,1.9164,0.7513,0.8020,0.8528,1,1,1,0.0000,0.3612,0.6167,0.8084
i_pinard_1_6,illumination,575,455,3.36,0.9716,0.7896,0.8400,0.8991,1,1,1,0.0284,0.6761,0.8057,0.9028
i_pool_1_2,illumination,387,139,3.02,0.9479,0.3514,0.4083,0.4496,1,1,1,0.0521,0.6840,0.8104,0.9052
i_pool_1_3,illumination,281,27,2.94,17.2483,0.1174,0.1281,0.1530,0,0,0,0.0000,0.0000,0.0000,0.0000
i_pool_1_4,illumination,281,23,3.01,44.1950,0.1174,0.1495,0.1637,0,0,0,0.0000,0.0000,0.0000,0.0000
i_pool_1_5,illumination,337,86,3.18,2.4015,0.2433,0.2967,0.3234,1,1,1,0.0000,0.1995,0.5197,0.7598
i_pool_1_6,illumination,326,79,3.01,1.4805,0.2362,0.2822,0.2975,1,1,1,0.0000,0.5065,0.7039,0.8520
i_porta_1_2,illumination,1111,689,4.20,0.6024,0.6265,0.7894,0.8767,1,1,1,0.3976,0.7992,0.8795,0.9398
i_porta_1_3,illumination,1106,694,3.99,0.5379,0.6230,0.7939,0.8825,1,1,1,0.4621,0.8207,0.8924,0.9462
i_porta_1_4,illumination,1016,585,4.15,1.4455,0.5659,0.7441,0.8337,1,1,1,0.0000,0.5182,0.7109,0.8554
i_porta_1_5,illumination,547,387,3.51,0.9060,0.6892,0.8135,0.8647,1,1,1,0.0940,0.6980,0.8188,0.9094
i_porta_1_6,illumination,531,296,3.35,1.0421,0.5461,0.6422,0.7006,1,1,1,0.0000,0.6526,0.7916,0.8958
i_resort_1_2,illumination,1532,1343,4.98,0.2143,0.8773,0.9354,0.9563,1,1,1,0.7857,0.9286,0.9571,0.9786
i_resort_1_3,illumination,1745,1690,4.50,0.0843,0.9673,0.9828,0.9880,1,1,1,0.9157,0.9719,0.9831,0.9916
i_resort_1_4,illumination,1725,1635,4.28,0.0000,0.9513,0.9803,0.9861,1,1,1,1.0000,1.0000,1.0000,1.0000
i_resort_1_5,illumination,1508,1291,5.24,0.4851,0.8515,0.9304,0.9569,1,1,1,0.5149,0.8383,0.9030,0.9515
i_resort_1_6,illumination,1488,1316,4.50,0.5379,0.8616,0.9388,0.9644,1,1,1,0.4621,0.8207,0.8924,0.9462
i_salon_1_2,illumination,1565,1477,4.17,0.3818,0.9297,0.9674,0.9834,1,1,1,0.6182,0.8727,0.9236,0.9618
i_salon_1_3,illumination,1314,1143,4.74,0.3307,0.8661,0.9178,0.9467,1,1,1,0.6693,0.8898,0.9339,0.9669
i_salon_1_4,illumination,994,740,4.28,0.3730,0.7394,0.8018,0.8390,1,1,1,0.6270,0.8757,0.9254,0.9627
i_salon_1_5,illumination,1431,1240,4.09,0.3982,0.8609,0.9231,0.9553,1,1,1,0.6018,0.8673,0.9204,0.9602
i_salon_1_6,illumination,1269,1050,4.95,0.4645,0.8172,0.8889,0.9212,1,1,1,0.5355,0.8452,0.9071,0.9535
i_santuario_1_2,illumination,1434,1201,5.27,1.1222,0.8082,0.9024,0.9463,1,1,1,0.0000,0.6259,0.7756,0.8878
i_santuario_1_3,illumination,1433,1211,4.49,1.2934,0.8067,0.9086,0.9518,1,1,1,0.0000,0.5689,0.7413,0.8707
i_santuario_1_4,illumination,1340,1071,4.17,1.5705,0.7515,0.8724,0.9164,1,1,1,0.0000,0.4765,0.6859,0.8429
i_santuario_1_5,illumination,1475,1226,4.61,0.4706,0.8258,0.9085,0.9356,1,1,1,0.5294,0.8431,0.9059,0.9529
i_santuario_1_6,illumination,1198,926,4.25,0.8882,0.7688,0.8648,0.9032,1,1,1,0.1118,0.7039,0.8224,0.9112
i_school_1_2,illumination,1260,1200,4.05,0.1042,0.9524,0.9786,0.9833,1,1,1,0.8958,0.9653,0.9792,0.9896
i_school_1_3,illumination,1252,1165,5.33,0.1883,0.9273,0.9681,0.9792,1,1,1,0.8117,0.9372,0.9623,0.9812
i_school_1_4,illumination,995,805,3.97,0.5805,0.7950,0.8613,0.8965,1,1,1,0.4195,0.8065,0.8839,0.9419
i_school_1_5,illumination,1066,885,3.90,0.7804,0.8265,0.8921,0.9296,1,1,1,0.2196,0.7399,0.8439,0.9220
i_school_1_6,illumination,803,528,5.07,1.3051,0.6426,0.7534,0.7920,1,1,1,0.0000,0.5650,0.7390,0.8695
i_ski_1_2,illumination,1648,1540,4.24,0.1911,0.9333,0.9678,0.9824,1,1,1,0.8089,0.9363,0.9618,0.9809
i_ski_1_3,illumination,1575,1402,5.52,0.4463,0.8870,0.9537,0.9765,1,1,1,0.5537,0.8512,0.9107,0.9554
i_ski_1_4,illumination,1476,1270,5.54,0.4891,0.8421,0.9262,0.9505,1,1,1,0.5109,0.8370,0.9022,0.9511
i_ski_1_5,illumination,1446,1190,4.27,0.7636,0.8071,0.8976,0.9336,1,1,1,0.2364,0.7455,0.8473,0.9236
i_ski_1_6,illumination,1362,1081,4.96,0.5486,0.7739,0.8774,0.9148,1,1,1,0.4514,0.8171,0.8903,0.9451
i_smurf_1_2,illumination,1427,1203,5.45,0.0000,0.8500,0.8977,0.9348,1,1,1,1.0000,1.0000,1.0000,1.0000
i_smurf_1_3,illumination,1390,1177,5.17,0.2033,0.8410,0.8957,0.9151,1,1,1,0.7967,0.9322,0.9593,0.9797
i_smurf_1_4,illumination,1345,1106,4.32,0.2631,0.8149,0.8892,0.9123,1,1,1,0.7369,0.9123,0.9474,0.9737
i_smurf_1_5,illumination,1297,1022,4.65,0.5508,0.7810,0.8551,0.8921,1,1,1,0.4492,0.8164,0.8898,0.9449
i_smurf_1_6,illumination,1093,757,5.20,0.4673,0.6825,0.7658,0.7987,1,1,1,0.5327,0.8442,0.9065,0.9533
i_steps_1_2,illumination,781,740,3.48,0.4712,0.9475,0.9706,0.9821,1,1,1,0.5288,0.8429,0.9058,0.9529
i_steps_1_3,illumination,950,872,3.51,0.8164,0.9116,0.9579,0.9726,1,1,1,0.1836,0.7279,0.8367,0.9184
i_steps_1_4,illumination,984,920,4.88,0.3557,0.9360,0.9695,0.9807,1,1,1,0.6443,0.8814,0.9289,0.9644
i_steps_1_5,illumination,778,608,3.79,0.9819,0.7802,0.8380,0.8753,1,1,1,0.0181,0.6727,0.8036,0.9018
i_steps_1_6,illumination,909,784,3.57,0.7029,0.8636,0.9109,0.9428,1,1,1,0.2971,0.7657,0.8594,0.9297
i_table_1_2,illumination,1460,1182,5.69,0.7421,0.8021,0.9034,0.9527,1,1,1,0.2579,0.7526,0.8516,0.9258
i_table_1_3,illumination,1333,974,5.07,1.3582,0.7187,0.8417,0.8890,1,1,1,0.0000,0.5473,0.7284,0.8642
i_table_1_4,illumination,1157,681,5.09,1.8382,0.5696,0.7131,0.7710,1,1,1,0.0000,0.3873,0.6324,0.8162
i_table_1_5,illumination,1214,699,4.39,1.9197,0.5700,0.7010,0.7776,1,1,1,0.0000,0.3601,0.6161,0.8080
i_table_1_6,illumination,1576,1395,4.62,0.0000,0.8902,0.9480,0.9708,1,1,1,1.0000,1.0000,1.0000,1.0000
i_tools_1_2,illumination,530,239,4.10,6.4767,0.4019,0.5358,0.6396,0,0,1,0.0000,0.0000,0.0000,0.3523
i_tools_1_3,illumination,617,448,3.84,1.4401,0.7439,0.8914,0.9400,1,1,1,0.0000,0.5200,0.7120,0.8560
i_tools_1_4,illumination,535,248,4.64,2.7976,0.4262,0.6000,0.7121,1,1,1,0.0000,0.0675,0.4405,0.7202
i_tools_1_5,illumination,558,374,4.45,1.2989,0.6667,0.7796,0.8280,1,1,1,0.0000,0.5670,0.7402,0.8701
i_tools_1_6,illumination,524,179,4.02,5.2940,0.2195,0.3340,0.5210,0,0,1,0.0000,0.0000,0.0000,0.4706
i_toy_1_2,illumination,1641,1392,5.15,0.3782,0.8458,0.9074,0.9385,1,1,1,0.6218,0.8739,0.9244,0.9622
i_toy_1_3,illumination,1548,1234,4.54,0.4173,0.7888,0.8572,0.8947,1,1,1,0.5827,0.8609,0.9165,0.9583
i_toy_1_4,illumination,1387,963,4.93,0.5088,0.6871,0.7686,0.8219,1,1,1,0.4912,0.8304,0.8982,0.9491
i_toy_1_5,illumination,1253,742,4.60,0.9522,0.5826,0.6640,0.7199,1,1,1,0.0478,0.6826,0.8096,0.9048
i_toy_1_6,illumination,1093,448,4.80,1.0986,0.4090,0.4831,0.5279,1,1,1,0.0000,0.6338,0.7803,0.8901
i_troulos_1_2,illumination,413,352,3.19,0.8820,0.8281,0.9370,0.9661,1,1,1,0.1180,0.7060,0.8236,0.9118
i_troulos_1_3,illumination,321,236,3.43,2.5686,0.4206,0.7788,0.8598,1,1,1,0.0000,0.1438,0.4863,0.7431
i_troulos_1_4,illumination,582,530,3.09,0.5073,0.9038,0.9622,0.9777,1,1,1,0.4927,0.8309,0.8985,0.9493
i_troulos_1_5,illumination,516,392,3.95,1.2742,0.7442,0.8663,0.9070,1,1,1,0.0000,0.5753,0.7452,0.8726
i_troulos_1_6,illumination,466,367,3.02,1.3963,0.7704,0.8798,0.9270,1,1,1,0.0000,0.5346,0.7207,0.8604
i_veggies_1_2,illumination,1393,1308,4.97,0.2305,0.9368,0.9720,0.9821,1,1,1,0.7695,0.9232,0.9539,0.9769
i_veggies_1_3,illumination,1099,873,4.01,0.9069,0.7898,0.8544,0.9008,1,1,1,0.0931,0.6977,0.8186,0.9093
i_veggies_1_4,illumination,1292,1131,4.06,0.7286,0.8723,0.9288,0.9636,1,1,1,0.2714,0.7571,0.8543,0.9271
i_veggies_1_5,illumination,967,628,4.15,1.4921,0.6381,0.7218,0.7777,1,1,1,0.0000,0.5026,0.7016,0.8508
i_veggies_1_6,illumination,845,488,4.17,1.1698,0.5740,0.6580,0.7136,1,1,1,0.0000,0.6101,0.7660,0.8830
i_village_1_2,illumination,1290,897,7.92,1.0478,0.6938,0.7713,0.8147,1,1,1,0.0000,0.6507,0.7904,0.8952
i_village_1_3,illumination,1311,945,4.50,0.3588,0.7147,0.7879,0.8406,1,1,1,0.6412,0.8804,0.9282,0.9641
i_village_1_4,illumination,1287,921,4.72,0.5986,0.7117,0.7871,0.8314,1,1,1,0.4014,0.8005,0.8803,0.9401
i_village_1_5,illumination,1609,1433,4.15,0.4275,0.8844,0.9186,0.9354,1,1,1,0.5725,0.8575,0.9145,0.9572
i_village_1_6,illumination,1281,875,4.92,0.8970,0.6596,0.7299,0.7767,1,1,1,0.1030,0.7010,0.8206,0.9103
i_yellowtent_1_2,illumination,1274,1226,3.75,0.1443,0.9568,0.9772,0.9874,1,1,1,0.8557,0.9519,0.9711,0.9856
i_yellowtent_1_3,illumination,1101,973,3.56,0.3896,0.8728,0.9292,0.9528,1,1,1,0.6104,0.8701,0.9221,0.9610
i_yellowtent_1_4,illumination,883,678,3.86,0.6938,0.7520,0.8358,0.8732,1,1,1,0.3062,0.7687,0.8612,0.9306
i_yellowtent_1_5,illumination,1016,825,3.56,0.3189,0.8140,0.8730,0.9045,1,1,1,0.6811,0.8937,0.9362,0.9681
i_yellowtent_1_6,illumination,920,666,3.53,0.6776,0.7109,0.7804,0.8207,1,1,1,0.3224,0.7741,0.8645,0.9322
i_zion_1_2,illumination,1723,1602,4.24,0.3155,0.9292,0.9652,0.9774,1,1,1,0.6845,0.8948,0.9369,0.9684
i_zion_1_3,illumination,1343,1047,4.59,0.6769,0.7744,0.8496,0.8742,1,1,1,0.3231,0.7744,0.8646,0.9323
i_zion_1_4,illumination,1052,643,4.33,1.0285,0.6008,0.6721,0.6939,1,1,1,0.0000,0.6572,0.7943,0.8972
i_zion_1_5,illumination,722,268,5.21,3.7981,0.3629,0.4349,0.4778,0,1,1,0.0000,0.0000,0.2404,0.6202
i_zion_1_6,illumination,594,317,3.60,0.6985,0.5354,0.6010,0.6229,1,1,1,0.3015,0.7672,0.8603,0.9301
v_abstract_1_2,viewpoint,1480,1343,4.15,0.2755,0.9074,0.9385,0.9547,1,1,1,0.7245,0.9082,0.9449,0.9724
v_abstract_1_3,viewpoint,1445,1263,4.15,0.6389,0.8727,0.9294,0.9467,1,1,1,0.3611,0.7870,0.8722,0.9361
v_abstract_1_4,viewpoint,979,672,4.11,0.9084,0.6885,0.7610,0.7916,1,1,1,0.0916,0.6972,0.8183,0.9092
v_abstract_1_5,viewpoint,1220,941,5.00,0.2457,0.7713,0.8279,0.8410,1,1,1,0.7543,0.9181,0.9509,0.9754
v_abstract_1_6,viewpoint,953,552,4.22,0.9982,0.5729,0.6527,0.6810,1,1,1,0.0018,0.6673,0.8004,0.9002
v_adam_1_2,viewpoint,788,705,4.28,0.6643,0.8858,0.9480,0.9721,1,1,1,0.3357,0.7786,0.8671,0.9336
v_adam_1_3,viewpoint,707,608,3.25,0.9007,0.8487,0.9250,0.9463,1,1,1,0.0993,0.6998,0.8199,0.9099
v_adam_1_4,viewpoint,476,304,3.57,1.5709,0.6197,0.7185,0.7773,1,1,1,0.0000,0.4764,0.6858,0.8429
v_adam_1_5,viewpoint,612,485,3.52,1.5706,0.7810,0.8693,0.9036,1,1,1,0.0000,0.4765,0.6859,0.8429
v_adam_1_6,viewpoint,578,439,3.30,1.5346,0.7561,0.8408,0.8893,1,1,1,0.0000,0.4885,0.6931,0.8465
v_apprentices_1_2,viewpoint,1607,1515,8.70,0.0817,0.9421,0.9745,0.9801,1,1,1,0.9183,0.9728,0.9837,0.9918
v_apprentices_1_3,viewpoint,1475,1326,4.42,0.5186,0.8990,0.9451,0.9600,1,1,1,0.4814,0.8271,0.8963,0.9481
v_apprentices_1_4,viewpoint,1264,1059,4.15,0.8239,0.8339,0.8869,0.9027,1,1,1,0.1761,0.7254,0.8352,0.9176
v_apprentices_1_5,viewpoint,1043,777,4.27,1.0900,0.7430,0.8102,0.8428,1,1,1,0.0000,0.6367,0.7820,0.8910
v_apprentices_1_6,viewpoint,878,631,3.82,1.4555,0.7050,0.7722,0.8030,1,1,1,0.0000,0.5148,0.7089,0.8544
v_azzola_1_2,viewpoint,1431,1236,7.67,0.8641,0.8553,0.9106,0.9252,1,1,1,0.1359,0.7120,0.8272,0.9136
v_azzola_1_3,viewpoint,1284,909,4.58,1.4888,0.6924,0.8232,0.8528,1,1,1,0.0000,0.5037,0.7022,0.8511
v_azzola_1_4,viewpoint,1471,1303,4.16,0.5677,0.8824,0.9198,0.9307,1,1,1,0.4323,0.8108,0.8865,0.9432
v_azzola_1_5,viewpoint,1138,658,4.76,1.3368,0.5650,0.6599,0.6845,1,1,1,0.0000,0.5544,0.7326,0.8663
v_azzola_1_6,viewpoint,839,315,3.90,2.0087,0.3564,0.4493,0.4708,1,1,1,0.0000,0.3304,0.5983,0.7991
v_bark_1_2,viewpoint,879,61,4.44,2.1811,0.0705,0.0922,0.1024,1,1,1,0.0000,0.2730,0.5638,0.7819
v_bark_1_3,viewpoint,848,6,5.06,318.0228,0.0000,0.0000,0.0000,0,0,0,0.0000,0.0000,0.0000,0.0000
v_bark_1_4,viewpoint,789,6,3.81,397.5100,0.0000,0.0013,0.0013,0,0,0,0.0000,0.0000,0.0000,0.0000
v_bark_1_5,viewpoint,849,6,5.27,248.5451,0.0012,0.0059,0.0106,0,0,0,0.0000,0.0000,0.0000,0.0000
v_bark_1_6,viewpoint,849,7,4.17,702.5263,0.0000,0.0012,0.0012,0,0,0,0.0000,0.0000,0.0000,0.0000
v_bees_1_2,viewpoint,1608,1486,4.36,0.4072,0.9248,0.9627,0.9726,1,1,1,0.5928,0.8643,0.9186,0.9593
v_bees_1_3,viewpoint,1641,1521,5.85,0.4025,0.9275,0.9628,0.9726,1,1,1,0.5975,0.8658,0.9195,0.9597
v_bees_1_4,viewpoint,1522,1407,5.10,0.3100,0.9238,0.9566,0.9711,1,1,1,0.6900,0.8967,0.9380,0.9690
v_bees_1_5,viewpoint,1212,985,4.64,1.3896,0.8102,0.8639,0.8820,1,1,1,0.0000,0.5368,0.7221,0.8610
v_bees_1_6,viewpoint,1286,1075,4.55,0.8154,0.8305,0.9012,0.9269,1,1,1,0.1846,0.7282,0.8369,0.9185
v_beyus_1_2,viewpoint,467,288,6.73,1.2452,0.6231,0.7238,0.7645,1,1,1,0.0000,0.5849,0.7510,0.8755
v_beyus_1_3,viewpoint,470,214,3.56,3.0024,0.4489,0.5511,0.5851,0,1,1,0.0000,0.0000,0.3995,0.6998
v_beyus_1_4,viewpoint,567,441,3.30,0.8708,0.7725,0.8519,0.8907,1,1,1,0.1292,0.7097,0.8258,0.9129
v_beyus_1_5,viewpoint,418,202,3.32,2.4153,0.4737,0.5789,0.6172,1,1,1,0.0000,0.1949,0.5169,0.7585
v_beyus_1_6,viewpoint,515,330,3.30,1.5168,0.6311,0.7476,0.7786,1,1,1,0.0000,0.4944,0.6966,0.8483
v_bip_1_2,viewpoint,1107,821,4.11,0.3019,0.7416,0.8004,0.8184,1,1,1,0.6981,0.8994,0.9396,0.9698
v_bip_1_3,viewpoint,997,624,3.87,0.3200,0.6249,0.6941,0.7131,1,1,1,0.6800,0.8933,0.9360,0.9680
v_bip_1_4,viewpoint,1060,726,3.96,0.4245,0.6849,0.7500,0.7717,1,1,1,0.5755,0.8585,0.9151,0.9576
v_bip_1_5,viewpoint,723,55,4.05,3.2012,0.0816,0.1120,0.1383,0,1,1,0.0000,0.0000,0.3598,0.6799
v_bip_1_6,viewpoint,675,11,3.83,121.0949,0.0207,0.0341,0.0489,0,0,0,0.0000,0.0000,0.0000,0.0000
v_bird_1_2,viewpoint,1050,808,4.52,76.7363,0.0000,0.0000,0.0010,0,0,0,0.0000,0.0000,0.0000,0.0000
v_bird_1_3,viewpoint,965,611,4.45,84.9184,0.0010,0.0010,0.0010,0,0,0,0.0000,0.0000,0.0000,0.0000
v_bird_1_4,viewpoint,995,611,4.25,98.7482,0.0010,0.0010,0.0010,0,0,0,0.0000,0.0000,0.0000,0.0000
v_bird_1_5,viewpoint,932,443,4.42,86.2472,0.0000,0.0000,0.0000,0,0,0,0.0000,0.0000,0.0000,0.0000
v_bird_1_6,viewpoint,738,108,4.25,199.5432,0.0000,0.0014,0.0014,0,0,0,0.0000,0.0000,0.0000,0.0000
v_birdwoman_1_2,viewpoint,621,45,3.91,41.9536,0.0016,0.0016,0.0032,0,0,0,0.0000,0.0000,0.0000,0.0000
v_birdwoman_1_3,viewpoint,604,179,3.86,54.0404,0.0000,0.0000,0.0000,0,0,0,0.0000,0.0000,0.0000,0.0000
v_birdwoman_1_4,viewpoint,792,390,3.73,50.4493,0.0000,0.0000,0.0025,0,0,0,0.0000,0.0000,0.0000,0.0000
v_birdwoman_1_5,viewpoint,1152,880,4.01,52.6758,0.0000,0.0026,0.0035,0,0,0,0.0000,0.0000,0.0000,0.0000
v_birdwoman_1_6,viewpoint,834,437,3.85,51.8425,0.0000,0.0000,0.0000,0,0,0,0.0000,0.0000,0.0000,0.0000
v_blueprint_1_2,viewpoint,1395,1206,4.53,0.4004,0.8638,0.9118,0.9276,1,1,1,0.5996,0.8665,0.9199,0.9600
v_blueprint_1_3,viewpoint,1137,836,4.41,0.6022,0.7309,0.8074,0.8311,1,1,1,0.3978,0.7993,0.8796,0.9398
v_blueprint_1_4,viewpoint,1287,1065,4.47,0.5011,0.8275,0.8796,0.9013,1,1,1,0.4989,0.8330,0.8998,0.9499
v_blueprint_1_5,viewpoint,963,586,3.90,1.4020,0.6096,0.6532,0.6843,1,1,1,0.0000,0.5327,0.7196,0.8598
v_blueprint_1_6,viewpoint,774,353,4.18,2.6225,0.4574,0.5039,0.5362,1,1,1,0.0000,0.1258,0.4755,0.7378
v_boat_1_2,viewpoint,1393,1110,8.04,0.4331,0.7954,0.8643,0.8902,1,1,1,0.5669,0.8556,0.9134,0.9567
v_boat_1_3,viewpoint,669,8,4.22,84.4920,0.0239,0.0419,0.0598,0,0,0,0.0000,0.0000,0.0000,0.0000
v_boat_1_4,viewpoint,595,9,4.03,147.2675,0.0017,0.0034,0.0050,0,0,0,0.0000,0.0000,0.0000,0.0000
v_boat_1_5,viewpoint,657,8,4.90,246.0158,0.0000,0.0030,0.0030,0,0,0,0.0000,0.0000,0.0000,0.0000
v_boat_1_6,viewpoint,710,61,4.37,3.8072,0.0901,0.1310,0.1507,0,1,1,0.0000,0.0000,0.2386,0.6193
v_bricks_1_2,viewpoint,1575,1454,4.00,33.2592,0.0032,0.0127,0.0413,0,0,0,0.0000,0.0000,0.0000,0.0000
v_bricks_1_3,viewpoint,1497,1309,4.66,32.0564,0.0013,0.0067,0.0347,0,0,0,0.0000,0.0000,0.0000,0.0000
v_bricks_1_4,viewpoint,1238,958,3.84,31.1991,0.0000,0.0008,0.0081,0,0,0,0.0000,0.0000,0.0000,0.0000
v_bricks_1_5,viewpoint,1065,647,3.91,27.8454,0.0000,0.0009,0.0066,0,0,0,0.0000,0.0000,0.0000,0.0000
v_bricks_1_6,viewpoint,879,266,3.73,27.4651,0.0011,0.0023,0.0034,0,0,0,0.0000,0.0000,0.0000,0.0000
v_busstop_1_2,viewpoint,1404,1203,4.21,0.5213,0.8547,0.8839,0.8903,1,1,1,0.4787,0.8262,0.8957,0.9479
v_busstop_1_3,viewpoint,1248,908,3.96,0.7274,0.7260,0.7556,0.7676,1,1,1,0.2726,0.7575,0.8545,0.9273
v_busstop_1_4,viewpoint,1285,1010,4.26,0.6664,0.7805,0.8054,0.8109,1,1,1,0.3336,0.7779,0.8667,0.9334
v_busstop_1_5,viewpoint,1267,982,3.97,0.6517,0.7743,0.7987,0.8058,1,1,1,0.3483,0.7828,0.8697,0.9348
v_busstop_1_6,viewpoint,1390,1181,4.21,0.7914,0.8482,0.8683,0.8784,1,1,1,0.2086,0.7362,0.8417,0.9209
v_calder_1_2,viewpoint,1134,866,3.93,0.4381,0.7654,0.8360,0.8686,1,1,1,0.5619,0.8540,0.9124,0.9562
v_calder_1_3,viewpoint,1355,1203,4.48,0.3393,0.8863,0.9247,0.9395,1,1,1,0.6607,0.8869,0.9321,0.9661
v_calder_1_4,viewpoint,817,390,4.26,0.9028,0.4786,0.5398,0.5826,1,1,1,0.0972,0.6991,0.8194,0.9097
v_calder_1_5,viewpoint,819,267,3.93,0.4241,0.3321,0.3822,0.4212,1,1,1,0.5759,0.8586,0.9152,0.9576
v_calder_1_6,viewpoint,649,77,3.56,4.5903,0.1279,0.1572,0.1834,0,1,1,0.0000,0.0000,0.0819,0.5410
v_cartooncity_1_2,viewpoint,1548,1411,4.47,62.0884,0.0000,0.0000,0.0006,0,0,0,0.0000,0.0000,0.0000,0.0000
v_cartooncity_1_3,viewpoint,1044,522,4.02,66.1136,0.0000,0.0000,0.0010,0,0,0,0.0000,0.0000,0.0000,0.0000
v_cartooncity_1_4,viewpoint,1449,1217,4.13,74.5083,0.0000,0.0000,0.0007,0,0,0,0.0000,0.0000,0.0000,0.0000
v_cartooncity_1_5,viewpoint,1063,582,4.13,75.8560,0.0000,0.0009,0.0019,0,0,0,0.0000,0.0000,0.0000,0.0000
v_cartooncity_1_6,viewpoint,1017,474,4.00,70.8478,0.0000,0.0029,0.0029,0,0,0,0.0000,0.0000,0.0000,0.0000
v_charing_1_2,viewpoint,524,256,3.56,11.1879,0.4695,0.5725,0.6164,0,0,0,0.0000,0.0000,0.0000,0.0000
v_charing_1_3,viewpoint,421,122,3.59,187.5744,0.2827,0.3990,0.4608,0,0,0,0.0000,0.0000,0.0000,0.0000
v_charing_1_4,viewpoint,458,225,3.48,11.3990,0.4934,0.5895,0.6594,0,0,0,0.0000,0.0000,0.0000,0.0000
v_charing_1_5,viewpoint,431,242,3.21,11.7207,0.5568,0.6868,0.7680,0,0,0,0.0000,0.0000,0.0000,0.0000
v_charing_1_6,viewpoint,433,207,3.41,400.6673,0.4896,0.6005,0.6721,0,0,0,0.0000,0.0000,0.0000,0.0000
v_churchill_1_2,viewpoint,1085,886,4.03,1.2251,0.8184,0.8756,0.8977,1,1,1,0.0000,0.5916,0.7550,0.8775
v_churchill_1_3,viewpoint,981,664,4.92,2.4256,0.6748,0.7594,0.8084,1,1,1,0.0000,0.1915,0.5149,0.7574
v_churchill_1_4,viewpoint,992,697,5.11,1.2461,0.7006,0.7954,0.8266,1,1,1,0.0000,0.5846,0.7508,0.8754
v_churchill_1_5,viewpoint,1285,1206,4.58,0.4003,0.9385,0.9658,0.9735,1,1,1,0.5997,0.8666,0.9199,0.9600
v_churchill_1_6,viewpoint,764,429,3.81,2.9888,0.5550,0.6374,0.6767,1,1,1,0.0000,0.0037,0.4022,0.7011
v_circus_1_2,viewpoint,965,754,3.98,0.4465,0.7793,0.8290,0.8570,1,1,1,0.5535,0.8512,0.9107,0.9554
v_circus_1_3,viewpoint,806,527,3.80,1.1583,0.6563,0.7345,0.7667,1,1,1,0.0000,0.6139,0.7683,0.8842
v_circus_1_4,viewpoint,621,292,3.51,2.0464,0.4605,0.5539,0.5813,1,1,1,0.0000,0.3179,0.5907,0.7954
v_circus_1_5,viewpoint,959,667,4.00,0.7351,0.6924,0.7800,0.8029,1,1,1,0.2649,0.7550,0.8530,0.9265
v_circus_1_6,viewpoint,746,408,3.81,0.7430,0.5335,0.6568,0.7051,1,1,1,0.2570,0.7523,0.8514,0.9257
v_coffeehouse_1_2,viewpoint,1078,896,3.88,0.4347,0.8265,0.8766,0.8868,1,1,1,0.5653,0.8551,0.9131,0.9565
v_coffeehouse_1_3,viewpoint,1093,912,3.79,0.6283,0.8326,0.8756,0.8930,1,1,1,0.3717,0.7906,0.8743,0.9372
v_coffeehouse_1_4,viewpoint,1013,739,3.85,1.7025,0.7236,0.7868,0.8055,1,1,1,0.0000,0.4325,0.6595,0.8298
v_coffeehouse_1_5,viewpoint,997,756,3.58,0.5568,0.7593,0.8044,0.8235,1,1,1,0.4432,0.8144,0.8886,0.9443
v_coffeehouse_1_6,viewpoint,848,490,3.87,1.2595,0.5778,0.6238,0.6486,1,1,1,0.0000,0.5802,0.7481,0.8741
v_colors_1_2,viewpoint,198,89,3.55,1.1153,0.4293,0.5101,0.5253,1,1,1,0.0000,0.6282,0.7769,0.8885
v_colors_1_3,viewpoint,165,61,3.87,1.8535,0.3576,0.4242,0.4667,1,1,1,0.0000,0.3822,0.6293,0.8147
v_colors_1_4,viewpoint,141,18,3.49,20.6820,0.1064,0.1773,0.2057,0,0,0,0.0000,0.0000,0.0000,0.0000
v_colors_1_5,viewpoint,125,6,3.17,285.9681,0.1280,0.1520,0.1680,0,0,0,0.0000,0.0000,0.0000,0.0000
v_colors_1_6,viewpoint,123,6,3.06,442.7543,0.0163,0.0325,0.0569,0,0,0,0.0000,0.0000,0.0000,0.0000
v_courses_1_2,viewpoint,1266,1158,4.21,0.7240,0.9171,0.9566,0.9708,1,1,1,0.2760,0.7587,0.8552,0.9276
v_courses_1_3,viewpoint,1053,840,4.40,0.8073,0.7920,0.8879,0.9212,1,1,1,0.1927,0.7309,0.8385,0.9193
v_courses_1_4,viewpoint,1066,933,4.24,0.6603,0.8734,0.9390,0.9568,1,1,1,0.3397,0.7799,0.8679,0.9340
v_courses_1_5,viewpoint,864,576,4.46,2.5555,0.6528,0.7847,0.8299,1,1,1,0.0000,0.1482,0.4889,0.7444
v_courses_1_6,viewpoint,801,448,3.84,5.7676,0.5268,0.6529,0.7029,0,0,1,0.0000,0.0000,0.0000,0.4232
v_dirtywall_1_2,viewpoint,1396,1217,8.92,0.3688,0.8696,0.9083,0.9219,1,1,1,0.6312,0.8771,0.9262,0.9631
v_dirtywall_1_3,viewpoint,1267,1017,4.51,0.4153,0.8035,0.8406,0.8508,1,1,1,0.5847,0.8616,0.9169,0.9585
v_dirtywall_1_4,viewpoint,1088,652,4.21,0.7558,0.5947,0.6471,0.6654,1,1,1,0.2442,0.7481,0.8488,0.9244
v_dirtywall_1_5,viewpoint,1175,888,4.42,0.8126,0.7506,0.8000,0.8196,1,1,1,0.1874,0.7291,0.8375,0.9187
v_dirtywall_1_6,viewpoint,916,322,4.05,1.3114,0.3493,0.3788,0.3963,1,1,1,0.0000,0.5629,0.7377,0.8689
v_dogman_1_2,viewpoint,746,595,3.62,1.7518,0.7936,0.8673,0.9008,1,1,1,0.0000,0.4161,0.6496,0.8248
v_dogman_1_3,viewpoint,837,716,3.99,0.5370,0.8530,0.8913,0.9116,1,1,1,0.4630,0.8210,0.8926,0.9463
v_dogman_1_4,viewpoint,539,274,3.62,5.7801,0.5102,0.6067,0.6549,0,0,1,0.0000,0.0000,0.0000,0.4220
v_dogman_1_5,viewpoint,647,453,3.23,1.9725,0.6986,0.7651,0.7975,1,1,1,0.0000,0.3425,0.6055,0.8027
v_dogman_1_6,viewpoint,498,158,3.19,29.2663,0.3052,0.3574,0.3815,0,0,0,0.0000,0.0000,0.0000,0.0000
v_eastsouth_1_2,viewpoint,1456,1295,4.74,0.2663,0.8887,0.9100,0.9169,1,1,1,0.7337,0.9112,0.9467,0.9734
v_eastsouth_1_3,viewpoint,850,10,4.46,125.8748,0.0412,0.0529,0.0647,0,0,0,0.0000,0.0000,0.0000,0.0000
v_eastsouth_1_4,viewpoint,789,8,4.05,237.9212,0.0013,0.0038,0.0063,0,0,0,0.0000,0.0000,0.0000,0.0000
v_eastsouth_1_5,viewpoint,808,10,4.17,134.5230,0.0050,0.0062,0.0161,0,0,0,0.0000,0.0000,0.0000,0.0000
v_eastsouth_1_6,viewpoint,740,14,4.29,221.0323,0.0270,0.0405,0.0541,0,0,0,0.0000,0.0000,0.0000,0.0000
v_feast_1_2,viewpoint,1189,927,4.53,0.3618,0.7805,0.8419,0.8671,1,1,1,0.6382,0.8794,0.9276,0.9638
v_feast_1_3,viewpoint,1373,1172,4.15,0.5193,0.8551,0.9097,0.9235,1,1,1,0.4807,0.8269,0.8961,0.9481
v_feast_1_4,viewpoint,981,563,4.14,0.5342,0.5698,0.6330,0.6636,1,1,1,0.4658,0.8219,0.8932,0.9466
v_feast_1_5,viewpoint,1232,973,4.27,0.6758,0.7922,0.8450,0.8669,1,1,1,0.3242,0.7747,0.8648,0.9324
v_feast_1_6,viewpoint,1043,709,4.22,1.2159,0.6750,0.7287,0.7574,1,1,1,0.0000,0.5947,0.7568,0.8784
v_fest_1_2,viewpoint,1444,1253,4.66,0.3205,0.8670,0.9162,0.9314,1,1,1,0.6795,0.8932,0.9359,0.9680
v_fest_1_3,viewpoint,1162,742,4.50,0.7305,0.6411,0.6919,0.7134,1,1,1,0.2695,0.7565,0.8539,0.9270
v_fest_1_4,viewpoint,1254,982,4.13,0.5228,0.7839,0.8166,0.8262,1,1,1,0.4772,0.8257,0.8954,0.9477
v_fest_1_5,viewpoint,1165,799,4.07,0.7940,0.6850,0.7365,0.7648,1,1,1,0.2060,0.7353,0.8412,0.9206
v_fest_1_6,viewpoint,1044,521,8.87,4.3091,0.4943,0.5565,0.5872,0,1,1,0.0000,0.0000,0.1382,0.5691
v_gardens_1_2,viewpoint,1182,892,4.50,1.3504,0.7521,0.8198,0.8401,1,1,1,0.0000,0.5499,0.7299,0.8650
v_gardens_1_3,viewpoint,764,276,3.87,5.9460,0.3586,0.3940,0.4162,0,0,1,0.0000,0.0000,0.0000,0.4054
v_gardens_1_4,viewpoint,1441,1260,4.25,0.9446,0.8612,0.9167,0.9355,1,1,1,0.0554,0.6851,0.8111,0.9055
v_gardens_1_5,viewpoint,907,466,3.89,2.9367,0.4983,0.5645,0.5899,1,1,1,0.0000,0.0211,0.4127,0.7063
v_gardens_1_6,viewpoint,973,427,4.35,1.6424,0.4481,0.5242,0.5714,1,1,1,0.0000,0.4525,0.6715,0.8358
v_grace_1_2,viewpoint,868,721,3.58,0.7362,0.8341,0.9067,0.9378,1,1,1,0.2638,0.7546,0.8528,0.9264
v_grace_1_3,viewpoint,790,616,3.61,0.7129,0.7785,0.8595,0.9038,1,1,1,0.2871,0.7624,0.8574,0.9287
v_grace_1_4,viewpoint,665,458,3.52,2.6321,0.6887,0.7729,0.8195,1,1,1,0.0000,0.1226,0.4736,0.7368
v_grace_1_5,viewpoint,538,273,3.55,0.6805,0.5056,0.5818,0.6283,1,1,1,0.3195,0.7732,0.8639,0.9320
v_grace_1_6,viewpoint,445,133,3.30,2.3878,0.2966,0.3281,0.3618,1,1,1,0.0000,0.2041,0.5224,0.7612
v_graffiti_1_2,viewpoint,1098,677,4.52,0.9670,0.6075,0.7149,0.7505,1,1,1,0.0330,0.6777,0.8066,0.9033
v_graffiti_1_3,viewpoint,1028,502,4.62,1.7106,0.4874,0.5700,0.6206,1,1,1,0.0000,0.4298,0.6579,0.8289
v_graffiti_1_4,viewpoint,781,11,4.08,191.1042,0.0320,0.0474,0.0589,0,0,0,0.0000,0.0000,0.0000,0.0000
v_graffiti_1_5,viewpoint,828,214,4.79,1.9214,0.2524,0.3056,0.3370,1,1,1,0.0000,0.3595,0.6157,0.8079
v_graffiti_1_6,viewpoint,683,6,3.81,177.0056,0.0117,0.0205,0.0264,0,0,0,0.0000,0.0000,0.0000,0.0000
v_home_1_2,viewpoint,873,595,3.76,1.4272,0.6690,0.7480,0.7789,1,1,1,0.0000,0.5243,0.7146,0.8573
v_home_1_3,viewpoint,855,482,4.38,2.0607,0.5497,0.6164,0.6456,1,1,1,0.0000,0.3131,0.5879,0.7939
v_home_1_4,viewpoint,863,581,4.05,1.6201,0.6709,0.7497,0.7798,1,1,1,0.0000,0.4600,0.6760,0.8380
v_home_1_5,viewpoint,771,399,3.77,6.4450,0.4994,0.6044,0.6394,0,0,1,0.0000,0.0000,0.0000,0.3555
v_home_1_6,viewpoint,511,9,3.66,30.0968,0.0313,0.0568,0.0783,0,0,0,0.0000,0.0000,0.0000,0.0000
v_laptop_1_2,viewpoint,921,860,3.59,0.2685,0.9338,0.9653,0.9783,1,1,1,0.7315,0.9105,0.9463,0.9732
v_laptop_1_3,viewpoint,451,96,3.44,2.1136,0.2062,0.2794,0.3215,1,1,1,0.0000,0.2955,0.5773,0.7886
v_laptop_1_4,viewpoint,399,7,3.34,254.8657,0.0125,0.0201,0.0251,0,0,0,0.0000,0.0000,0.0000,0.0000
v_laptop_1_5,viewpoint,411,7,3.23,341.1696,0.0000,0.0000,0.0024,0,0,0,0.0000,0.0000,0.0000,0.0000
v_laptop_1_6,viewpoint,412,7,3.25,397.9347,0.0000,0.0000,0.0024,0,0,0,0.0000,0.0000,0.0000,0.0000
v_london_1_2,viewpoint,1486,1318,4.25,0.2521,0.8843,0.9166,0.9273,1,1,1,0.7479,0.9160,0.9496,0.9748
v_london_1_3,viewpoint,1357,1172,4.77,0.3617,0.8651,0.8880,0.8976,1,1,1,0.6383,0.8794,0.9277,0.9638
v_london_1_4,viewpoint,1307,1007,4.20,1.3113,0.7712,0.8141,0.8340,1,1,1,0.0000,0.5629,0.7377,0.8689
v_london_1_5,viewpoint,1531,1371,4.37,0.2774,0.8948,0.9197,0.9268,1,1,1,0.7226,0.9075,0.9445,0.9723
v_london_1_6,viewpoint,1592,1470,4.33,0.3270,0.9221,0.9466,0.9579,1,1,1,0.6730,0.8910,0.9346,0.9673
v_machines_1_2,viewpoint,1127,1001,4.00,0.8159,0.8846,0.9326,0.9521,1,1,1,0.1841,0.7280,0.8368,0.9184
v_machines_1_3,viewpoint,778,509,3.73,3.5570,0.6272,0.7262,0.7622,0,1,1,0.0000,0.0000,0.2886,0.6443
v_machines_1_4,viewpoint,922,800,3.70,0.7557,0.8666,0.9273,0.9490,1,1,1,0.2443,0.7481,0.8489,0.9244
v_machines_1_5,viewpoint,680,450,3.62,1.9285,0.6338,0.7544,0.7971,1,1,1,0.0000,0.3572,0.6143,0.8072
v_machines_1_6,viewpoint,918,809,3.67,0.2723,0.8802,0.9357,0.9434,1,1,1,0.7277,0.9092,0.9455,0.9728
v_man_1_2,viewpoint,1118,948,3.86,2.0865,0.8417,0.8864,0.9034,1,1,1,0.0000,0.3045,0.5827,0.7913
v_man_1_3,viewpoint,917,638,3.69,3.6899,0.6576,0.7579,0.7841,0,1,1,0.0000,0.0000,0.2620,0.6310
v_man_1_4,viewpoint,745,474,3.98,2.9489,0.6349,0.7356,0.7611,1,1,1,0.0000,0.0170,0.4102,0.7051
v_man_1_5,viewpoint,963,817,3.89,2.1939,0.8359,0.9065,0.9304,1,1,1,0.0000,0.2687,0.5612,0.7806
v_man_1_6,viewpoint,1028,837,3.91,1.6064,0.8123,0.8677,0.8949,1,1,1,0.0000,0.4645,0.6787,0.8394
v_maskedman_1_2,viewpoint,724,565,3.81,2.0665,0.7818,0.8536,0.8923,1,1,1,0.0000,0.3112,0.5867,0.7934
v_maskedman_1_3,viewpoint,629,431,4.09,1.1432,0.6868,0.7631,0.8076,1,1,1,0.0000,0.6189,0.7714,0.8857
v_maskedman_1_4,viewpoint,759,585,3.46,3.3832,0.7602,0.8353,0.8748,0,1,1,0.0000,0.0000,0.3234,0.6617
v_maskedman_1_5,viewpoint,829,665,3.58,1.5766,0.7986,0.8721,0.8999,1,1,1,0.0000,0.4745,0.6847,0.8423
v_maskedman_1_6,viewpoint,494,136,3.26,3.4866,0.2733,0.3381,0.3583,0,1,1,0.0000,0.0000,0.3027,0.6513
v_pomegranate_1_2,viewpoint,1454,1260,4.30,0.4874,0.8645,0.9237,0.9498,1,1,1,0.5126,0.8375,0.9025,0.9513
v_pomegranate_1_3,viewpoint,1328,1054,4.65,1.3336,0.7748,0.8773,0.9142,1,1,1,0.0000,0.5555,0.7333,0.8666
v_pomegranate_1_4,viewpoint,1241,1014,4.42,0.5074,0.8106,0.8872,0.9218,1,1,1,0.4926,0.8309,0.8985,0.9493
v_pomegranate_1_5,viewpoint,1269,1090,4.01,1.0660,0.8589,0.9149,0.9362,1,1,1,0.0000,0.6447,0.7868,0.8934
v_pomegranate_1_6,viewpoint,1260,1083,4.20,0.3480,0.8571,0.9056,0.9302,1,1,1,0.6520,0.8840,0.9304,0.9652
v_posters_1_2,viewpoint,971,545,8.13,114.7938,0.0000,0.0000,0.0010,0,0,0,0.0000,0.0000,0.0000,0.0000
v_posters_1_3,viewpoint,1114,842,4.51,120.7508,0.0000,0.0000,0.0000,0,0,0,0.0000,0.0000,0.0000,0.0000
v_posters_1_4,viewpoint,1101,782,4.29,112.0911,0.0000,0.0000,0.0000,0,0,0,0.0000,0.0000,0.0000,0.0000
v_posters_1_5,viewpoint,972,517,4.34,124.3698,0.0010,0.0010,0.0010,0,0,0,0.0000,0.0000,0.0000,0.0000
v_posters_1_6,viewpoint,919,449,4.54,147.0840,0.0000,0.0000,0.0000,0,0,0,0.0000,0.0000,0.0000,0.0000
v_samples_1_2,viewpoint,1396,1242,4.99,67.9867,0.0000,0.0000,0.0007,0,0,0,0.0000,0.0000,0.0000,0.0000
v_samples_1_3,viewpoint,1448,1301,4.89,72.5260,0.0000,0.0007,0.0014,0,0,0,0.0000,0.0000,0.0000,0.0000
v_samples_1_4,viewpoint,1079,733,4.59,71.7101,0.0000,0.0000,0.0009,0,0,0,0.0000,0.0000,0.0000,0.0000
v_samples_1_5,viewpoint,1316,1154,4.85,80.5737,0.0000,0.0000,0.0000,0,0,0,0.0000,0.0000,0.0000,0.0000
v_samples_1_6,viewpoint,1029,686,4.30,67.1211,0.0000,0.0000,0.0019,0,0,0,0.0000,0.0000,0.0000,0.0000
v_soldiers_1_2,viewpoint,1117,938,4.23,0.3573,0.8389,0.8917,0.9150,1,1,1,0.6427,0.8809,0.9285,0.9643
v_soldiers_1_3,viewpoint,922,652,3.82,1.6179,0.6974,0.7516,0.7603,1,1,1,0.0000,0.4607,0.6764,0.8382
v_soldiers_1_4,viewpoint,821,414,3.65,1.2579,0.5030,0.5493,0.5700,1,1,1,0.0000,0.5807,0.7484,0.8742
v_soldiers_1_5,viewpoint,801,254,3.63,3.7398,0.3208,0.3645,0.3870,0,1,1,0.0000,0.0000,0.2520,0.6260
v_soldiers_1_6,viewpoint,1097,822,4.47,97.2942,0.0000,0.0000,0.0000,0,0,0,0.0000,0.0000,0.0000,0.0000
v_strand_1_2,viewpoint,1328,1212,4.20,0.2411,0.9127,0.9593,0.9744,1,1,1,0.7589,0.9196,0.9518,0.9759
v_strand_1_3,viewpoint,994,781,3.88,0.7721,0.7676,0.8843,0.9145,1,1,1,0.2279,0.7426,0.8456,0.9228
v_strand_1_4,viewpoint,957,807,3.74,1.7745,0.8370,0.9175,0.9363,1,1,1,0.0000,0.4085,0.6451,0.8225
v_strand_1_5,viewpoint,1009,863,3.92,2.5190,0.8365,0.9267,0.9495,1,1,1,0.0000,0.1603,0.4962,0.7481
v_strand_1_6,viewpoint,780,574,3.88,3.8053,0.6897,0.8205,0.8641,0,1,1,0.0000,0.0000,0.2389,0.6195
v_sunseason_1_2,viewpoint,1653,1492,5.82,0.2383,0.9002,0.9359,0.9431,1,1,1,0.7617,0.9206,0.9523,0.9762
v_sunseason_1_3,viewpoint,1398,1160,4.93,0.5066,0.8298,0.8526,0.8619,1,1,1,0.4934,0.8311,0.8987,0.9493
v_sunseason_1_4,viewpoint,979,490,4.89,0.7047,0.4985,0.5352,0.5485,1,1,1,0.2953,0.7651,0.8591,0.9295
v_sunseason_1_5,viewpoint,933,409,5.21,1.9351,0.4373,0.4705,0.4887,1,1,1,0.0000,0.3550,0.6130,0.8065
v_sunseason_1_6,viewpoint,897,267,4.06,4.7721,0.2954,0.3200,0.3367,0,1,1,0.0000,0.0000,0.0456,0.5228
v_tabletop_1_2,viewpoint,1258,907,4.24,0.8249,0.7154,0.7576,0.7703,1,1,1,0.1751,0.7250,0.8350,0.9175
v_tabletop_1_3,viewpoint,940,177,4.44,2.5826,0.1883,0.2255,0.2500,1,1,1,0.0000,0.1391,0.4835,0.7417
v_tabletop_1_4,viewpoint,953,310,4.16,1.5564,0.3284,0.3631,0.3820,1,1,1,0.0000,0.4812,0.6887,0.8444
v_tabletop_1_5,viewpoint,991,374,4.15,2.2851,0.3814,0.4208,0.4450,1,1,1,0.0000,0.2383,0.5430,0.7715
v_tabletop_1_6,viewpoint,991,386,4.13,1.3385,0.3885,0.4309,0.4601,1,1,1,0.0000,0.5538,0.7323,0.8661
v_tempera_1_2,viewpoint,743,646,3.20,0.6846,0.8668,0.9233,0.9381,1,1,1,0.3154,0.7718,0.8631,0.9315
v_tempera_1_3,viewpoint,755,635,3.41,0.5301,0.8371,0.9046,0.9192,1,1,1,0.4699,0.8233,0.8940,0.9470
v_tempera_1_4,viewpoint,720,603,3.28,0.7249,0.8361,0.8792,0.9000,1,1,1,0.2751,0.7584,0.8550,0.9275
v_tempera_1_5,viewpoint,687,509,3.56,0.6310,0.7424,0.8020,0.8224,1,1,1,0.3690,0.7897,0.8738,0.9369
v_tempera_1_6,viewpoint,448,215,3.46,4.2157,0.4732,0.5312,0.5714,0,1,1,0.0000,0.0000,0.1569,0.5784
v_there_1_2,viewpoint,448,351,3.21,1.0198,0.7701,0.8683,0.9196,1,1,1,0.0000,0.6601,0.7960,0.8980
v_there_1_3,viewpoint,340,61,3.44,3.6894,0.1794,0.2265,0.2706,0,1,1,0.0000,0.0000,0.2621,0.6311
v_there_1_4,viewpoint,303,6,3.44,186.4283,0.0495,0.0660,0.0759,0,0,0,0.0000,0.0000,0.0000,0.0000
v_there_1_5,viewpoint,308,6,4.29,196.6271,0.0097,0.0195,0.0227,0,0,0,0.0000,0.0000,0.0000,0.0000
v_there_1_6,viewpoint,333,5,4.30,518.0964,0.0000,0.0000,0.0030,0,0,0,0.0000,0.0000,0.0000,0.0000
v_underground_1_2,viewpoint,1519,1351,4.40,0.3801,0.8887,0.9263,0.9309,1,1,1,0.6199,0.8733,0.9240,0.9620
v_underground_1_3,viewpoint,1243,983,4.25,0.7205,0.7860,0.8399,0.8568,1,1,1,0.2795,0.7598,0.8559,0.9280
v_underground_1_4,viewpoint,982,632,4.18,1.1351,0.6385,0.7047,0.7363,1,1,1,0.0000,0.6216,0.7730,0.8865
v_underground_1_5,viewpoint,785,351,4.06,2.2778,0.4446,0.5045,0.5490,1,1,1,0.0000,0.2407,0.5444,0.7722
v_underground_1_6,viewpoint,623,159,3.64,3.2346,0.2488,0.3130,0.3451,0,1,1,0.0000,0.0000,0.3531,0.6765
v_vitro_1_2,viewpoint,1566,1422,4.13,0.1722,0.9074,0.9246,0.9285,1,1,1,0.8278,0.9426,0.9656,0.9828
v_vitro_1_3,viewpoint,1397,1171,4.32,0.3241,0.8397,0.8690,0.8762,1,1,1,0.6759,0.8920,0.9352,0.9676
v_vitro_1_4,viewpoint,1125,828,4.13,0.5488,0.7342,0.7822,0.7920,1,1,1,0.4512,0.8171,0.8902,0.9451
v_vitro_1_5,viewpoint,1437,1254,4.24,0.4032,0.8733,0.9081,0.9179,1,1,1,0.5968,0.8656,0.9194,0.9597
v_vitro_1_6,viewpoint,1245,967,4.09,0.5042,0.7719,0.8289,0.8442,1,1,1,0.4958,0.8319,0.8992,0.9496
v_wall_1_2,viewpoint,1177,1068,3.64,0.3142,0.9065,0.9414,0.9507,1,1,1,0.6858,0.8953,0.9372,0.9686
v_wall_1_3,viewpoint,1048,852,4.11,1.6648,0.8073,0.8626,0.8826,1,1,1,0.0000,0.4451,0.6670,0.8335
v_wall_1_4,viewpoint,1207,1101,4.49,0.2477,0.9122,0.9370,0.9437,1,1,1,0.7523,0.9174,0.9505,0.9752
v_wall_1_5,viewpoint,1024,801,3.92,0.8129,0.7744,0.8389,0.8545,1,1,1,0.1871,0.7290,0.8374,0.9187
v_wall_1_6,viewpoint,922,644,3.57,2.2313,0.6866,0.7646,0.7820,1,1,1,0.0000,0.2562,0.5537,0.7769
v_wapping_1_2,viewpoint,1188,709,5.56,0.8139,0.5951,0.7054,0.7525,1,1,1,0.1861,0.7287,0.8372,0.9186
v_wapping_1_3,viewpoint,920,378,3.98,1.8566,0.4174,0.4880,0.5326,1,1,1,0.0000,0.3811,0.6287,0.8143
v_wapping_1_4,viewpoint,824,349,4.22,1.7251,0.4223,0.4830,0.5400,1,1,1,0.0000,0.4250,0.6550,0.8275
v_wapping_1_5,viewpoint,781,253,3.78,1.3696,0.3214,0.3790,0.4059,1,1,1,0.0000,0.5435,0.7261,0.8630
v_wapping_1_6,viewpoint,732,119,3.91,4.9310,0.1653,0.2199,0.2391,0,1,1,0.0000,0.0000,0.0138,0.5069
v_war_1_2,viewpoint,1082,711,4.47,1.3007,0.6488,0.7366,0.7680,1,1,1,0.0000,0.5664,0.7399,0.8699
v_war_1_3,viewpoint,906,480,3.87,1.3270,0.5276,0.6126,0.6358,1,1,1,0.0000,0.5577,0.7346,0.8673
v_war_1_4,viewpoint,1307,1139,4.44,0.4888,0.8707,0.9288,0.9449,1,1,1,0.5112,0.8371,0.9022,0.9511
v_war_1_5,viewpoint,1280,1060,4.20,0.7876,0.8289,0.8898,0.9203,1,1,1,0.2124,0.7375,0.8425,0.9212
v_war_1_6,viewpoint,843,478,4.07,0.9851,0.5599,0.6595,0.6963,1,1,1,0.0149,0.6716,0.8030,0.9015
v_weapons_1_2,viewpoint,1153,1050,4.10,0.4808,0.9098,0.9402,0.9480,1,1,1,0.5192,0.8397,0.9038,0.9519
v_weapons_1_3,viewpoint,980,792,4.84,0.6420,0.8031,0.8673,0.8969,1,1,1,0.3580,0.7860,0.8716,0.9358
v_weapons_1_4,viewpoint,1061,825,4.59,1.3142,0.7700,0.8473,0.8841,1,1,1,0.0000,0.5619,0.7372,0.8686
v_weapons_1_5,viewpoint,1096,980,5.06,1.0534,0.8942,0.9288,0.9434,1,1,1,0.0000,0.6489,0.7893,0.8947
v_weapons_1_6,viewpoint,1000,840,3.95,1.0944,0.8320,0.9050,0.9150,1,1,1,0.0000,0.6352,0.7811,0.8906
v_woman_1_2,viewpoint,707,402,4.02,45.9867,0.0000,0.0000,0.0000,0,0,0,0.0000,0.0000,0.0000,0.0000
v_woman_1_3,viewpoint,756,556,3.49,49.4378,0.0000,0.0000,0.0000,0,0,0,0.0000,0.0000,0.0000,0.0000
v_woman_1_4,viewpoint,720,430,3.56,50.5604,0.0000,0.0014,0.0014,0,0,0,0.0000,0.0000,0.0000,0.0000
v_woman_1_5,viewpoint,657,251,3.52,44.1947,0.0000,0.0015,0.0061,0,0,0,0.0000,0.0000,0.0000,0.0000
v_woman_1_6,viewpoint,714,382,3.58,48.7922,0.0028,0.0028,0.0028,0,0,0,0.0000,0.0000,0.0000,0.0000
v_wormhole_1_2,viewpoint,1067,823,3.88,0.7626,0.7694,0.8116,0.8416,1,1,1,0.2374,0.7458,0.8475,0.9237
v_wormhole_1_3,viewpoint,1167,989,3.95,0.6440,0.8398,0.8997,0.9212,1,1,1,0.3560,0.7853,0.8712,0.9356
v_wormhole_1_4,viewpoint,1247,1089,3.75,0.6380,0.8733,0.9166,0.9334,1,1,1,0.3620,0.7873,0.8724,0.9362
v_wormhole_1_5,viewpoint,1021,680,3.62,7.1393,0.6582,0.7267,0.7620,0,0,0,0.0000,0.0000,0.0000,0.2861
v_wormhole_1_6,viewpoint,781,251,3.80,9.9863,0.2971,0.3816,0.4097,0,0,0,0.0000,0.0000,0.0000,0.0014
v_wounded_1_2,viewpoint,876,753,3.99,0.4221,0.8619,0.8984,0.9087,1,1,1,0.5779,0.8593,0.9156,0.9578
v_wounded_1_3,viewpoint,622,428,3.83,6.1295,0.6817,0.7428,0.7669,0,0,1,0.0000,0.0000,0.0000,0.3870
v_wounded_1_4,viewpoint,356,128,3.47,28.4246,0.3427,0.4270,0.4663,0,0,0,0.0000,0.0000,0.0000,0.0000
v_wounded_1_5,viewpoint,559,350,3.54,1.6767,0.6369,0.7066,0.7442,1,1,1,0.0000,0.4411,0.6647,0.8323
v_wounded_1_6,viewpoint,367,126,3.56,21.0715,0.3406,0.4278,0.4659,0,0,0,0.0000,0.0000,0.0000,0.0000
v_yard_1_2,viewpoint,1381,1225,4.31,0.3870,0.8863,0.9218,0.9327,1,1,1,0.6130,0.8710,0.9226,0.9613
v_yard_1_3,viewpoint,995,470,4.07,1.5515,0.4492,0.5578,0.5970,1,1,1,0.0000,0.4828,0.6897,0.8448
v_yard_1_4,viewpoint,1283,1064,4.17,0.6065,0.8215,0.8776,0.8909,1,1,1,0.3935,0.7978,0.8787,0.9393
v_yard_1_5,viewpoint,1119,709,4.14,1.4513,0.6238,0.7060,0.7337,1,1,1,0.0000,0.5162,0.7097,0.8549
v_yard_1_6,viewpoint,884,316,4.10,4.2348,0.3473,0.4174,0.4457,0,1,1,0.0000,0.0000,0.1530,0.5765
v_yuri_1_2,viewpoint,663,554,3.35,1.4161,0.8265,0.9186,0.9502,1,1,1,0.0000,0.5280,0.7168,0.8584
v_yuri_1_3,viewpoint,556,380,3.49,3.2899,0.6817,0.7716,0.8201,0,1,1,0.0000,0.0000,0.3420,0.6710
v_yuri_1_4,viewpoint,497,214,3.44,31.2296,0.3903,0.5091,0.5634,0,0,0,0.0000,0.0000,0.0000,0.0000
v_yuri_1_5,viewpoint,619,436,3.58,3.3958,0.7027,0.7722,0.8401,0,1,1,0.0000,0.0000,0.3208,0.6604
v_yuri_1_6,viewpoint,500,270,3.36,11.5581,0.5280,0.6560,0.7040,0,0,0,0.0000,0.0000,0.0000,0.0000
