PairName,SeqType,NumMatches,Inliers,TimeMS,H_Error,MMA@3,MMA@5,MMA@7,MHA_Acc@3,MHA_Acc@5,MHA_Acc@7,AUC@1,AUC@3,AUC@5,AUC@10
i_ajuntament_1_2,illumination,886,816,253.49,0.2889,0.9142,0.9436,0.9774,1,1,1,0.7111,0.9037,0.9422,0.9711
i_ajuntament_1_3,illumination,708,536,5.59,1.0253,0.7331,0.8545,0.9068,1,1,1,0.0000,0.6582,0.7949,0.8975
i_ajuntament_1_4,illumination,524,282,3.62,1.1091,0.5115,0.6336,0.7252,1,1,1,0.0000,0.6303,0.7782,0.8891
i_ajuntament_1_5,illumination,537,272,3.75,1.0912,0.4972,0.6145,0.7114,1,1,1,0.0000,0.6363,0.7818,0.8909
i_ajuntament_1_6,illumination,555,288,3.83,1.2512,0.5009,0.6180,0.7153,1,1,1,0.0000,0.5829,0.7498,0.8749
i_autannes_1_2,illumination,1001,914,10.12,0.3493,0.9101,0.9560,0.9720,1,1,1,0.6507,0.8836,0.9301,0.9651
i_autannes_1_3,illumination,925,788,4.51,0.3307,0.8508,0.9103,0.9416,1,1,1,0.6693,0.8898,0.9339,0.9669
i_autannes_1_4,illumination,1034,688,5.02,0.9987,0.6538,0.7853,0.8482,1,1,1,0.0013,0.6671,0.8003,0.9001
i_autannes_1_5,illumination,1013,707,5.52,0.9392,0.6861,0.7966,0.8421,1,1,1,0.0608,0.6869,0.8122,0.9061
i_autannes_1_6,illumination,1082,869,4.14,0.4878,0.8013,0.8983,0.9344,1,1,1,0.5122,0.8374,0.9024,0.9512
i_bologna_1_2,illumination,589,544,9.21,0.2300,0.9287,0.9626,0.9779,1,1,1,0.7700,0.9233,0.9540,0.9770
i_bologna_1_3,illumination,569,515,3.13,1.0942,0.9104,0.9508,0.9596,1,1,1,0.0000,0.6353,0.7812,0.8906
i_bologna_1_4,illumination,580,513,3.19,0.8039,0.8810,0.9259,0.9431,1,1,1,0.1961,0.7320,0.8392,0.9196
i_bologna_1_5,illumination,585,519,3.31,1.3005,0.8872,0.9265,0.9556,1,1,1,0.0000,0.5665,0.7399,0.8699
i_bologna_1_6,illumination,574,503,3.37,1.2417,0.8676,0.9251,0.9477,1,1,1,0.0000,0.5861,0.7517,0.8758
i_books_1_2,illumination,567,517,3.36,0.0000,0.9136,0.9330,0.9506,1,1,1,1.0000,1.0000,1.0000,1.0000
i_books_1_3,illumination,730,674,3.48,0.2530,0.9260,0.9452,0.9548,1,1,1,0.7470,0.9157,0.9494,0.9747
i_books_1_4,illumination,766,701,3.33,0.0000,0.9191,0.9517,0.9700,1,1,1,1.0000,1.0000,1.0000,1.0000
i_books_1_5,illumination,741,692,3.51,0.3485,0.9271,0.9447,0.9568,1,1,1,0.6515,0.8838,0.9303,0.9651
i_books_1_6,illumination,627,571,3.25,0.0000,0.9107,0.9346,0.9506,1,1,1,1.0000,1.0000,1.0000,1.0000
i_boutique_1_2,illumination,1266,1130,4.02,0.3708,0.8918,0.9423,0.9605,1,1,1,0.6292,0.8764,0.9258,0.9629
i_boutique_1_3,illumination,1328,1133,5.22,0.2874,0.8456,0.9089,0.9420,1,1,1,0.7126,0.9042,0.9425,0.9713
i_boutique_1_4,illumination,1303,1110,5.44,0.3428,0.8442,0.9133,0.9401,1,1,1,0.6572,0.8857,0.9314,0.9657
i_boutique_1_5,illumination,1005,644,4.21,0.8560,0.6289,0.7373,0.7910,1,1,1,0.1440,0.7147,0.8288,0.9144
i_boutique_1_6,illumination,972,626,4.08,0.4584,0.6337,0.7243,0.7788,1,1,1,0.5416,0.8472,0.9083,0.9542
i_bridger_1_2,illumination,1435,1220,10.04,0.4067,0.8300,0.9233,0.9700,1,1,1,0.5933,0.8644,0.9187,0.9593
i_bridger_1_3,illumination,1305,1065,4.45,0.5968,0.8061,0.9080,0.9502,1,1,1,0.4032,0.8011,0.8806,0.9403
i_bridger_1_4,illumination,1174,990,3.87,0.3840,0.8373,0.9140,0.9549,1,1,1,0.6160,0.8720,0.9232,0.9616
i_bridger_1_5,illumination,952,765,3.71,0.7143,0.7941,0.9034,0.9517,1,1,1,0.2857,0.7619,0.8571,0.9286
i_bridger_1_6,illumination,315,190,3.44,1.6808,0.6000,0.6921,0.7810,1,1,1,0.0000,0.4397,0.6638,0.8319
i_brooklyn_1_2,illumination,1302,1053,4.33,0.5734,0.8080,0.8909,0.9270,1,1,1,0.4266,0.8089,0.8853,0.9427
i_brooklyn_1_3,illumination,1325,1195,4.30,1.2309,0.8838,0.9525,0.9796,1,1,1,0.0000,0.5897,0.7538,0.8769
i_brooklyn_1_4,illumination,1125,819,5.54,1.0338,0.7040,0.8249,0.8898,1,1,1,0.0000,0.6554,0.7932,0.8966
i_brooklyn_1_5,illumination,1316,1184,4.19,1.4520,0.8655,0.9483,0.9772,1,1,1,0.0000,0.5160,0.7096,0.8548
i_brooklyn_1_6,illumination,1266,1036,6.19,1.5090,0.7670,0.8910,0.9360,1,1,1,0.0000,0.4970,0.6982,0.8491
i_castle_1_2,illumination,1307,874,4.73,0.7160,0.6618,0.7781,0.8271,1,1,1,0.2840,0.7613,0.8568,0.9284
i_castle_1_3,illumination,1415,1193,5.14,0.4388,0.8389,0.9095,0.9385,1,1,1,0.5612,0.8537,0.9122,0.9561
i_castle_1_4,illumination,1258,1058,4.44,0.9765,0.8124,0.8983,0.9261,1,1,1,0.0235,0.6745,0.8047,0.9023
i_castle_1_5,illumination,997,643,5.06,0.7744,0.6369,0.7342,0.8014,1,1,1,0.2256,0.7419,0.8451,0.9226
i_castle_1_6,illumination,1045,648,5.26,1.0114,0.6115,0.7215,0.7876,1,1,1,0.0000,0.6629,0.7977,0.8989
i_chestnuts_1_2,illumination,1148,1028,4.19,0.2161,0.8885,0.9425,0.9713,1,1,1,0.7839,0.9280,0.9568,0.9784
i_chestnuts_1_3,illumination,1143,1039,4.14,0.3086,0.9073,0.9396,0.9633,1,1,1,0.6914,0.8971,0.9383,0.9691
i_chestnuts_1_4,illumination,1120,992,3.98,0.0000,0.8875,0.9348,0.9661,1,1,1,1.0000,1.0000,1.0000,1.0000
i_chestnuts_1_5,illumination,1056,908,3.79,0.0000,0.8627,0.9242,0.9621,1,1,1,1.0000,1.0000,1.0000,1.0000
i_chestnuts_1_6,illumination,965,803,4.03,0.0000,0.8373,0.8943,0.9233,1,1,1,1.0000,1.0000,1.0000,1.0000
i_crownday_1_2,illumination,1104,783,4.60,0.8664,0.7002,0.8216,0.8958,1,1,1,0.1336,0.7112,0.8267,0.9134
i_crownday_1_3,illumination,1192,942,5.40,0.9807,0.7878,0.8867,0.9379,1,1,1,0.0193,0.6731,0.8039,0.9019
i_crownday_1_4,illumination,1251,1027,6.24,1.0939,0.8209,0.9081,0.9504,1,1,1,0.0000,0.6354,0.7812,0.8906
i_crownday_1_5,illumination,1319,1171,5.03,0.6702,0.8848,0.9447,0.9727,1,1,1,0.3298,0.7766,0.8660,0.9330
i_crownday_1_6,illumination,1085,759,4.56,0.9801,0.6857,0.8157,0.8894,1,1,1,0.0199,0.6733,0.8040,0.9020
i_dome_1_2,illumination,1196,1127,4.57,0.0000,0.9423,0.9749,0.9858,1,1,1,1.0000,1.0000,1.0000,1.0000
i_dome_1_3,illumination,781,549,4.25,0.6106,0.7029,0.7913,0.8451,1,1,1,0.3894,0.7965,0.8779,0.9389
i_dome_1_4,illumination,802,567,4.52,0.6958,0.7032,0.7993,0.8516,1,1,1,0.3042,0.7681,0.8608,0.9304
i_dome_1_5,illumination,828,569,4.49,0.7715,0.6884,0.7911,0.8551,1,1,1,0.2285,0.7428,0.8457,0.9228
i_dome_1_6,illumination,1061,903,4.46,0.6048,0.8454,0.9133,0.9369,1,1,1,0.3952,0.7984,0.8790,0.9395
i_duda_1_2,illumination,626,609,3.64,0.2104,0.9744,0.9872,0.9952,1,1,1,0.7896,0.9299,0.9579,0.9790
i_duda_1_3,illumination,594,573,3.86,0.3560,0.9663,0.9916,0.9966,1,1,1,0.6440,0.8813,0.9288,0.9644
i_duda_1_4,illumination,550,526,4.46,0.5187,0.9527,0.9818,0.9927,1,1,1,0.4813,0.8271,0.8963,0.9481
i_duda_1_5,illumination,510,479,3.36,0.8059,0.9373,0.9686,0.9882,1,1,1,0.1941,0.7314,0.8388,0.9194
i_duda_1_6,illumination,411,371,4.80,0.5976,0.9027,0.9635,0.9757,1,1,1,0.4024,0.8008,0.8805,0.9402
i_fenis_1_2,illumination,1495,1394,4.46,0.3575,0.9298,0.9732,0.9873,1,1,1,0.6425,0.8808,0.9285,0.9643
i_fenis_1_3,illumination,1290,1063,4.42,0.7981,0.8225,0.8891,0.9240,1,1,1,0.2019,0.7340,0.8404,0.9202
i_fenis_1_4,illumination,950,493,4.96,1.4505,0.5042,0.5958,0.6484,1,1,1,0.0000,0.5165,0.7099,0.8550
i_fenis_1_5,illumination,809,361,4.14,1.2787,0.4203,0.5167,0.5773,1,1,1,0.0000,0.5738,0.7443,0.8721
i_fenis_1_6,illumination,871,459,4.10,1.4793,0.5063,0.6188,0.6900,1,1,1,0.0000,0.5069,0.7041,0.8521
i_fog_1_2,illumination,1549,1428,4.54,0.1949,0.9251,0.9697,0.9864,1,1,1,0.8051,0.9350,0.9610,0.9805
i_fog_1_3,illumination,1290,1136,3.99,0.2768,0.8829,0.9318,0.9620,1,1,1,0.7232,0.9077,0.9446,0.9723
i_fog_1_4,illumination,1252,1097,5.04,0.4189,0.8762,0.9241,0.9529,1,1,1,0.5811,0.8604,0.9162,0.9581
i_fog_1_5,illumination,763,662,4.82,0.3685,0.8676,0.8899,0.9056,1,1,1,0.6315,0.8772,0.9263,0.9631
i_fog_1_6,illumination,656,566,3.47,0.5516,0.8659,0.8979,0.9101,1,1,1,0.4484,0.8161,0.8897,0.9448
i_fruits_1_2,illumination,1153,1077,10.03,0.2040,0.9341,0.9748,0.9844,1,1,1,0.7960,0.9320,0.9592,0.9796
i_fruits_1_3,illumination,1112,1011,5.17,0.2342,0.9074,0.9631,0.9811,1,1,1,0.7658,0.9219,0.9532,0.9766
i_fruits_1_4,illumination,1113,976,4.42,0.3616,0.8751,0.9407,0.9712,1,1,1,0.6384,0.8795,0.9277,0.9638
i_fruits_1_5,illumination,1082,958,4.20,0.4782,0.8808,0.9427,0.9686,1,1,1,0.5218,0.8406,0.9044,0.9522
i_fruits_1_6,illumination,1101,978,4.69,0.4994,0.8874,0.9537,0.9764,1,1,1,0.5006,0.8335,0.9001,0.9501
i_gonnenberg_1_2,illumination,1458,1318,4.12,0.0000,0.9088,0.9431,0.9554,1,1,1,1.0000,1.0000,1.0000,1.0000
i_gonnenberg_1_3,illumination,1465,1318,4.12,0.0000,0.9038,0.9468,0.9666,1,1,1,1.0000,1.0000,1.0000,1.0000
i_gonnenberg_1_4,illumination,1376,1224,5.23,0.5485,0.8801,0.9310,0.9506,1,1,1,0.4515,0.8172,0.8903,0.9451
i_gonnenberg_1_5,illumination,1371,1235,4.24,0.3989,0.8986,0.9285,0.9460,1,1,1,0.6011,0.8670,0.9202,0.9601
i_gonnenberg_1_6,illumination,1416,1270,4.74,0.4157,0.8962,0.9357,0.9513,1,1,1,0.5843,0.8614,0.9169,0.9584
i_greenhouse_1_2,illumination,1515,1298,5.28,0.1479,0.8587,0.9241,0.9459,1,1,1,0.8521,0.9507,0.9704,0.9852
i_greenhouse_1_3,illumination,1509,1298,4.32,0.3871,0.8628,0.9172,0.9410,1,1,1,0.6129,0.8710,0.9226,0.9613
i_greenhouse_1_4,illumination,1417,1163,4.80,0.3739,0.8186,0.8807,0.9061,1,1,1,0.6261,0.8754,0.9252,0.9626
i_greenhouse_1_5,illumination,1402,1124,4.45,0.5492,0.7967,0.8688,0.9058,1,1,1,0.4508,0.8169,0.8902,0.9451
i_greenhouse_1_6,illumination,1309,943,4.62,0.7315,0.7120,0.8014,0.8495,1,1,1,0.2685,0.7562,0.8537,0.9268
i_greentea_1_2,illumination,1069,944,4.26,0.0000,0.8849,0.9121,0.9345,1,1,1,1.0000,1.0000,1.0000,1.0000
i_greentea_1_3,illumination,1340,1268,4.45,0.1761,0.9478,0.9649,0.9761,1,1,1,0.8239,0.9413,0.9648,0.9824
i_greentea_1_4,illumination,1341,1282,3.97,0.0000,0.9560,0.9776,0.9873,1,1,1,1.0000,1.0000,1.0000,1.0000
i_greentea_1_5,illumination,1314,1243,5.19,0.0000,0.9460,0.9665,0.9741,1,1,1,1.0000,1.0000,1.0000,1.0000
i_greentea_1_6,illumination,1127,1029,4.45,0.2444,0.9130,0.9512,0.9654,1,1,1,0.7556,0.9185,0.9511,0.9756
i_indiana_1_2,illumination,1284,1024,4.55,0.5074,0.7921,0.8801,0.9245,1,1,1,0.4926,0.8309,0.8985,0.9493
i_indiana_1_3,illumination,1266,983,6.23,0.3600,0.7741,0.8728,0.9171,1,1,1,0.6400,0.8800,0.9280,0.9640
i_indiana_1_4,illumination,1256,918,5.29,0.6941,0.7189,0.8328,0.8925,1,1,1,0.3059,0.7686,0.8612,0.9306
i_indiana_1_5,illumination,1201,844,4.82,0.8728,0.6911,0.7977,0.8718,1,1,1,0.1272,0.7091,0.8254,0.9127
i_indiana_1_6,illumination,1168,805,4.58,0.8239,0.6789,0.7834,0.8485,1,1,1,0.1761,0.7254,0.8352,0.9176
i_kions_1_2,illumination,681,549,9.41,0.6280,0.7812,0.8840,0.9119,1,1,1,0.3720,0.7907,0.8744,0.9372
i_kions_1_3,illumination,647,483,3.50,0.4730,0.7372,0.8300,0.8655,1,1,1,0.5270,0.8423,0.9054,0.9527
i_kions_1_4,illumination,576,439,3.54,0.9870,0.7448,0.8750,0.9028,1,1,1,0.0130,0.6710,0.8026,0.9013
i_kions_1_5,illumination,586,430,3.43,0.8225,0.7253,0.8618,0.8993,1,1,1,0.1775,0.7258,0.8355,0.9178
i_kions_1_6,illumination,615,432,3.52,0.5452,0.6959,0.7756,0.8195,1,1,1,0.4548,0.8183,0.8910,0.9455
i_ktirio_1_2,illumination,1081,1045,3.75,0.1556,0.9639,0.9759,0.9870,1,1,1,0.8444,0.9481,0.9689,0.9844
i_ktirio_1_3,illumination,928,742,4.00,0.5303,0.8006,0.8578,0.8955,1,1,1,0.4697,0.8232,0.8939,0.9470
i_ktirio_1_4,illumination,798,558,4.07,1.1000,0.6779,0.7744,0.8271,1,1,1,0.0000,0.6333,0.7800,0.8900
i_ktirio_1_5,illumination,869,659,3.83,0.7034,0.7480,0.8090,0.8470,1,1,1,0.2966,0.7655,0.8593,0.9297
i_ktirio_1_6,illumination,745,486,4.64,1.0652,0.6336,0.7356,0.7826,1,1,1,0.0000,0.6449,0.7870,0.8935
i_kurhaus_1_2,illumination,1424,1322,4.28,0.3262,0.9277,0.9572,0.9712,1,1,1,0.6738,0.8913,0.9348,0.9674
i_kurhaus_1_3,illumination,1343,1184,4.23,0.2779,0.8824,0.9293,0.9546,1,1,1,0.7221,0.9074,0.9444,0.9722
i_kurhaus_1_4,illumination,1288,1063,4.33,0.3350,0.8230,0.8804,0.9247,1,1,1,0.6650,0.8883,0.9330,0.9665
i_kurhaus_1_5,illumination,1239,981,4.21,0.0000,0.7958,0.8612,0.9031,1,1,1,1.0000,1.0000,1.0000,1.0000
i_kurhaus_1_6,illumination,1196,899,4.17,0.5093,0.7492,0.8319,0.8788,1,1,1,0.4907,0.8302,0.8981,0.9491
i_leuven_1_2,illumination,873,828,3.52,0.9412,0.9427,0.9759,0.9885,1,1,1,0.0588,0.6863,0.8118,0.9059
i_leuven_1_3,illumination,854,799,3.64,0.9087,0.9356,0.9778,0.9895,1,1,1,0.0913,0.6971,0.8183,0.9091
i_leuven_1_4,illumination,855,782,4.13,1.7623,0.9135,0.9602,0.9743,1,1,1,0.0000,0.4126,0.6475,0.8238
i_leuven_1_5,illumination,802,734,3.86,1.4898,0.9027,0.9514,0.9626,1,1,1,0.0000,0.5034,0.7020,0.8510
i_leuven_1_6,illumination,734,637,3.79,6.9568,0.7030,0.8569,0.9142,0,0,1,0.0000,0.0000,0.0000,0.3043
i_lionday_1_2,illumination,996,676,4.55,1.0000,0.6797,0.7781,0.8283,1,1,1,0.0000,0.6667,0.8000,0.9000
i_lionday_1_3,illumination,1031,778,4.75,1.0330,0.7478,0.8332,0.8846,1,1,1,0.0000,0.6557,0.7934,0.8967
i_lionday_1_4,illumination,866,400,4.05,2.1674,0.3707,0.5300,0.6328,1,1,1,0.0000,0.2775,0.5665,0.7833
i_lionday_1_5,illumination,948,570,5.63,2.3974,0.4979,0.6593,0.7395,1,1,1,0.0000,0.2009,0.5205,0.7603
i_lionday_1_6,illumination,1085,780,4.47,1.6776,0.6995,0.8037,0.8535,1,1,1,0.0000,0.4408,0.6645,0.8322
i_lionnight_1_2,illumination,1198,1101,4.17,0.7679,0.9182,0.9424,0.9466,1,1,1,0.2321,0.7440,0.8464,0.9232
i_lionnight_1_3,illumination,1041,878,4.23,1.5509,0.8271,0.8770,0.8963,1,1,1,0.0000,0.4830,0.6898,0.8449
i_lionnight_1_4,illumination,1367,1302,4.02,0.7855,0.9473,0.9693,0.9773,1,1,1,0.2145,0.7382,0.8429,0.9214
i_lionnight_1_5,illumination,1286,1185,4.02,1.2319,0.9168,0.9401,0.9440,1,1,1,0.0000,0.5894,0.7536,0.8768
i_lionnight_1_6,illumination,1223,1092,4.04,0.9956,0.8904,0.9076,0.9207,1,1,1,0.0044,0.6681,0.8009,0.9004
i_londonbridge_1_2,illumination,963,902,3.86,1.0918,0.9232,0.9782,0.9907,1,1,1,0.0000,0.6361,0.7816,0.8908
i_londonbridge_1_3,illumination,952,877,3.88,1.0618,0.9086,0.9779,0.9895,1,1,1,0.0000,0.6461,0.7876,0.8938
i_londonbridge_1_4,illumination,933,782,3.88,2.3777,0.7856,0.9250,0.9689,1,1,1,0.0000,0.2074,0.5245,0.7622
i_londonbridge_1_5,illumination,768,444,4.07,2.1338,0.5286,0.6979,0.7865,1,1,1,0.0000,0.2887,0.5732,0.7866
i_londonbridge_1_6,illumination,877,751,3.86,0.8199,0.8461,0.9350,0.9624,1,1,1,0.1801,0.7267,0.8360,0.9180
i_melon_1_2,illumination,735,696,3.77,0.4371,0.9469,0.9728,0.9823,1,1,1,0.5629,0.8543,0.9126,0.9563
i_melon_1_3,illumination,676,588,3.88,0.5621,0.8683,0.9275,0.9615,1,1,1,0.4379,0.8126,0.8876,0.9438
i_melon_1_4,illumination,500,313,4.52,2.4519,0.6240,0.7080,0.7860,1,1,1,0.0000,0.1827,0.5096,0.7548
i_melon_1_5,illumination,684,555,3.60,1.1441,0.8041,0.8801,0.9298,1,1,1,0.0000,0.6186,0.7712,0.8856
i_melon_1_6,illumination,649,499,4.13,0.0000,0.7704,0.8521,0.9106,1,1,1,1.0000,1.0000,1.0000,1.0000
i_miniature_1_2,illumination,1365,1298,4.21,0.4963,0.9465,0.9744,0.9905,1,1,1,0.5037,0.8346,0.9007,0.9504
i_miniature_1_3,illumination,1216,1093,4.27,0.6917,0.8890,0.9334,0.9564,1,1,1,0.3083,0.7694,0.8617,0.9308
i_miniature_1_4,illumination,955,709,4.33,0.7681,0.7309,0.8136,0.8597,1,1,1,0.2319,0.7440,0.8464,0.9232
i_miniature_1_5,illumination,618,353,3.69,0.9152,0.5631,0.6472,0.6942,1,1,1,0.0848,0.6949,0.8170,0.9085
i_miniature_1_6,illumination,1216,1067,4.01,0.6252,0.8627,0.9219,0.9482,1,1,1,0.3748,0.7916,0.8750,0.9375
i_nescafe_1_2,illumination,849,713,3.68,0.0000,0.8433,0.8893,0.9270,1,1,1,1.0000,1.0000,1.0000,1.0000
i_nescafe_1_3,illumination,957,831,3.73,0.7860,0.8673,0.9049,0.9373,1,1,1,0.2140,0.7380,0.8428,0.9214
i_nescafe_1_4,illumination,982,851,3.83,0.0000,0.8697,0.9012,0.9216,1,1,1,1.0000,1.0000,1.0000,1.0000
i_nescafe_1_5,illumination,835,708,3.57,0.3243,0.8479,0.8862,0.9246,1,1,1,0.6757,0.8919,0.9351,0.9676
i_nescafe_1_6,illumination,923,755,3.87,0.3351,0.8169,0.8743,0.9187,1,1,1,0.6649,0.8883,0.9330,0.9665
i_nijmegen_1_2,illumination,1588,1264,4.67,1.0407,0.7563,0.8709,0.9257,1,1,1,0.0000,0.6531,0.7919,0.8959
i_nijmegen_1_3,illumination,1619,1333,4.87,0.8057,0.7906,0.8962,0.9401,1,1,1,0.1943,0.7314,0.8389,0.9194
i_nijmegen_1_4,illumination,1003,607,4.34,0.8901,0.5942,0.7119,0.7836,1,1,1,0.1099,0.7033,0.8220,0.9110
i_nijmegen_1_5,illumination,1603,1303,5.25,0.8717,0.7760,0.8883,0.9395,1,1,1,0.1283,0.7094,0.8257,0.9128
i_nijmegen_1_6,illumination,1580,1242,4.74,0.9903,0.7519,0.8823,0.9424,1,1,1,0.0097,0.6699,0.8019,0.9010
i_nuts_1_2,illumination,1239,963,4.48,0.7490,0.7692,0.8749,0.9314,1,1,1,0.2510,0.7503,0.8502,0.9251
i_nuts_1_3,illumination,1033,709,4.83,0.6547,0.6786,0.8006,0.8577,1,1,1,0.3453,0.7818,0.8691,0.9345
i_nuts_1_4,illumination,817,470,4.39,0.6537,0.5814,0.6928,0.7760,1,1,1,0.3463,0.7821,0.8693,0.9346
i_nuts_1_5,illumination,655,322,4.98,0.6848,0.4794,0.5878,0.6565,1,1,1,0.3152,0.7717,0.8630,0.9315
i_nuts_1_6,illumination,603,194,4.54,1.4475,0.3118,0.4046,0.4876,1,1,1,0.0000,0.5175,0.7105,0.8552
i_objects_1_2,illumination,1471,1245,4.62,0.6551,0.8477,0.9341,0.9728,1,1,1,0.3449,0.7816,0.8690,0.9345
i_objects_1_3,illumination,1407,1096,4.55,1.0441,0.7747,0.8941,0.9552,1,1,1,0.0000,0.6520,0.7912,0.8956
i_objects_1_4,illumination,1289,850,5.30,0.9504,0.6610,0.7952,0.8751,1,1,1,0.0496,0.6832,0.8099,0.9050
i_objects_1_5,illumination,1291,856,4.67,1.1094,0.6654,0.8033,0.8885,1,1,1,0.0000,0.6302,0.7781,0.8891
i_objects_1_6,illumination,1589,1440,4.28,0.3536,0.9069,0.9616,0.9874,1,1,1,0.6464,0.8821,0.9293,0.9646
i_parking_1_2,illumination,982,869,3.64,0.3086,0.8870,0.9470,0.9715,1,1,1,0.6914,0.8971,0.9383,0.9691
i_parking_1_3,illumination,970,818,3.73,0.6256,0.8443,0.9268,0.9619,1,1,1,0.3744,0.7915,0.8749,0.9374
i_parking_1_4,illumination,863,663,3.74,1.1355,0.7486,0.8563,0.9166,1,1,1,0.0000,0.6215,0.7729,0.8864
i_parking_1_5,illumination,802,503,3.77,1.0987,0.6097,0.7469,0.8092,1,1,1,0.0000,0.6338,0.7803,0.8901
i_parking_1_6,illumination,824,622,4.06,1.0540,0.7269,0.8374,0.8993,1,1,1,0.0000,0.6487,0.7892,0.8946
i_partyfood_1_2,illumination,488,483,3.25,0.2043,0.9918,0.9959,0.9980,1,1,1,0.7957,0.9319,0.9591,0.9796
i_partyfood_1_3,illumination,451,442,3.39,0.5089,0.9823,0.9933,0.9978,1,1,1,0.4911,0.8304,0.8982,0.9491
i_partyfood_1_4,illumination,438,423,3.97,0.4148,0.9658,0.9932,0.9954,1,1,1,0.5852,0.8617,0.9170,0.9585
i_partyfood_1_5,illumination,417,402,3.16,1.0536,0.9664,0.9928,0.9976,1,1,1,0.0000,0.6488,0.7893,0.8946
i_partyfood_1_6,illumination,390,362,3.81,1.6047,0.9282,0.9564,0.9821,1,1,1,0.0000,0.4651,0.6791,0.8395
i_pinard_1_2,illumination,593,551,3.75,0.6327,0.9241,0.9629,0.9815,1,1,1,0.3673,0.7891,0.8735,0.9367
i_pinard_1_3,illumination,571,413,3.64,2.3998,0.7320,0.7898,0.8371,1,1,1,0.0000,0.2001,0.5200,0.7600
i_pinard_1_4,illumination,580,437,3.84,1.4350,0.7517,0.8086,0.8517,1,1,1,0.0000,0.5217,0.7130,0.8565
i_pinard_1_5,illumination,595,477,3.39,1.6735,0.7966,0.8521,0.8924,1,1,1,0.0000,0.4422,0.6653,0.8327
i_pinard_1_6,illumination,572,472,3.45,0.8828,0.8287,0.8864,0.9213,1,1,1,0.1172,0.7057,0.8234,0.9117
i_pool_1_2,illumination,447,258,3.71,1.5756,0.5615,0.6532,0.7293,1,1,1,0.0000,0.4748,0.6849,0.8424
i_pool_1_3,illumination,329,105,3.33,2.3431,0.3131,0.3921,0.4468,1,1,1,0.0000,0.2190,0.5314,0.7657
i_pool_1_4,illumination,327,98,3.37,5.4355,0.3028,0.3761,0.4281,0,0,1,0.0000,0.0000,0.0000,0.4565
i_pool_1_5,illumination,396,179,3.45,4.1444,0.4444,0.5455,0.5909,0,1,1,0.0000,0.0000,0.1711,0.5856
i_pool_1_6,illumination,354,165,3.17,2.1797,0.4492,0.5537,0.5847,1,1,1,0.0000,0.2734,0.5641,0.7820
i_porta_1_2,illumination,1136,652,4.23,0.6513,0.5810,0.7597,0.8548,1,1,1,0.3487,0.7829,0.8697,0.9349
i_porta_1_3,illumination,1103,621,4.26,0.8892,0.5657,0.7625,0.8776,1,1,1,0.1108,0.7036,0.8222,0.9111
i_porta_1_4,illumination,1048,574,4.31,1.3116,0.5401,0.7414,0.8454,1,1,1,0.0000,0.5628,0.7377,0.8688
i_porta_1_5,illumination,499,375,3.58,0.5894,0.7555,0.8717,0.9198,1,1,1,0.4106,0.8035,0.8821,0.9411
i_porta_1_6,illumination,596,330,3.67,0.9219,0.5470,0.6577,0.7181,1,1,1,0.0781,0.6927,0.8156,0.9078
i_resort_1_2,illumination,1542,1366,4.55,0.5115,0.8865,0.9488,0.9741,1,1,1,0.4885,0.8295,0.8977,0.9489
i_resort_1_3,illumination,1712,1647,5.03,0.0000,0.9626,0.9819,0.9924,1,1,1,1.0000,1.0000,1.0000,1.0000
i_resort_1_4,illumination,1723,1648,5.42,0.1108,0.9559,0.9797,0.9896,1,1,1,0.8892,0.9631,0.9778,0.9889
i_resort_1_5,illumination,1520,1303,4.66,0.5506,0.8586,0.9211,0.9546,1,1,1,0.4494,0.8165,0.8899,0.9449
i_resort_1_6,illumination,1491,1326,4.39,0.6708,0.8793,0.9477,0.9759,1,1,1,0.3292,0.7764,0.8658,0.9329
i_salon_1_2,illumination,1545,1466,4.64,0.2837,0.9411,0.9773,0.9916,1,1,1,0.7163,0.9054,0.9433,0.9716
i_salon_1_3,illumination,1316,1161,3.98,0.3718,0.8663,0.9324,0.9582,1,1,1,0.6282,0.8761,0.9256,0.9628
i_salon_1_4,illumination,1126,911,4.24,0.4930,0.7984,0.8801,0.9165,1,1,1,0.5070,0.8357,0.9014,0.9507
i_salon_1_5,illumination,1448,1301,4.18,0.2932,0.8936,0.9558,0.9800,1,1,1,0.7068,0.9023,0.9414,0.9707
i_salon_1_6,illumination,1328,1113,4.28,0.3640,0.8208,0.9089,0.9443,1,1,1,0.6360,0.8787,0.9272,0.9636
i_santuario_1_2,illumination,1515,1276,4.21,1.0369,0.8264,0.9261,0.9551,1,1,1,0.0000,0.6544,0.7926,0.8963
i_santuario_1_3,illumination,1488,1241,4.21,1.2547,0.8179,0.9194,0.9590,1,1,1,0.0000,0.5818,0.7491,0.8745
i_santuario_1_4,illumination,1392,1131,4.22,1.4206,0.7723,0.8915,0.9332,1,1,1,0.0000,0.5265,0.7159,0.8579
i_santuario_1_5,illumination,1500,1256,4.31,0.4758,0.8373,0.9127,0.9547,1,1,1,0.5242,0.8414,0.9048,0.9524
i_santuario_1_6,illumination,1298,1038,5.20,0.8454,0.7951,0.8921,0.9291,1,1,1,0.1546,0.7182,0.8309,0.9155
i_school_1_2,illumination,1283,1209,4.08,0.2031,0.9415,0.9719,0.9867,1,1,1,0.7969,0.9323,0.9594,0.9797
i_school_1_3,illumination,1253,1185,5.05,0.1931,0.9449,0.9761,0.9920,1,1,1,0.8069,0.9356,0.9614,0.9807
i_school_1_4,illumination,1076,902,4.53,0.6738,0.8188,0.9015,0.9461,1,1,1,0.3262,0.7754,0.8652,0.9326
i_school_1_5,illumination,1166,991,4.25,0.7675,0.8508,0.9048,0.9391,1,1,1,0.2325,0.7442,0.8465,0.9232
i_school_1_6,illumination,883,639,5.51,1.4433,0.7112,0.8143,0.8539,1,1,1,0.0000,0.5189,0.7113,0.8557
i_ski_1_2,illumination,1698,1583,5.30,0.3241,0.9323,0.9694,0.9835,1,1,1,0.6759,0.8920,0.9352,0.9676
i_ski_1_3,illumination,1617,1443,4.48,0.4850,0.8850,0.9530,0.9777,1,1,1,0.5150,0.8383,0.9030,0.9515
i_ski_1_4,illumination,1537,1316,5.01,0.7141,0.8465,0.9304,0.9655,1,1,1,0.2859,0.7620,0.8572,0.9286
i_ski_1_5,illumination,1507,1246,4.86,0.6943,0.8122,0.9137,0.9502,1,1,1,0.3057,0.7686,0.8611,0.9306
i_ski_1_6,illumination,1451,1152,4.57,0.7293,0.7746,0.8925,0.9338,1,1,1,0.2707,0.7569,0.8541,0.9271
i_smurf_1_2,illumination,1234,1066,3.84,0.0000,0.8663,0.9198,0.9506,1,1,1,1.0000,1.0000,1.0000,1.0000
i_smurf_1_3,illumination,1260,1094,4.32,0.2977,0.8627,0.9190,0.9492,1,1,1,0.7023,0.9008,0.9405,0.9702
i_smurf_1_4,illumination,1252,1062,3.90,0.2898,0.8411,0.9002,0.9337,1,1,1,0.7102,0.9034,0.9420,0.9710
i_smurf_1_5,illumination,1211,1007,4.07,0.2194,0.8241,0.8852,0.9216,1,1,1,0.7806,0.9269,0.9561,0.9781
i_smurf_1_6,illumination,1018,747,4.28,0.5353,0.7279,0.8173,0.8694,1,1,1,0.4647,0.8216,0.8929,0.9465
i_steps_1_2,illumination,768,729,3.46,0.2516,0.9505,0.9844,0.9922,1,1,1,0.7484,0.9161,0.9497,0.9748
i_steps_1_3,illumination,915,836,3.48,1.0534,0.9115,0.9607,0.9781,1,1,1,0.0000,0.6489,0.7893,0.8947
i_steps_1_4,illumination,937,874,3.58,0.4790,0.9253,0.9733,0.9829,1,1,1,0.5210,0.8403,0.9042,0.9521
i_steps_1_5,illumination,773,674,3.68,0.7512,0.8577,0.9327,0.9521,1,1,1,0.2488,0.7496,0.8498,0.9249
i_steps_1_6,illumination,868,783,3.43,0.7728,0.8975,0.9597,0.9758,1,1,1,0.2272,0.7424,0.8454,0.9227
i_table_1_2,illumination,1471,1245,4.52,0.6551,0.8477,0.9341,0.9728,1,1,1,0.3449,0.7816,0.8690,0.9345
i_table_1_3,illumination,1407,1096,4.76,1.0441,0.7747,0.8941,0.9552,1,1,1,0.0000,0.6520,0.7912,0.8956
i_table_1_4,illumination,1289,850,5.89,0.9504,0.6610,0.7952,0.8751,1,1,1,0.0496,0.6832,0.8099,0.9050
i_table_1_5,illumination,1291,856,5.32,1.1094,0.6654,0.8033,0.8885,1,1,1,0.0000,0.6302,0.7781,0.8891
i_table_1_6,illumination,1589,1440,5.08,0.3536,0.9069,0.9616,0.9874,1,1,1,0.6464,0.8821,0.9293,0.9646
i_tools_1_2,illumination,648,349,5.01,3.6629,0.4367,0.6296,0.7840,0,1,1,0.0000,0.0000,0.2674,0.6337
i_tools_1_3,illumination,685,534,4.53,1.5141,0.7766,0.9095,0.9635,1,1,1,0.0000,0.4953,0.6972,0.8486
i_tools_1_4,illumination,664,320,5.29,4.2774,0.4639,0.6461,0.8012,0,1,1,0.0000,0.0000,0.1445,0.5723
i_tools_1_5,illumination,681,476,4.92,2.5187,0.6931,0.8399,0.9016,1,1,1,0.0000,0.1604,0.4963,0.7481
i_tools_1_6,illumination,651,276,3.93,5.7030,0.2826,0.4147,0.6083,0,0,1,0.0000,0.0000,0.0000,0.4297
i_toy_1_2,illumination,1683,1481,4.78,0.2121,0.8776,0.9376,0.9638,1,1,1,0.7879,0.9293,0.9576,0.9788
i_toy_1_3,illumination,1597,1314,4.75,0.3067,0.8140,0.8810,0.9249,1,1,1,0.6933,0.8978,0.9387,0.9693
i_toy_1_4,illumination,1480,1108,4.61,0.4657,0.7378,0.8291,0.8764,1,1,1,0.5343,0.8448,0.9069,0.9534
i_toy_1_5,illumination,1396,881,8.75,1.0961,0.6211,0.7285,0.8016,1,1,1,0.0000,0.6346,0.7808,0.8904
i_toy_1_6,illumination,1148,551,5.37,1.9077,0.4564,0.5906,0.6672,1,1,1,0.0000,0.3641,0.6185,0.8092
i_troulos_1_2,illumination,473,415,3.14,0.9489,0.8436,0.9366,0.9704,1,1,1,0.0511,0.6837,0.8102,0.9051
i_troulos_1_3,illumination,421,332,3.36,2.6663,0.4442,0.8409,0.9216,1,1,1,0.0000,0.1112,0.4667,0.7334
i_troulos_1_4,illumination,610,560,3.23,0.4442,0.9115,0.9672,0.9902,1,1,1,0.5558,0.8519,0.9112,0.9556
i_troulos_1_5,illumination,560,443,5.31,1.6310,0.7768,0.8911,0.9268,1,1,1,0.0000,0.4563,0.6738,0.8369
i_troulos_1_6,illumination,523,430,3.71,1.0811,0.7744,0.8987,0.9484,1,1,1,0.0000,0.6396,0.7838,0.8919
i_veggies_1_2,illumination,1178,1115,3.82,0.0000,0.9499,0.9745,0.9890,1,1,1,1.0000,1.0000,1.0000,1.0000
i_veggies_1_3,illumination,1010,858,4.46,0.4445,0.8465,0.9149,0.9386,1,1,1,0.5555,0.8518,0.9111,0.9555
i_veggies_1_4,illumination,1124,1001,3.93,0.1503,0.8923,0.9413,0.9689,1,1,1,0.8497,0.9499,0.9699,0.9850
i_veggies_1_5,illumination,914,618,4.43,0.8407,0.6619,0.7571,0.8195,1,1,1,0.1593,0.7198,0.8319,0.9159
i_veggies_1_6,illumination,867,550,5.07,0.3745,0.6286,0.7128,0.7774,1,1,1,0.6255,0.8752,0.9251,0.9626
i_village_1_2,illumination,1424,1083,10.72,0.5020,0.7577,0.8708,0.9115,1,1,1,0.4980,0.8327,0.8996,0.9498
i_village_1_3,illumination,1442,1087,4.89,0.5462,0.7490,0.8266,0.8849,1,1,1,0.4538,0.8179,0.8908,0.9454
i_village_1_4,illumination,1380,1094,4.35,0.7318,0.7877,0.8696,0.9210,1,1,1,0.2682,0.7561,0.8536,0.9268
i_village_1_5,illumination,1630,1480,4.38,0.3566,0.9086,0.9417,0.9650,1,1,1,0.6434,0.8811,0.9287,0.9643
i_village_1_6,illumination,1399,1020,4.61,0.8248,0.7112,0.8156,0.8756,1,1,1,0.1752,0.7251,0.8350,0.9175
i_yellowtent_1_2,illumination,1327,1272,4.07,0.1872,0.9548,0.9834,0.9894,1,1,1,0.8128,0.9376,0.9626,0.9813
i_yellowtent_1_3,illumination,1207,1087,4.03,0.5967,0.8824,0.9503,0.9718,1,1,1,0.4033,0.8011,0.8807,0.9403
i_yellowtent_1_4,illumination,1008,813,4.19,0.7338,0.7986,0.8720,0.9127,1,1,1,0.2662,0.7554,0.8532,0.9266
i_yellowtent_1_5,illumination,1128,968,3.94,0.5025,0.8520,0.9060,0.9344,1,1,1,0.4975,0.8325,0.8995,0.9497
i_yellowtent_1_6,illumination,1015,800,3.89,0.4119,0.7714,0.8512,0.8936,1,1,1,0.5881,0.8627,0.9176,0.9588
i_zion_1_2,illumination,1713,1592,4.85,0.2146,0.9294,0.9708,0.9848,1,1,1,0.7854,0.9285,0.9571,0.9785
i_zion_1_3,illumination,1464,1206,4.57,0.7759,0.8163,0.8866,0.9214,1,1,1,0.2241,0.7414,0.8448,0.9224
i_zion_1_4,illumination,1179,840,4.38,0.9185,0.6913,0.7803,0.8210,1,1,1,0.0815,0.6938,0.8163,0.9081
i_zion_1_5,illumination,858,425,4.91,1.1576,0.4685,0.5699,0.6212,1,1,1,0.0000,0.6141,0.7685,0.8842
i_zion_1_6,illumination,751,413,3.68,1.0155,0.5459,0.6205,0.6738,1,1,1,0.0000,0.6615,0.7969,0.8984
v_abstract_1_2,viewpoint,1353,1276,4.23,0.2653,0.9401,0.9697,0.9786,1,1,1,0.7347,0.9116,0.9469,0.9735
v_abstract_1_3,viewpoint,1349,1237,4.46,0.5102,0.9177,0.9622,0.9741,1,1,1,0.4898,0.8299,0.8980,0.9490
v_abstract_1_4,viewpoint,1072,865,4.07,1.0368,0.8004,0.8834,0.9067,1,1,1,0.0000,0.6544,0.7926,0.8963
v_abstract_1_5,viewpoint,1134,961,4.20,0.7131,0.8457,0.8942,0.9127,1,1,1,0.2869,0.7623,0.8574,0.9287
v_abstract_1_6,viewpoint,941,691,4.13,0.8118,0.7269,0.8055,0.8268,1,1,1,0.1882,0.7294,0.8376,0.9188
v_adam_1_2,viewpoint,849,793,3.91,0.5367,0.9317,0.9729,0.9859,1,1,1,0.4633,0.8211,0.8927,0.9463
v_adam_1_3,viewpoint,765,706,3.59,0.7678,0.9203,0.9699,0.9882,1,1,1,0.2322,0.7441,0.8464,0.9232
v_adam_1_4,viewpoint,548,449,3.34,1.1139,0.8139,0.9051,0.9343,1,1,1,0.0000,0.6287,0.7772,0.8886
v_adam_1_5,viewpoint,672,592,3.47,0.7631,0.8824,0.9479,0.9747,1,1,1,0.2369,0.7456,0.8474,0.9237
v_adam_1_6,viewpoint,659,570,3.44,0.7268,0.8574,0.9423,0.9636,1,1,1,0.2732,0.7577,0.8546,0.9273
v_apprentices_1_2,viewpoint,1697,1624,10.71,0.1019,0.9576,0.9847,0.9900,1,1,1,0.8981,0.9660,0.9796,0.9898
v_apprentices_1_3,viewpoint,1499,1411,4.60,0.4742,0.9400,0.9753,0.9840,1,1,1,0.5258,0.8419,0.9052,0.9526
v_apprentices_1_4,viewpoint,1327,1194,4.23,0.9147,0.8975,0.9427,0.9593,1,1,1,0.0853,0.6951,0.8171,0.9085
v_apprentices_1_5,viewpoint,1134,994,4.58,1.2580,0.8721,0.9268,0.9418,1,1,1,0.0000,0.5807,0.7484,0.8742
v_apprentices_1_6,viewpoint,1027,875,4.12,0.7020,0.8530,0.9114,0.9279,1,1,1,0.2980,0.7660,0.8596,0.9298
v_azzola_1_2,viewpoint,1461,1305,10.72,0.8441,0.8830,0.9398,0.9548,1,1,1,0.1559,0.7186,0.8312,0.9156
v_azzola_1_3,viewpoint,1312,1040,4.41,1.2530,0.7759,0.9055,0.9299,1,1,1,0.0000,0.5823,0.7494,0.8747
v_azzola_1_4,viewpoint,1467,1378,4.60,0.5825,0.9393,0.9646,0.9755,1,1,1,0.4175,0.8058,0.8835,0.9418
v_azzola_1_5,viewpoint,1152,887,4.32,0.9299,0.7526,0.8663,0.8924,1,1,1,0.0701,0.6900,0.8140,0.9070
v_azzola_1_6,viewpoint,851,452,4.15,1.5782,0.5170,0.6016,0.6251,1,1,1,0.0000,0.4739,0.6844,0.8422
v_bark_1_2,viewpoint,839,257,4.54,2.1205,0.3039,0.4172,0.4779,1,1,1,0.0000,0.2932,0.5759,0.7879
v_bark_1_3,viewpoint,632,8,4.70,707.0569,0.0000,0.0000,0.0000,0,0,0,0.0000,0.0000,0.0000,0.0000
v_bark_1_4,viewpoint,611,11,4.61,458.4630,0.0000,0.0000,0.0000,0,0,0,0.0000,0.0000,0.0000,0.0000
v_bark_1_5,viewpoint,676,10,4.54,263.0523,0.0133,0.0266,0.0429,0,0,0,0.0000,0.0000,0.0000,0.0000
v_bark_1_6,viewpoint,652,11,4.46,491.5219,0.0000,0.0000,0.0000,0,0,0,0.0000,0.0000,0.0000,0.0000
v_bees_1_2,viewpoint,1644,1569,4.73,0.2827,0.9532,0.9799,0.9891,1,1,1,0.7173,0.9058,0.9435,0.9717
v_bees_1_3,viewpoint,1671,1622,4.65,0.3846,0.9713,0.9916,0.9946,1,1,1,0.6154,0.8718,0.9231,0.9615
v_bees_1_4,viewpoint,1594,1519,5.58,0.5604,0.9504,0.9799,0.9881,1,1,1,0.4396,0.8132,0.8879,0.9440
v_bees_1_5,viewpoint,1223,1088,5.14,1.2029,0.8839,0.9395,0.9542,1,1,1,0.0000,0.5990,0.7594,0.8797
v_bees_1_6,viewpoint,1401,1260,4.56,0.5519,0.8929,0.9536,0.9707,1,1,1,0.4481,0.8160,0.8896,0.9448
v_beyus_1_2,viewpoint,470,367,9.53,0.8463,0.7745,0.8872,0.9298,1,1,1,0.1537,0.7179,0.8307,0.9154
v_beyus_1_3,viewpoint,524,349,3.81,4.1193,0.6450,0.7748,0.8359,0,1,1,0.0000,0.0000,0.1761,0.5881
v_beyus_1_4,viewpoint,614,529,3.43,0.6776,0.8632,0.9235,0.9560,1,1,1,0.3224,0.7741,0.8645,0.9322
v_beyus_1_5,viewpoint,394,268,3.34,1.3657,0.6853,0.7995,0.8477,1,1,1,0.0000,0.5448,0.7269,0.8634
v_beyus_1_6,viewpoint,579,463,3.87,1.2947,0.7962,0.8877,0.9188,1,1,1,0.0000,0.5684,0.7411,0.8705
v_bip_1_2,viewpoint,1182,1057,4.63,0.1848,0.8917,0.9315,0.9475,1,1,1,0.8152,0.9384,0.9630,0.9815
v_bip_1_3,viewpoint,1106,932,4.20,0.2821,0.8454,0.8951,0.9114,1,1,1,0.7179,0.9060,0.9436,0.9718
v_bip_1_4,viewpoint,1122,984,4.27,0.2811,0.8779,0.9180,0.9456,1,1,1,0.7189,0.9063,0.9438,0.9719
v_bip_1_5,viewpoint,601,188,3.97,1.2747,0.2995,0.3727,0.4060,1,1,1,0.0000,0.5751,0.7451,0.8725
v_bip_1_6,viewpoint,498,13,3.99,165.4375,0.0763,0.1004,0.1205,0,0,0,0.0000,0.0000,0.0000,0.0000
v_bird_1_2,viewpoint,1088,983,4.45,76.6593,0.0000,0.0000,0.0000,0,0,0,0.0000,0.0000,0.0000,0.0000
v_bird_1_3,viewpoint,1025,862,4.69,84.2657,0.0000,0.0000,0.0000,0,0,0,0.0000,0.0000,0.0000,0.0000
v_bird_1_4,viewpoint,1037,842,4.42,99.1072,0.0000,0.0000,0.0000,0,0,0,0.0000,0.0000,0.0000,0.0000
v_bird_1_5,viewpoint,1023,705,4.53,85.6886,0.0000,0.0000,0.0010,0,0,0,0.0000,0.0000,0.0000,0.0000
v_bird_1_6,viewpoint,720,293,4.48,189.2121,0.0000,0.0000,0.0000,0,0,0,0.0000,0.0000,0.0000,0.0000
v_birdwoman_1_2,viewpoint,704,313,4.61,44.4738,0.0000,0.0028,0.0028,0,0,0,0.0000,0.0000,0.0000,0.0000
v_birdwoman_1_3,viewpoint,939,633,4.39,55.5006,0.0000,0.0000,0.0000,0,0,0,0.0000,0.0000,0.0000,0.0000
v_birdwoman_1_4,viewpoint,1144,933,4.28,50.5579,0.0000,0.0000,0.0000,0,0,0,0.0000,0.0000,0.0000,0.0000
v_birdwoman_1_5,viewpoint,1470,1316,4.84,52.7528,0.0000,0.0000,0.0020,0,0,0,0.0000,0.0000,0.0000,0.0000
v_birdwoman_1_6,viewpoint,1111,913,4.09,51.6275,0.0000,0.0000,0.0000,0,0,0,0.0000,0.0000,0.0000,0.0000
v_blueprint_1_2,viewpoint,1449,1321,4.30,0.3931,0.9110,0.9565,0.9738,1,1,1,0.6069,0.8690,0.9214,0.9607
v_blueprint_1_3,viewpoint,1260,1089,4.15,0.6531,0.8627,0.9270,0.9516,1,1,1,0.3469,0.7823,0.8694,0.9347
v_blueprint_1_4,viewpoint,1388,1257,4.26,0.4485,0.9063,0.9524,0.9625,1,1,1,0.5515,0.8505,0.9103,0.9551
v_blueprint_1_5,viewpoint,1137,913,4.23,0.4592,0.7995,0.8584,0.8936,1,1,1,0.5408,0.8469,0.9082,0.9541
v_blueprint_1_6,viewpoint,837,540,3.92,1.2739,0.6428,0.7109,0.7395,1,1,1,0.0000,0.5754,0.7452,0.8726
v_boat_1_2,viewpoint,1491,1294,10.74,0.3324,0.8665,0.9188,0.9470,1,1,1,0.6676,0.8892,0.9335,0.9668
v_boat_1_3,viewpoint,627,118,5.49,1.9986,0.1946,0.2360,0.2919,1,1,1,0.0000,0.3338,0.6003,0.8001
v_boat_1_4,viewpoint,491,8,4.89,401.9209,0.0061,0.0061,0.0143,0,0,0,0.0000,0.0000,0.0000,0.0000
v_boat_1_5,viewpoint,521,11,4.99,358.6928,0.0000,0.0000,0.0000,0,0,0,0.0000,0.0000,0.0000,0.0000
v_boat_1_6,viewpoint,728,244,4.21,0.8835,0.3324,0.3997,0.4299,1,1,1,0.1165,0.7055,0.8233,0.9117
v_bricks_1_2,viewpoint,1648,1566,4.63,33.5315,0.0030,0.0133,0.0400,0,0,0,0.0000,0.0000,0.0000,0.0000
v_bricks_1_3,viewpoint,1607,1505,4.31,32.1347,0.0000,0.0087,0.0311,0,0,0,0.0000,0.0000,0.0000,0.0000
v_bricks_1_4,viewpoint,1415,1275,4.76,31.1518,0.0000,0.0007,0.0170,0,0,0,0.0000,0.0000,0.0000,0.0000
v_bricks_1_5,viewpoint,1224,1037,4.14,28.2246,0.0000,0.0025,0.0204,0,0,0,0.0000,0.0000,0.0000,0.0000
v_bricks_1_6,viewpoint,969,615,4.55,27.5702,0.0000,0.0010,0.0031,0,0,0,0.0000,0.0000,0.0000,0.0000
v_busstop_1_2,viewpoint,1418,1309,4.62,0.4092,0.9224,0.9520,0.9598,1,1,1,0.5908,0.8636,0.9182,0.9591
v_busstop_1_3,viewpoint,1258,1082,4.43,0.4261,0.8561,0.9070,0.9221,1,1,1,0.5739,0.8580,0.9148,0.9574
v_busstop_1_4,viewpoint,1299,1160,4.73,0.8442,0.8922,0.9222,0.9307,1,1,1,0.1558,0.7186,0.8312,0.9156
v_busstop_1_5,viewpoint,1310,1195,4.66,0.7169,0.9099,0.9351,0.9496,1,1,1,0.2831,0.7610,0.8566,0.9283
v_busstop_1_6,viewpoint,1446,1328,4.87,0.5749,0.9177,0.9488,0.9647,1,1,1,0.4251,0.8084,0.8850,0.9425
v_calder_1_2,viewpoint,1025,925,4.15,0.3905,0.9005,0.9444,0.9580,1,1,1,0.6095,0.8698,0.9219,0.9609
v_calder_1_3,viewpoint,1264,1184,4.56,0.3827,0.9367,0.9636,0.9731,1,1,1,0.6173,0.8724,0.9235,0.9617
v_calder_1_4,viewpoint,745,577,4.20,0.6975,0.7705,0.8322,0.8591,1,1,1,0.3025,0.7675,0.8605,0.9303
v_calder_1_5,viewpoint,766,501,4.38,0.9128,0.6488,0.7285,0.7598,1,1,1,0.0872,0.6957,0.8174,0.9087
v_calder_1_6,viewpoint,610,251,3.87,0.8864,0.4049,0.4541,0.4902,1,1,1,0.1136,0.7045,0.8227,0.9114
v_cartooncity_1_2,viewpoint,1607,1521,4.60,62.0622,0.0000,0.0000,0.0012,0,0,0,0.0000,0.0000,0.0000,0.0000
v_cartooncity_1_3,viewpoint,1135,844,4.67,66.3031,0.0018,0.0018,0.0018,0,0,0,0.0000,0.0000,0.0000,0.0000
v_cartooncity_1_4,viewpoint,1488,1341,4.41,74.2443,0.0000,0.0007,0.0020,0,0,0,0.0000,0.0000,0.0000,0.0000
v_cartooncity_1_5,viewpoint,1094,841,4.15,75.8725,0.0000,0.0000,0.0009,0,0,0,0.0000,0.0000,0.0000,0.0000
v_cartooncity_1_6,viewpoint,1103,773,4.33,70.3936,0.0000,0.0009,0.0009,0,0,0,0.0000,0.0000,0.0000,0.0000
v_charing_1_2,viewpoint,585,354,4.21,5.2177,0.5897,0.7026,0.7316,0,0,1,0.0000,0.0000,0.0000,0.4782
v_charing_1_3,viewpoint,486,228,3.83,25.8352,0.4527,0.6152,0.6749,0,0,0,0.0000,0.0000,0.0000,0.0000
v_charing_1_4,viewpoint,509,342,3.54,14.1312,0.6562,0.7446,0.7839,0,0,0,0.0000,0.0000,0.0000,0.0000
v_charing_1_5,viewpoint,503,325,3.90,45.2223,0.6262,0.7455,0.8091,0,0,0,0.0000,0.0000,0.0000,0.0000
v_charing_1_6,viewpoint,494,313,3.84,165.4837,0.6012,0.7308,0.7834,0,0,0,0.0000,0.0000,0.0000,0.0000
v_churchill_1_2,viewpoint,1039,926,4.55,0.3913,0.8903,0.9451,0.9711,1,1,1,0.6087,0.8696,0.9217,0.9609
v_churchill_1_3,viewpoint,982,797,4.48,0.8983,0.8096,0.9002,0.9338,1,1,1,0.1017,0.7006,0.8203,0.9102
v_churchill_1_4,viewpoint,970,839,4.03,0.5920,0.8567,0.9330,0.9505,1,1,1,0.4080,0.8027,0.8816,0.9408
v_churchill_1_5,viewpoint,1193,1133,4.31,0.3486,0.9505,0.9757,0.9874,1,1,1,0.6514,0.8838,0.9303,0.9651
v_churchill_1_6,viewpoint,784,596,4.08,1.2976,0.7589,0.8571,0.8903,1,1,1,0.0000,0.5675,0.7405,0.8702
v_circus_1_2,viewpoint,1303,1108,5.90,0.6103,0.8473,0.9317,0.9563,1,1,1,0.3897,0.7966,0.8779,0.9390
v_circus_1_3,viewpoint,1235,967,4.60,1.2813,0.7692,0.9093,0.9441,1,1,1,0.0000,0.5729,0.7437,0.8719
v_circus_1_4,viewpoint,921,623,4.33,0.8448,0.6721,0.8089,0.8708,1,1,1,0.1552,0.7184,0.8310,0.9155
v_circus_1_5,viewpoint,1299,1096,4.40,0.2901,0.8383,0.9361,0.9615,1,1,1,0.7099,0.9033,0.9420,0.9710
v_circus_1_6,viewpoint,1077,824,4.59,0.8961,0.7604,0.8728,0.9239,1,1,1,0.1039,0.7013,0.8208,0.9104
v_coffeehouse_1_2,viewpoint,971,876,4.06,0.6119,0.9001,0.9423,0.9537,1,1,1,0.3881,0.7960,0.8776,0.9388
v_coffeehouse_1_3,viewpoint,1010,913,3.88,0.5974,0.9069,0.9347,0.9485,1,1,1,0.4026,0.8009,0.8805,0.9403
v_coffeehouse_1_4,viewpoint,951,815,4.02,1.5521,0.8570,0.9054,0.9243,1,1,1,0.0000,0.4826,0.6896,0.8448
v_coffeehouse_1_5,viewpoint,923,829,3.92,0.3757,0.8982,0.9307,0.9415,1,1,1,0.6243,0.8748,0.9249,0.9624
v_coffeehouse_1_6,viewpoint,812,622,3.80,1.0636,0.7709,0.8300,0.8510,1,1,1,0.0000,0.6455,0.7873,0.8936
v_colors_1_2,viewpoint,314,195,3.77,1.2401,0.6115,0.7484,0.7898,1,1,1,0.0000,0.5866,0.7520,0.8760
v_colors_1_3,viewpoint,303,152,3.49,1.7685,0.4851,0.6007,0.6502,1,1,1,0.0000,0.4105,0.6463,0.8232
v_colors_1_4,viewpoint,228,63,4.01,5.8191,0.2632,0.3465,0.4342,0,0,1,0.0000,0.0000,0.0000,0.4181
v_colors_1_5,viewpoint,198,34,4.83,31.7488,0.1768,0.2172,0.2576,0,0,0,0.0000,0.0000,0.0000,0.0000
v_colors_1_6,viewpoint,157,17,3.58,17.7808,0.1338,0.1911,0.2166,0,0,0,0.0000,0.0000,0.0000,0.0000
v_courses_1_2,viewpoint,1157,1095,4.12,0.6816,0.9455,0.9775,0.9836,1,1,1,0.3184,0.7728,0.8637,0.9318
v_courses_1_3,viewpoint,1018,878,4.14,1.2134,0.8703,0.9509,0.9715,1,1,1,0.0000,0.5955,0.7573,0.8787
v_courses_1_4,viewpoint,971,892,4.04,0.9111,0.9104,0.9722,0.9835,1,1,1,0.0889,0.6963,0.8178,0.9089
v_courses_1_5,viewpoint,844,696,4.15,2.0875,0.8045,0.9182,0.9431,1,1,1,0.0000,0.3042,0.5825,0.7913
v_courses_1_6,viewpoint,748,569,3.99,3.1187,0.7393,0.8583,0.8904,0,1,1,0.0000,0.0000,0.3763,0.6881
v_dirtywall_1_2,viewpoint,1455,1327,10.36,0.3857,0.9148,0.9471,0.9622,1,1,1,0.6143,0.8714,0.9229,0.9614
v_dirtywall_1_3,viewpoint,1312,1167,4.15,0.3936,0.8902,0.9299,0.9482,1,1,1,0.6064,0.8688,0.9213,0.9606
v_dirtywall_1_4,viewpoint,1187,938,4.29,0.5574,0.7869,0.8475,0.8694,1,1,1,0.4426,0.8142,0.8885,0.9443
v_dirtywall_1_5,viewpoint,1259,1077,4.35,0.7849,0.8515,0.8999,0.9150,1,1,1,0.2151,0.7384,0.8430,0.9215
v_dirtywall_1_6,viewpoint,950,653,4.44,0.9308,0.6832,0.7526,0.7758,1,1,1,0.0692,0.6897,0.8138,0.9069
v_dogman_1_2,viewpoint,696,615,3.77,0.9594,0.8793,0.9368,0.9540,1,1,1,0.0406,0.6802,0.8081,0.9041
v_dogman_1_3,viewpoint,722,660,3.64,0.3451,0.9141,0.9474,0.9626,1,1,1,0.6549,0.8850,0.9310,0.9655
v_dogman_1_4,viewpoint,529,360,3.69,0.5963,0.6824,0.7826,0.8374,1,1,1,0.4037,0.8012,0.8807,0.9404
v_dogman_1_5,viewpoint,611,502,3.54,1.5921,0.8282,0.9018,0.9329,1,1,1,0.0000,0.4693,0.6816,0.8408
v_dogman_1_6,viewpoint,434,219,4.20,5.7806,0.5023,0.5922,0.6336,0,0,1,0.0000,0.0000,0.0000,0.4219
v_eastsouth_1_2,viewpoint,1517,1406,4.62,0.2144,0.9242,0.9591,0.9677,1,1,1,0.7856,0.9285,0.9571,0.9786
v_eastsouth_1_3,viewpoint,824,147,4.55,1.2429,0.1784,0.2294,0.2718,1,1,1,0.0000,0.5857,0.7514,0.8757
v_eastsouth_1_4,viewpoint,636,7,4.61,316.0358,0.0000,0.0000,0.0000,0,0,0,0.0000,0.0000,0.0000,0.0000
v_eastsouth_1_5,viewpoint,747,17,4.96,57.2650,0.0388,0.0562,0.0803,0,0,0,0.0000,0.0000,0.0000,0.0000
v_eastsouth_1_6,viewpoint,739,92,4.25,3.0961,0.1407,0.1773,0.2097,0,1,1,0.0000,0.0000,0.3808,0.6904
v_feast_1_2,viewpoint,1296,1137,4.54,0.3814,0.8765,0.9329,0.9491,1,1,1,0.6186,0.8729,0.9237,0.9619
v_feast_1_3,viewpoint,1386,1267,4.45,0.6500,0.9105,0.9509,0.9675,1,1,1,0.3500,0.7833,0.8700,0.9350
v_feast_1_4,viewpoint,1101,874,4.26,1.0573,0.7893,0.8483,0.8665,1,1,1,0.0000,0.6476,0.7885,0.8943
v_feast_1_5,viewpoint,1277,1135,4.53,0.4020,0.8880,0.9280,0.9397,1,1,1,0.5980,0.8660,0.9196,0.9598
v_feast_1_6,viewpoint,1095,897,4.46,0.6341,0.8110,0.8685,0.8877,1,1,1,0.3659,0.7886,0.8732,0.9366
v_fest_1_2,viewpoint,1438,1315,4.91,0.4294,0.9124,0.9520,0.9673,1,1,1,0.5706,0.8569,0.9141,0.9571
v_fest_1_3,viewpoint,1190,962,4.76,0.7544,0.8076,0.8697,0.8950,1,1,1,0.2456,0.7485,0.8491,0.9246
v_fest_1_4,viewpoint,1187,1050,4.34,0.6183,0.8880,0.9174,0.9326,1,1,1,0.3817,0.7939,0.8763,0.9382
v_fest_1_5,viewpoint,1175,968,4.60,1.2078,0.8187,0.8885,0.9106,1,1,1,0.0000,0.5974,0.7584,0.8792
v_fest_1_6,viewpoint,1032,734,4.32,2.6670,0.7074,0.7926,0.8256,1,1,1,0.0000,0.1110,0.4666,0.7333
v_gardens_1_2,viewpoint,1356,1171,4.59,1.0520,0.8606,0.9152,0.9425,1,1,1,0.0000,0.6493,0.7896,0.8948
v_gardens_1_3,viewpoint,844,493,4.09,4.8828,0.5794,0.6564,0.7002,0,1,1,0.0000,0.0000,0.0234,0.5117
v_gardens_1_4,viewpoint,1508,1386,4.61,0.7717,0.9164,0.9589,0.9735,1,1,1,0.2283,0.7428,0.8457,0.9228
v_gardens_1_5,viewpoint,1012,741,4.32,1.7059,0.7253,0.7964,0.8340,1,1,1,0.0000,0.4314,0.6588,0.8294
v_gardens_1_6,viewpoint,1276,969,4.40,0.9984,0.7547,0.8762,0.9154,1,1,1,0.0016,0.6672,0.8003,0.9002
v_grace_1_2,viewpoint,943,841,3.91,0.9422,0.8876,0.9618,0.9735,1,1,1,0.0578,0.6859,0.8116,0.9058
v_grace_1_3,viewpoint,851,757,3.87,0.5012,0.8884,0.9542,0.9718,1,1,1,0.4988,0.8329,0.8998,0.9499
v_grace_1_4,viewpoint,748,606,3.47,2.8590,0.8142,0.8917,0.9144,1,1,1,0.0000,0.0470,0.4282,0.7141
v_grace_1_5,viewpoint,565,366,3.50,1.0327,0.6442,0.7292,0.7735,1,1,1,0.0000,0.6558,0.7935,0.8967
v_grace_1_6,viewpoint,465,195,3.45,1.6811,0.4108,0.4817,0.5204,1,1,1,0.0000,0.4396,0.6638,0.8319
v_graffiti_1_2,viewpoint,1152,877,4.10,0.5594,0.7578,0.8559,0.9010,1,1,1,0.4406,0.8135,0.8881,0.9441
v_graffiti_1_3,viewpoint,1047,764,5.28,1.1179,0.7287,0.8252,0.8720,1,1,1,0.0000,0.6274,0.7764,0.8882
v_graffiti_1_4,viewpoint,744,128,4.25,2.1260,0.1694,0.2567,0.2944,1,1,1,0.0000,0.2913,0.5748,0.7874
v_graffiti_1_5,viewpoint,792,431,4.02,0.8610,0.5417,0.6225,0.6692,1,1,1,0.1390,0.7130,0.8278,0.9139
v_graffiti_1_6,viewpoint,583,36,4.86,5.1930,0.0600,0.0806,0.1132,0,0,1,0.0000,0.0000,0.0000,0.4807
v_home_1_2,viewpoint,871,744,3.78,0.7649,0.8462,0.8990,0.9242,1,1,1,0.2351,0.7450,0.8470,0.9235
v_home_1_3,viewpoint,797,603,3.83,1.3964,0.7440,0.8005,0.8231,1,1,1,0.0000,0.5345,0.7207,0.8604
v_home_1_4,viewpoint,824,702,3.76,0.9807,0.8519,0.8956,0.9090,1,1,1,0.0193,0.6731,0.8039,0.9019
v_home_1_5,viewpoint,759,523,4.20,4.3572,0.6667,0.7576,0.7879,0,1,1,0.0000,0.0000,0.1286,0.5643
v_home_1_6,viewpoint,524,86,3.89,2.1278,0.1660,0.2538,0.3340,1,1,1,0.0000,0.2907,0.5744,0.7872
v_laptop_1_2,viewpoint,984,939,3.68,0.2115,0.9553,0.9817,0.9878,1,1,1,0.7885,0.9295,0.9577,0.9788
v_laptop_1_3,viewpoint,573,299,3.69,1.8945,0.5201,0.6353,0.7086,1,1,1,0.0000,0.3685,0.6211,0.8105
v_laptop_1_4,viewpoint,427,23,3.72,37.1929,0.0515,0.0796,0.1311,0,0,0,0.0000,0.0000,0.0000,0.0000
v_laptop_1_5,viewpoint,394,10,3.77,388.6847,0.0000,0.0025,0.0051,0,0,0,0.0000,0.0000,0.0000,0.0000
v_laptop_1_6,viewpoint,397,11,3.82,1472.0555,0.0000,0.0025,0.0025,0,0,0,0.0000,0.0000,0.0000,0.0000
v_london_1_2,viewpoint,1551,1435,4.85,0.1574,0.9252,0.9587,0.9684,1,1,1,0.8426,0.9475,0.9685,0.9843
v_london_1_3,viewpoint,1380,1281,4.69,0.3566,0.9312,0.9572,0.9681,1,1,1,0.6434,0.8811,0.9287,0.9643
v_london_1_4,viewpoint,1410,1233,4.45,1.4008,0.8759,0.9241,0.9404,1,1,1,0.0000,0.5331,0.7198,0.8599
v_london_1_5,viewpoint,1538,1438,4.31,0.2421,0.9343,0.9707,0.9831,1,1,1,0.7579,0.9193,0.9516,0.9758
v_london_1_6,viewpoint,1632,1545,4.48,0.2545,0.9467,0.9737,0.9841,1,1,1,0.7455,0.9152,0.9491,0.9746
v_machines_1_2,viewpoint,1200,1100,4.12,0.7378,0.9133,0.9583,0.9708,1,1,1,0.2622,0.7541,0.8524,0.9262
v_machines_1_3,viewpoint,896,706,3.80,2.5665,0.7478,0.8895,0.9241,1,1,1,0.0000,0.1445,0.4867,0.7434
v_machines_1_4,viewpoint,1052,990,3.99,0.5980,0.9382,0.9715,0.9829,1,1,1,0.4020,0.8007,0.8804,0.9402
v_machines_1_5,viewpoint,803,655,3.93,1.1636,0.8032,0.8966,0.9365,1,1,1,0.0000,0.6121,0.7673,0.8836
v_machines_1_6,viewpoint,1011,953,3.87,0.2557,0.9397,0.9723,0.9862,1,1,1,0.7443,0.9148,0.9489,0.9744
v_man_1_2,viewpoint,1056,958,4.06,2.3302,0.8977,0.9555,0.9631,1,1,1,0.0000,0.2233,0.5340,0.7670
v_man_1_3,viewpoint,860,681,4.06,3.2235,0.7744,0.8721,0.8953,0,1,1,0.0000,0.0000,0.3553,0.6777
v_man_1_4,viewpoint,799,625,3.82,2.9245,0.7622,0.8536,0.8911,1,1,1,0.0000,0.0252,0.4151,0.7076
v_man_1_5,viewpoint,923,834,3.99,1.8694,0.8992,0.9480,0.9642,1,1,1,0.0000,0.3769,0.6261,0.8131
v_man_1_6,viewpoint,996,879,4.70,1.6278,0.8775,0.9337,0.9488,1,1,1,0.0000,0.4574,0.6744,0.8372
v_maskedman_1_2,viewpoint,753,589,3.90,0.8462,0.7835,0.8592,0.9057,1,1,1,0.1538,0.7179,0.8308,0.9154
v_maskedman_1_3,viewpoint,634,478,4.18,0.7440,0.7445,0.8170,0.8549,1,1,1,0.2560,0.7520,0.8512,0.9256
v_maskedman_1_4,viewpoint,815,712,4.69,1.5155,0.8687,0.9288,0.9423,1,1,1,0.0000,0.4948,0.6969,0.8485
v_maskedman_1_5,viewpoint,841,751,3.57,1.0725,0.8942,0.9322,0.9465,1,1,1,0.0000,0.6425,0.7855,0.8927
v_maskedman_1_6,viewpoint,483,175,3.92,6.6106,0.3499,0.4286,0.4513,0,0,1,0.0000,0.0000,0.0000,0.3389
v_pomegranate_1_2,viewpoint,1522,1364,5.10,0.4366,0.8955,0.9573,0.9816,1,1,1,0.5634,0.8545,0.9127,0.9563
v_pomegranate_1_3,viewpoint,1453,1211,5.89,1.1811,0.8211,0.9119,0.9525,1,1,1,0.0000,0.6063,0.7638,0.8819
v_pomegranate_1_4,viewpoint,1410,1224,4.47,0.3321,0.8652,0.9411,0.9645,1,1,1,0.6679,0.8893,0.9336,0.9668
v_pomegranate_1_5,viewpoint,1348,1204,4.41,0.8425,0.8932,0.9510,0.9763,1,1,1,0.1575,0.7192,0.8315,0.9157
v_pomegranate_1_6,viewpoint,1312,1170,4.39,0.2474,0.8895,0.9474,0.9726,1,1,1,0.7526,0.9175,0.9505,0.9753
v_posters_1_2,viewpoint,1012,774,10.30,114.9948,0.0000,0.0000,0.0000,0,0,0,0.0000,0.0000,0.0000,0.0000
v_posters_1_3,viewpoint,1219,1038,4.52,120.6467,0.0000,0.0000,0.0000,0,0,0,0.0000,0.0000,0.0000,0.0000
v_posters_1_4,viewpoint,1136,981,4.65,112.3315,0.0000,0.0000,0.0000,0,0,0,0.0000,0.0000,0.0000,0.0000
v_posters_1_5,viewpoint,984,719,4.43,124.6955,0.0000,0.0000,0.0000,0,0,0,0.0000,0.0000,0.0000,0.0000
v_posters_1_6,viewpoint,1018,669,4.63,146.9784,0.0000,0.0000,0.0010,0,0,0,0.0000,0.0000,0.0000,0.0000
v_samples_1_2,viewpoint,1417,1311,5.24,68.0207,0.0000,0.0000,0.0000,0,0,0,0.0000,0.0000,0.0000,0.0000
v_samples_1_3,viewpoint,1505,1409,4.97,72.6307,0.0000,0.0000,0.0000,0,0,0,0.0000,0.0000,0.0000,0.0000
v_samples_1_4,viewpoint,1298,1102,5.98,71.7882,0.0000,0.0000,0.0031,0,0,0,0.0000,0.0000,0.0000,0.0000
v_samples_1_5,viewpoint,1426,1312,5.38,80.7715,0.0000,0.0000,0.0000,0,0,0,0.0000,0.0000,0.0000,0.0000
v_samples_1_6,viewpoint,1229,1035,4.96,67.0290,0.0000,0.0000,0.0041,0,0,0,0.0000,0.0000,0.0000,0.0000
v_soldiers_1_2,viewpoint,1168,1073,4.43,0.3723,0.9144,0.9598,0.9675,1,1,1,0.6277,0.8759,0.9255,0.9628
v_soldiers_1_3,viewpoint,915,767,3.72,1.3521,0.8372,0.9224,0.9421,1,1,1,0.0000,0.5493,0.7296,0.8648
v_soldiers_1_4,viewpoint,748,553,3.72,1.2204,0.7420,0.8048,0.8329,1,1,1,0.0000,0.5932,0.7559,0.8780
v_soldiers_1_5,viewpoint,718,353,4.28,4.1382,0.4889,0.5501,0.5696,0,1,1,0.0000,0.0000,0.1724,0.5862
v_soldiers_1_6,viewpoint,1092,968,3.94,97.2719,0.0000,0.0000,0.0000,0,0,0,0.0000,0.0000,0.0000,0.0000
v_strand_1_2,viewpoint,1356,1275,4.13,0.3454,0.9351,0.9779,0.9904,1,1,1,0.6546,0.8849,0.9309,0.9655
v_strand_1_3,viewpoint,1034,894,5.23,1.3051,0.8578,0.9362,0.9632,1,1,1,0.0000,0.5650,0.7390,0.8695
v_strand_1_4,viewpoint,991,870,4.06,2.8162,0.8587,0.9455,0.9677,1,1,1,0.0000,0.0613,0.4368,0.7184
v_strand_1_5,viewpoint,1046,923,3.88,2.6988,0.8604,0.9484,0.9627,1,1,1,0.0000,0.1004,0.4602,0.7301
v_strand_1_6,viewpoint,870,729,3.92,4.6480,0.7747,0.9115,0.9483,0,1,1,0.0000,0.0000,0.0704,0.5352
v_sunseason_1_2,viewpoint,1694,1564,5.20,0.2125,0.9244,0.9510,0.9622,1,1,1,0.7875,0.9292,0.9575,0.9788
v_sunseason_1_3,viewpoint,1522,1384,5.44,0.3009,0.9087,0.9336,0.9435,1,1,1,0.6991,0.8997,0.9398,0.9699
v_sunseason_1_4,viewpoint,1105,823,4.22,0.9154,0.7439,0.7738,0.7819,1,1,1,0.0846,0.6949,0.8169,0.9085
v_sunseason_1_5,viewpoint,992,684,4.20,1.2672,0.6895,0.7369,0.7429,1,1,1,0.0000,0.5776,0.7466,0.8733
v_sunseason_1_6,viewpoint,852,487,4.11,0.9922,0.5692,0.6162,0.6362,1,1,1,0.0078,0.6693,0.8016,0.9008
v_tabletop_1_2,viewpoint,1302,1145,4.59,0.4435,0.8786,0.9240,0.9363,1,1,1,0.5565,0.8522,0.9113,0.9557
v_tabletop_1_3,viewpoint,994,507,4.55,1.6085,0.5060,0.5815,0.6036,1,1,1,0.0000,0.4638,0.6783,0.8391
v_tabletop_1_4,viewpoint,1006,718,4.34,1.4536,0.7127,0.7694,0.7982,1,1,1,0.0000,0.5155,0.7093,0.8546
v_tabletop_1_5,viewpoint,1038,775,4.20,0.8879,0.7399,0.8073,0.8304,1,1,1,0.1121,0.7040,0.8224,0.9112
v_tabletop_1_6,viewpoint,1047,805,4.11,1.1488,0.7650,0.8300,0.8481,1,1,1,0.0000,0.6171,0.7702,0.8851
v_tempera_1_2,viewpoint,683,632,3.52,0.3582,0.9283,0.9722,0.9868,1,1,1,0.6418,0.8806,0.9284,0.9642
v_tempera_1_3,viewpoint,670,600,3.56,0.6176,0.8940,0.9567,0.9731,1,1,1,0.3824,0.7941,0.8765,0.9382
v_tempera_1_4,viewpoint,676,623,3.43,0.4552,0.9142,0.9615,0.9778,1,1,1,0.5448,0.8483,0.9090,0.9545
v_tempera_1_5,viewpoint,653,565,3.52,0.7705,0.8606,0.9173,0.9449,1,1,1,0.2295,0.7432,0.8459,0.9230
v_tempera_1_6,viewpoint,382,251,3.19,1.5983,0.6518,0.7304,0.7775,1,1,1,0.0000,0.4672,0.6803,0.8402
v_there_1_2,viewpoint,521,434,4.20,1.2709,0.8330,0.9194,0.9616,1,1,1,0.0000,0.5764,0.7458,0.8729
v_there_1_3,viewpoint,343,156,4.28,2.2695,0.4373,0.5160,0.5452,1,1,1,0.0000,0.2435,0.5461,0.7730
v_there_1_4,viewpoint,325,11,4.74,480.4140,0.1108,0.1446,0.1600,0,0,0,0.0000,0.0000,0.0000,0.0000
v_there_1_5,viewpoint,304,7,5.07,264.4700,0.0197,0.0428,0.0461,0,0,0,0.0000,0.0000,0.0000,0.0000
v_there_1_6,viewpoint,300,9,3.88,262.5534,0.0067,0.0133,0.0200,0,0,0,0.0000,0.0000,0.0000,0.0000
v_underground_1_2,viewpoint,1545,1468,4.41,0.1557,0.9495,0.9722,0.9761,1,1,1,0.8443,0.9481,0.9689,0.9844
v_underground_1_3,viewpoint,1376,1250,4.40,0.4429,0.9084,0.9433,0.9528,1,1,1,0.5571,0.8524,0.9114,0.9557
v_underground_1_4,viewpoint,1082,913,4.35,0.9478,0.8420,0.8983,0.9187,1,1,1,0.0522,0.6841,0.8104,0.9052
v_underground_1_5,viewpoint,900,667,4.14,1.4685,0.7411,0.8156,0.8478,1,1,1,0.0000,0.5105,0.7063,0.8531
v_underground_1_6,viewpoint,677,401,4.02,4.7117,0.5864,0.7001,0.7445,0,1,1,0.0000,0.0000,0.0577,0.5288
v_vitro_1_2,viewpoint,1605,1521,4.46,0.1667,0.9495,0.9676,0.9713,1,1,1,0.8333,0.9444,0.9667,0.9833
v_vitro_1_3,viewpoint,1479,1369,4.49,0.4151,0.9263,0.9561,0.9621,1,1,1,0.5849,0.8616,0.9170,0.9585
v_vitro_1_4,viewpoint,1256,1101,7.73,0.3225,0.8766,0.9347,0.9411,1,1,1,0.6775,0.8925,0.9355,0.9678
v_vitro_1_5,viewpoint,1535,1430,4.30,0.2417,0.9303,0.9661,0.9733,1,1,1,0.7583,0.9194,0.9517,0.9758
v_vitro_1_6,viewpoint,1381,1231,4.22,0.3493,0.8907,0.9515,0.9602,1,1,1,0.6507,0.8836,0.9301,0.9651
v_wall_1_2,viewpoint,1114,1050,3.73,0.7674,0.9443,0.9749,0.9820,1,1,1,0.2326,0.7442,0.8465,0.9233
v_wall_1_3,viewpoint,988,864,4.69,1.3936,0.8715,0.9241,0.9443,1,1,1,0.0000,0.5355,0.7213,0.8606
v_wall_1_4,viewpoint,1176,1122,4.40,0.3241,0.9524,0.9719,0.9787,1,1,1,0.6759,0.8920,0.9352,0.9676
v_wall_1_5,viewpoint,1044,887,3.81,1.1318,0.8410,0.9061,0.9358,1,1,1,0.0000,0.6227,0.7736,0.8868
v_wall_1_6,viewpoint,878,710,4.50,4.7535,0.7882,0.8713,0.8907,0,1,1,0.0000,0.0000,0.0493,0.5246
v_wapping_1_2,viewpoint,1285,867,5.06,0.9621,0.6755,0.7875,0.8514,1,1,1,0.0379,0.6793,0.8076,0.9038
v_wapping_1_3,viewpoint,979,580,4.48,1.0225,0.5935,0.6803,0.7365,1,1,1,0.0000,0.6592,0.7955,0.8978
v_wapping_1_4,viewpoint,998,533,4.41,2.6741,0.5271,0.6623,0.7194,1,1,1,0.0000,0.1086,0.4652,0.7326
v_wapping_1_5,viewpoint,833,368,4.34,1.6563,0.4502,0.5150,0.5558,1,1,1,0.0000,0.4479,0.6687,0.8344
v_wapping_1_6,viewpoint,726,222,4.44,3.0165,0.2879,0.3361,0.3691,0,1,1,0.0000,0.0000,0.3967,0.6984
v_war_1_2,viewpoint,1174,950,4.53,1.4596,0.8049,0.8986,0.9302,1,1,1,0.0000,0.5135,0.7081,0.8540
v_war_1_3,viewpoint,923,672,4.31,1.5764,0.7281,0.8321,0.8613,1,1,1,0.0000,0.4745,0.6847,0.8424
v_war_1_4,viewpoint,1367,1291,4.10,0.3967,0.9400,0.9773,0.9876,1,1,1,0.6033,0.8678,0.9207,0.9603
v_war_1_5,viewpoint,1338,1232,4.21,0.5294,0.9193,0.9581,0.9694,1,1,1,0.4706,0.8235,0.8941,0.9471
v_war_1_6,viewpoint,901,679,4.19,1.8919,0.7181,0.8468,0.8801,1,1,1,0.0000,0.3694,0.6216,0.8108
v_weapons_1_2,viewpoint,1171,1116,4.51,0.6843,0.9513,0.9769,0.9829,1,1,1,0.3157,0.7719,0.8631,0.9316
v_weapons_1_3,viewpoint,1035,927,5.40,0.4435,0.8966,0.9546,0.9739,1,1,1,0.5565,0.8522,0.9113,0.9556
v_weapons_1_4,viewpoint,1123,999,5.43,0.6331,0.8869,0.9501,0.9599,1,1,1,0.3669,0.7890,0.8734,0.9367
v_weapons_1_5,viewpoint,1152,1068,4.77,0.7137,0.9245,0.9688,0.9818,1,1,1,0.2863,0.7621,0.8573,0.9286
v_weapons_1_6,viewpoint,1049,970,4.22,1.0194,0.9199,0.9647,0.9743,1,1,1,0.0000,0.6602,0.7961,0.8981
v_woman_1_2,viewpoint,680,517,3.76,46.3371,0.0000,0.0000,0.0000,0,0,0,0.0000,0.0000,0.0000,0.0000
v_woman_1_3,viewpoint,766,634,3.71,49.8301,0.0000,0.0000,0.0000,0,0,0,0.0000,0.0000,0.0000,0.0000
v_woman_1_4,viewpoint,697,506,3.73,50.4680,0.0000,0.0000,0.0000,0,0,0,0.0000,0.0000,0.0000,0.0000
v_woman_1_5,viewpoint,572,358,3.67,44.2159,0.0000,0.0000,0.0000,0,0,0,0.0000,0.0000,0.0000,0.0000
v_woman_1_6,viewpoint,653,427,3.76,48.0768,0.0000,0.0000,0.0000,0,0,0,0.0000,0.0000,0.0000,0.0000
v_wormhole_1_2,viewpoint,1106,968,3.94,0.5964,0.8725,0.9195,0.9349,1,1,1,0.4036,0.8012,0.8807,0.9404
v_wormhole_1_3,viewpoint,1177,1065,4.19,0.6153,0.9023,0.9499,0.9660,1,1,1,0.3847,0.7949,0.8769,0.9385
v_wormhole_1_4,viewpoint,1337,1243,4.25,0.5048,0.9289,0.9671,0.9820,1,1,1,0.4952,0.8317,0.8990,0.9495
v_wormhole_1_5,viewpoint,1062,826,4.09,7.9559,0.7712,0.8427,0.8710,0,0,0,0.0000,0.0000,0.0000,0.2044
v_wormhole_1_6,viewpoint,776,398,4.19,5.2130,0.5052,0.6289,0.6688,0,0,1,0.0000,0.0000,0.0000,0.4787
v_wounded_1_2,viewpoint,991,913,4.17,0.8003,0.9193,0.9596,0.9687,1,1,1,0.1997,0.7332,0.8399,0.9200
v_wounded_1_3,viewpoint,718,546,4.36,5.9036,0.7618,0.8315,0.8607,0,0,1,0.0000,0.0000,0.0000,0.4096
v_wounded_1_4,viewpoint,444,263,3.91,27.7732,0.5811,0.6824,0.7455,0,0,0,0.0000,0.0000,0.0000,0.0000
v_wounded_1_5,viewpoint,641,509,3.82,1.9809,0.7863,0.8690,0.9080,1,1,1,0.0000,0.3397,0.6038,0.8019
v_wounded_1_6,viewpoint,443,232,3.73,6.9453,0.5214,0.6298,0.6907,0,0,1,0.0000,0.0000,0.0000,0.3055
v_yard_1_2,viewpoint,1403,1292,4.36,0.2432,0.9209,0.9665,0.9743,1,1,1,0.7568,0.9189,0.9514,0.9757
v_yard_1_3,viewpoint,1006,690,4.29,1.1780,0.6571,0.7823,0.8131,1,1,1,0.0000,0.6073,0.7644,0.8822
v_yard_1_4,viewpoint,1265,1161,4.09,0.6782,0.9154,0.9534,0.9668,1,1,1,0.3218,0.7739,0.8644,0.9322
v_yard_1_5,viewpoint,1113,871,4.56,0.8508,0.7781,0.8607,0.8796,1,1,1,0.1492,0.7164,0.8298,0.9149
v_yard_1_6,viewpoint,968,528,4.71,3.2275,0.5372,0.6550,0.7035,0,1,1,0.0000,0.0000,0.3545,0.6773
v_yuri_1_2,viewpoint,682,617,3.50,0.5684,0.9062,0.9663,0.9839,1,1,1,0.4316,0.8105,0.8863,0.9432
v_yuri_1_3,viewpoint,585,476,3.64,1.1632,0.8188,0.9162,0.9436,1,1,1,0.0000,0.6123,0.7674,0.8837
v_yuri_1_4,viewpoint,496,329,3.68,33.1780,0.5927,0.7944,0.8468,0,0,0,0.0000,0.0000,0.0000,0.0000
v_yuri_1_5,viewpoint,600,510,3.50,1.9405,0.8450,0.9267,0.9550,1,1,1,0.0000,0.3532,0.6119,0.8059
v_yuri_1_6,viewpoint,513,377,3.96,9.5149,0.7115,0.8558,0.9162,0,0,0,0.0000,0.0000,0.0000,0.0485
