PairName,SeqType,NumMatches,Inliers,TimeMS,H_Error,MMA@3,MMA@5,MMA@7,MHA_Acc@3,MHA_Acc@5,MHA_Acc@7,AUC@1,AUC@3,AUC@5,AUC@10
i_ajuntament_1_2,illumination,1759,1759,254.32,0.2875,1.0000,1.0000,1.0000,1,1,1,0.7125,0.9042,0.9425,0.9712
i_ajuntament_1_3,illumination,1823,1814,11.11,0.7539,0.9874,0.9984,0.9984,1,1,1,0.2461,0.7487,0.8492,0.9246
i_ajuntament_1_4,illumination,1533,1470,10.60,0.8265,0.9419,0.9706,0.9791,1,1,1,0.1735,0.7245,0.8347,0.9173
i_ajuntament_1_5,illumination,1565,1492,10.41,1.0953,0.9297,0.9591,0.9700,1,1,1,0.0000,0.6349,0.7809,0.8905
i_ajuntament_1_6,illumination,1657,1611,9.90,0.7253,0.9499,0.9813,0.9867,1,1,1,0.2747,0.7582,0.8549,0.9275
i_autannes_1_2,illumination,1622,1621,17.05,0.1241,0.9994,0.9994,1.0000,1,1,1,0.8759,0.9586,0.9752,0.9876
i_autannes_1_3,illumination,1611,1609,9.70,0.0535,0.9981,1.0000,1.0000,1,1,1,0.9465,0.9822,0.9893,0.9947
i_autannes_1_4,illumination,1371,1339,9.36,0.8625,0.9752,0.9832,0.9891,1,1,1,0.1375,0.7125,0.8275,0.9138
i_autannes_1_5,illumination,1323,1262,8.71,0.5575,0.9554,0.9690,0.9751,1,1,1,0.4425,0.8142,0.8885,0.9442
i_autannes_1_6,illumination,1529,1485,9.06,0.2256,0.9712,0.9778,0.9797,1,1,1,0.7744,0.9248,0.9549,0.9774
i_bologna_1_2,illumination,1023,1023,8.49,0.2557,1.0000,1.0000,1.0000,1,1,1,0.7443,0.9148,0.9489,0.9744
i_bologna_1_3,illumination,1017,1017,8.63,0.1630,1.0000,1.0000,1.0000,1,1,1,0.8370,0.9457,0.9674,0.9837
i_bologna_1_4,illumination,1012,1012,8.59,0.1877,1.0000,1.0000,1.0000,1,1,1,0.8123,0.9374,0.9625,0.9812
i_bologna_1_5,illumination,1011,1009,8.62,0.2570,0.9980,1.0000,1.0000,1,1,1,0.7430,0.9143,0.9486,0.9743
i_bologna_1_6,illumination,1011,1009,8.61,0.2549,0.9980,0.9990,0.9990,1,1,1,0.7451,0.9150,0.9490,0.9745
i_books_1_2,illumination,1858,1854,10.28,0.0581,0.9973,0.9989,0.9989,1,1,1,0.9419,0.9806,0.9884,0.9942
i_books_1_3,illumination,1862,1856,10.42,0.0707,0.9968,0.9973,0.9973,1,1,1,0.9293,0.9764,0.9859,0.9929
i_books_1_4,illumination,1852,1850,10.41,0.1848,0.9989,0.9995,1.0000,1,1,1,0.8152,0.9384,0.9630,0.9815
i_books_1_5,illumination,1858,1857,9.70,0.0920,0.9995,0.9995,0.9995,1,1,1,0.9080,0.9693,0.9816,0.9908
i_books_1_6,illumination,1836,1832,9.55,0.2092,0.9978,0.9989,0.9995,1,1,1,0.7908,0.9303,0.9582,0.9791
i_boutique_1_2,illumination,1803,1803,9.43,0.2131,1.0000,1.0000,1.0000,1,1,1,0.7869,0.9290,0.9574,0.9787
i_boutique_1_3,illumination,1801,1801,9.39,0.1673,1.0000,1.0000,1.0000,1,1,1,0.8327,0.9442,0.9665,0.9833
i_boutique_1_4,illumination,1814,1814,9.54,0.2349,1.0000,1.0000,1.0000,1,1,1,0.7651,0.9217,0.9530,0.9765
i_boutique_1_5,illumination,1817,1814,9.60,0.2721,0.9978,0.9994,0.9994,1,1,1,0.7279,0.9093,0.9456,0.9728
i_boutique_1_6,illumination,1817,1814,9.62,0.4115,0.9983,0.9994,0.9994,1,1,1,0.5885,0.8628,0.9177,0.9589
i_bridger_1_2,illumination,1577,1575,16.17,0.3060,0.9994,1.0000,1.0000,1,1,1,0.6940,0.8980,0.9388,0.9694
i_bridger_1_3,illumination,1544,1526,7.94,0.2506,0.9870,0.9942,0.9974,1,1,1,0.7494,0.9165,0.9499,0.9749
i_bridger_1_4,illumination,1554,1553,7.54,0.1965,0.9987,0.9994,0.9994,1,1,1,0.8035,0.9345,0.9607,0.9803
i_bridger_1_5,illumination,1553,1544,7.13,0.2451,0.9942,0.9948,0.9974,1,1,1,0.7549,0.9183,0.9510,0.9755
i_bridger_1_6,illumination,1228,1174,6.93,0.2741,0.9544,0.9764,0.9853,1,1,1,0.7259,0.9086,0.9452,0.9726
i_brooklyn_1_2,illumination,1760,1712,8.45,0.2831,0.9739,0.9784,0.9847,1,1,1,0.7169,0.9056,0.9434,0.9717
i_brooklyn_1_3,illumination,1807,1780,8.40,1.1526,0.9790,0.9928,0.9961,1,1,1,0.0000,0.6158,0.7695,0.8847
i_brooklyn_1_4,illumination,1737,1713,8.43,0.9464,0.9873,0.9948,0.9960,1,1,1,0.0536,0.6845,0.8107,0.9054
i_brooklyn_1_5,illumination,1740,1693,8.39,1.3082,0.9782,0.9908,0.9931,1,1,1,0.0000,0.5639,0.7384,0.8692
i_brooklyn_1_6,illumination,1763,1708,8.36,1.1862,0.9665,0.9813,0.9887,1,1,1,0.0000,0.6046,0.7628,0.8814
i_castle_1_2,illumination,1421,1403,9.59,0.6498,0.9852,0.9909,0.9951,1,1,1,0.3502,0.7834,0.8700,0.9350
i_castle_1_3,illumination,1446,1439,10.10,0.4834,0.9952,0.9972,0.9972,1,1,1,0.5166,0.8389,0.9033,0.9517
i_castle_1_4,illumination,1420,1413,10.21,0.8762,0.9944,0.9965,0.9965,1,1,1,0.1238,0.7079,0.8248,0.9124
i_castle_1_5,illumination,1360,1339,9.83,0.6134,0.9846,0.9882,0.9949,1,1,1,0.3866,0.7955,0.8773,0.9387
i_castle_1_6,illumination,1350,1340,10.03,0.5249,0.9919,0.9941,0.9956,1,1,1,0.4751,0.8250,0.8950,0.9475
i_chestnuts_1_2,illumination,1869,1865,9.44,0.1517,0.9979,0.9995,0.9995,1,1,1,0.8483,0.9494,0.9697,0.9848
i_chestnuts_1_3,illumination,1884,1877,9.43,0.0897,0.9963,0.9973,0.9973,1,1,1,0.9103,0.9701,0.9821,0.9910
i_chestnuts_1_4,illumination,1868,1857,9.60,0.1642,0.9941,0.9989,0.9995,1,1,1,0.8358,0.9453,0.9672,0.9836
i_chestnuts_1_5,illumination,1837,1822,9.58,0.1523,0.9907,0.9951,0.9973,1,1,1,0.8477,0.9492,0.9695,0.9848
i_chestnuts_1_6,illumination,1865,1845,9.55,0.2048,0.9898,0.9936,0.9957,1,1,1,0.7952,0.9317,0.9590,0.9795
i_crownday_1_2,illumination,1818,1816,9.72,0.4080,0.9983,1.0000,1.0000,1,1,1,0.5920,0.8640,0.9184,0.9592
i_crownday_1_3,illumination,1834,1834,10.23,0.1577,1.0000,1.0000,1.0000,1,1,1,0.8423,0.9474,0.9685,0.9842
i_crownday_1_4,illumination,1833,1832,10.04,0.1962,0.9995,1.0000,1.0000,1,1,1,0.8038,0.9346,0.9608,0.9804
i_crownday_1_5,illumination,1846,1846,9.66,0.2323,1.0000,1.0000,1.0000,1,1,1,0.7677,0.9226,0.9535,0.9768
i_crownday_1_6,illumination,1806,1802,9.61,0.4689,0.9972,1.0000,1.0000,1,1,1,0.5311,0.8437,0.9062,0.9531
i_dome_1_2,illumination,1838,1838,9.62,0.0652,1.0000,1.0000,1.0000,1,1,1,0.9348,0.9783,0.9870,0.9935
i_dome_1_3,illumination,1405,1288,9.75,1.0648,0.9203,0.9246,0.9253,1,1,1,0.0000,0.6451,0.7870,0.8935
i_dome_1_4,illumination,1411,1300,10.41,0.5297,0.9235,0.9291,0.9313,1,1,1,0.4703,0.8234,0.8941,0.9470
i_dome_1_5,illumination,1467,1369,10.73,0.5176,0.9346,0.9393,0.9434,1,1,1,0.4824,0.8275,0.8965,0.9482
i_dome_1_6,illumination,1826,1770,10.93,0.4581,0.9688,0.9699,0.9699,1,1,1,0.5419,0.8473,0.9084,0.9542
i_duda_1_2,illumination,1303,1303,9.41,0.1485,1.0000,1.0000,1.0000,1,1,1,0.8515,0.9505,0.9703,0.9852
i_duda_1_3,illumination,1307,1307,9.34,0.2598,1.0000,1.0000,1.0000,1,1,1,0.7402,0.9134,0.9480,0.9740
i_duda_1_4,illumination,1305,1305,9.76,0.2328,1.0000,1.0000,1.0000,1,1,1,0.7672,0.9224,0.9534,0.9767
i_duda_1_5,illumination,1295,1293,9.64,0.3557,0.9985,0.9985,0.9992,1,1,1,0.6443,0.8814,0.9289,0.9644
i_duda_1_6,illumination,1250,1247,9.25,0.2865,0.9984,0.9984,0.9992,1,1,1,0.7135,0.9045,0.9427,0.9714
i_fenis_1_2,illumination,1781,1776,8.80,0.2394,0.9966,0.9983,0.9989,1,1,1,0.7606,0.9202,0.9521,0.9761
i_fenis_1_3,illumination,1757,1748,8.52,0.2378,0.9954,0.9983,0.9983,1,1,1,0.7622,0.9207,0.9524,0.9762
i_fenis_1_4,illumination,1470,1414,8.31,0.6176,0.9633,0.9776,0.9891,1,1,1,0.3824,0.7941,0.8765,0.9382
i_fenis_1_5,illumination,1392,1302,8.45,0.8975,0.9375,0.9562,0.9713,1,1,1,0.1025,0.7008,0.8205,0.9102
i_fenis_1_6,illumination,1469,1411,8.33,0.6748,0.9571,0.9721,0.9803,1,1,1,0.3252,0.7751,0.8650,0.9325
i_fog_1_2,illumination,1698,1698,15.61,0.1261,1.0000,1.0000,1.0000,1,1,1,0.8739,0.9580,0.9748,0.9874
i_fog_1_3,illumination,1724,1716,9.10,0.1850,0.9954,0.9965,0.9971,1,1,1,0.8150,0.9383,0.9630,0.9815
i_fog_1_4,illumination,1720,1717,8.23,0.1525,0.9983,1.0000,1.0000,1,1,1,0.8475,0.9492,0.9695,0.9848
i_fog_1_5,illumination,1425,1396,8.45,0.2672,0.9796,0.9846,0.9867,1,1,1,0.7328,0.9109,0.9466,0.9733
i_fog_1_6,illumination,1489,1454,8.81,0.3295,0.9765,0.9785,0.9859,1,1,1,0.6705,0.8902,0.9341,0.9670
i_fruits_1_2,illumination,1944,1944,18.97,0.3570,1.0000,1.0000,1.0000,1,1,1,0.6430,0.8810,0.9286,0.9643
i_fruits_1_3,illumination,1939,1938,12.98,0.3392,0.9995,1.0000,1.0000,1,1,1,0.6608,0.8869,0.9322,0.9661
i_fruits_1_4,illumination,1937,1935,12.79,0.4122,0.9990,0.9995,0.9995,1,1,1,0.5878,0.8626,0.9176,0.9588
i_fruits_1_5,illumination,1936,1931,13.89,0.4757,0.9974,0.9985,0.9985,1,1,1,0.5243,0.8414,0.9049,0.9524
i_fruits_1_6,illumination,1945,1944,14.16,0.3956,0.9995,0.9995,0.9995,1,1,1,0.6044,0.8681,0.9209,0.9604
i_gonnenberg_1_2,illumination,1247,1240,8.23,0.0887,0.9952,0.9952,0.9976,1,1,1,0.9113,0.9704,0.9823,0.9911
i_gonnenberg_1_3,illumination,1281,1263,8.41,0.1650,0.9844,0.9899,0.9945,1,1,1,0.8350,0.9450,0.9670,0.9835
i_gonnenberg_1_4,illumination,1239,1231,8.23,0.3357,0.9927,0.9952,0.9984,1,1,1,0.6643,0.8881,0.9329,0.9664
i_gonnenberg_1_5,illumination,1253,1244,8.27,0.2627,0.9928,0.9944,0.9968,1,1,1,0.7373,0.9124,0.9475,0.9737
i_gonnenberg_1_6,illumination,1254,1250,7.88,0.3496,0.9968,0.9968,1.0000,1,1,1,0.6504,0.8835,0.9301,0.9650
i_greenhouse_1_2,illumination,1810,1810,9.45,0.1267,1.0000,1.0000,1.0000,1,1,1,0.8733,0.9578,0.9747,0.9873
i_greenhouse_1_3,illumination,1805,1805,9.34,0.3107,1.0000,1.0000,1.0000,1,1,1,0.6893,0.8964,0.9379,0.9689
i_greenhouse_1_4,illumination,1811,1810,9.41,0.4223,1.0000,1.0000,1.0000,1,1,1,0.5777,0.8592,0.9155,0.9578
i_greenhouse_1_5,illumination,1817,1817,9.34,0.5650,1.0000,1.0000,1.0000,1,1,1,0.4350,0.8117,0.8870,0.9435
i_greenhouse_1_6,illumination,1779,1778,9.35,0.7338,0.9994,1.0000,1.0000,1,1,1,0.2662,0.7554,0.8532,0.9266
i_greentea_1_2,illumination,1839,1827,9.75,0.1732,0.9929,0.9940,0.9962,1,1,1,0.8268,0.9423,0.9654,0.9827
i_greentea_1_3,illumination,1862,1862,10.30,0.0591,1.0000,1.0000,1.0000,1,1,1,0.9409,0.9803,0.9882,0.9941
i_greentea_1_4,illumination,1857,1857,9.91,0.1172,1.0000,1.0000,1.0000,1,1,1,0.8828,0.9609,0.9766,0.9883
i_greentea_1_5,illumination,1851,1851,9.62,0.1311,1.0000,1.0000,1.0000,1,1,1,0.8689,0.9563,0.9738,0.9869
i_greentea_1_6,illumination,1863,1861,9.34,0.0805,0.9989,1.0000,1.0000,1,1,1,0.9195,0.9732,0.9839,0.9919
i_indiana_1_2,illumination,1573,1570,6.88,0.2085,0.9987,0.9994,0.9994,1,1,1,0.7915,0.9305,0.9583,0.9792
i_indiana_1_3,illumination,1557,1550,6.89,0.1978,0.9961,0.9961,0.9974,1,1,1,0.8022,0.9341,0.9604,0.9802
i_indiana_1_4,illumination,1543,1533,6.93,0.2872,0.9935,0.9948,0.9968,1,1,1,0.7128,0.9043,0.9426,0.9713
i_indiana_1_5,illumination,1526,1516,7.39,0.3124,0.9934,0.9941,0.9967,1,1,1,0.6876,0.8959,0.9375,0.9688
i_indiana_1_6,illumination,1528,1511,7.86,0.4055,0.9889,0.9915,0.9941,1,1,1,0.5945,0.8648,0.9189,0.9595
i_kions_1_2,illumination,1781,1771,9.39,1.0542,0.9826,0.9961,0.9961,1,1,1,0.0000,0.6486,0.7892,0.8946
i_kions_1_3,illumination,1719,1697,9.94,0.4936,0.9872,0.9930,0.9953,1,1,1,0.5064,0.8355,0.9013,0.9506
i_kions_1_4,illumination,1779,1752,8.32,0.6806,0.9888,0.9944,0.9944,1,1,1,0.3194,0.7731,0.8639,0.9319
i_kions_1_5,illumination,1767,1744,8.40,0.6042,0.9904,0.9938,0.9977,1,1,1,0.3958,0.7986,0.8792,0.9396
i_kions_1_6,illumination,1601,1564,8.30,0.2905,0.9744,0.9825,0.9856,1,1,1,0.7095,0.9032,0.9419,0.9710
i_ktirio_1_2,illumination,1842,1842,9.24,0.1459,1.0000,1.0000,1.0000,1,1,1,0.8541,0.9514,0.9708,0.9854
i_ktirio_1_3,illumination,1859,1857,10.60,0.3291,0.9995,1.0000,1.0000,1,1,1,0.6709,0.8903,0.9342,0.9671
i_ktirio_1_4,illumination,1808,1757,10.11,0.5960,0.9696,0.9773,0.9834,1,1,1,0.4040,0.8013,0.8808,0.9404
i_ktirio_1_5,illumination,1864,1859,10.56,0.4061,0.9984,1.0000,1.0000,1,1,1,0.5939,0.8646,0.9188,0.9594
i_ktirio_1_6,illumination,1853,1827,9.81,0.4479,0.9843,0.9930,0.9946,1,1,1,0.5521,0.8507,0.9104,0.9552
i_kurhaus_1_2,illumination,1786,1777,8.81,0.2229,0.9933,0.9972,0.9983,1,1,1,0.7771,0.9257,0.9554,0.9777
i_kurhaus_1_3,illumination,1770,1757,9.47,0.1979,0.9927,0.9977,0.9983,1,1,1,0.8021,0.9340,0.9604,0.9802
i_kurhaus_1_4,illumination,1728,1711,9.36,0.1539,0.9902,0.9942,0.9954,1,1,1,0.8461,0.9487,0.9692,0.9846
i_kurhaus_1_5,illumination,1668,1652,8.39,0.2054,0.9892,0.9940,0.9952,1,1,1,0.7946,0.9315,0.9589,0.9795
i_kurhaus_1_6,illumination,1639,1617,8.34,0.2491,0.9860,0.9915,0.9933,1,1,1,0.7509,0.9170,0.9502,0.9751
i_leuven_1_2,illumination,1736,1722,8.33,1.0762,0.9914,0.9942,0.9977,1,1,1,0.0000,0.6413,0.7848,0.8924
i_leuven_1_3,illumination,1840,1839,8.39,1.2154,0.9978,1.0000,1.0000,1,1,1,0.0000,0.5949,0.7569,0.8785
i_leuven_1_4,illumination,1826,1806,8.39,2.4705,0.9737,0.9940,1.0000,1,1,1,0.0000,0.1765,0.5059,0.7530
i_leuven_1_5,illumination,1788,1773,8.28,1.9309,0.9776,0.9994,1.0000,1,1,1,0.0000,0.3564,0.6138,0.8069
i_leuven_1_6,illumination,1756,1720,8.47,7.3902,0.6845,0.8628,0.9334,0,0,0,0.0000,0.0000,0.0000,0.2610
i_lionday_1_2,illumination,1620,1507,9.65,1.4220,0.9377,0.9611,0.9735,1,1,1,0.0000,0.5260,0.7156,0.8578
i_lionday_1_3,illumination,1494,1434,10.21,0.9858,0.9618,0.9665,0.9672,1,1,1,0.0142,0.6714,0.8028,0.9014
i_lionday_1_4,illumination,1054,849,10.12,2.1401,0.7514,0.8330,0.8691,1,1,1,0.0000,0.2866,0.5720,0.7860
i_lionday_1_5,illumination,1367,1205,9.94,1.5331,0.8493,0.8990,0.9159,1,1,1,0.0000,0.4890,0.6934,0.8467
i_lionday_1_6,illumination,1510,1445,9.45,1.7503,0.9556,0.9675,0.9715,1,1,1,0.0000,0.4166,0.6499,0.8250
i_lionnight_1_2,illumination,1825,1744,9.43,1.0138,0.9556,0.9578,0.9710,1,1,1,0.0000,0.6621,0.7972,0.8986
i_lionnight_1_3,illumination,1594,1568,9.32,1.3847,0.9843,0.9937,0.9950,1,1,1,0.0000,0.5384,0.7231,0.8615
i_lionnight_1_4,illumination,1838,1820,9.39,0.7424,0.9918,0.9935,0.9956,1,1,1,0.2576,0.7525,0.8515,0.9258
i_lionnight_1_5,illumination,1845,1793,9.36,0.9192,0.9729,0.9756,0.9805,1,1,1,0.0808,0.6936,0.8162,0.9081
i_lionnight_1_6,illumination,1829,1791,9.31,0.8487,0.9798,0.9841,0.9852,1,1,1,0.1513,0.7171,0.8303,0.9151
i_londonbridge_1_2,illumination,1476,1475,8.93,1.0398,1.0000,1.0000,1.0000,1,1,1,0.0000,0.6534,0.7920,0.8960
i_londonbridge_1_3,illumination,1449,1449,9.15,1.0233,1.0000,1.0000,1.0000,1,1,1,0.0000,0.6589,0.7953,0.8977
i_londonbridge_1_4,illumination,1363,1341,9.24,2.1514,0.9567,1.0000,1.0000,1,1,1,0.0000,0.2829,0.5697,0.7849
i_londonbridge_1_5,illumination,1130,935,8.83,2.4480,0.8000,0.8593,0.9389,1,1,1,0.0000,0.1840,0.5104,0.7552
i_londonbridge_1_6,illumination,1419,1413,8.29,0.6022,0.9958,0.9958,0.9965,1,1,1,0.3978,0.7993,0.8796,0.9398
i_melon_1_2,illumination,1809,1807,9.38,0.2622,0.9978,1.0000,1.0000,1,1,1,0.7378,0.9126,0.9476,0.9738
i_melon_1_3,illumination,1782,1751,9.39,0.2963,0.9815,0.9933,0.9949,1,1,1,0.7037,0.9012,0.9407,0.9704
i_melon_1_4,illumination,1427,1340,9.51,0.7585,0.9362,0.9488,0.9509,1,1,1,0.2415,0.7472,0.8483,0.9242
i_melon_1_5,illumination,1799,1773,9.38,0.2401,0.9855,0.9872,0.9928,1,1,1,0.7599,0.9200,0.9520,0.9760
i_melon_1_6,illumination,1810,1778,9.40,0.2531,0.9818,0.9912,0.9934,1,1,1,0.7469,0.9156,0.9494,0.9747
i_miniature_1_2,illumination,1854,1854,9.69,0.2474,1.0000,1.0000,1.0000,1,1,1,0.7526,0.9175,0.9505,0.9753
i_miniature_1_3,illumination,1847,1840,10.36,0.4438,0.9951,0.9962,0.9962,1,1,1,0.5562,0.8521,0.9112,0.9556
i_miniature_1_4,illumination,1850,1798,10.40,0.7050,0.9708,0.9773,0.9832,1,1,1,0.2950,0.7650,0.8590,0.9295
i_miniature_1_5,illumination,1684,1612,9.87,0.8016,0.9584,0.9703,0.9768,1,1,1,0.1984,0.7328,0.8397,0.9198
i_miniature_1_6,illumination,1835,1826,9.45,0.3910,0.9940,0.9973,0.9973,1,1,1,0.6090,0.8697,0.9218,0.9609
i_nescafe_1_2,illumination,1825,1814,9.41,0.3179,0.9940,0.9973,0.9978,1,1,1,0.6821,0.8940,0.9364,0.9682
i_nescafe_1_3,illumination,1840,1836,9.78,0.3279,0.9978,0.9989,0.9989,1,1,1,0.6721,0.8907,0.9344,0.9672
i_nescafe_1_4,illumination,1841,1836,10.02,0.2000,0.9967,1.0000,1.0000,1,1,1,0.8000,0.9333,0.9600,0.9800
i_nescafe_1_5,illumination,1838,1836,9.29,0.1766,0.9989,0.9995,1.0000,1,1,1,0.8234,0.9411,0.9647,0.9823
i_nescafe_1_6,illumination,1845,1829,9.42,0.2519,0.9924,0.9962,0.9962,1,1,1,0.7481,0.9160,0.9496,0.9748
i_nijmegen_1_2,illumination,1802,1799,10.07,0.9295,0.9928,0.9983,0.9994,1,1,1,0.0705,0.6902,0.8141,0.9070
i_nijmegen_1_3,illumination,1806,1806,10.40,0.6589,0.9967,1.0000,1.0000,1,1,1,0.3411,0.7804,0.8682,0.9341
i_nijmegen_1_4,illumination,1817,1806,10.16,0.4136,0.9928,0.9994,1.0000,1,1,1,0.5864,0.8621,0.9173,0.9586
i_nijmegen_1_5,illumination,1806,1801,9.67,0.6454,0.9895,0.9983,0.9994,1,1,1,0.3546,0.7849,0.8709,0.9355
i_nijmegen_1_6,illumination,1804,1798,9.47,0.6619,0.9928,0.9972,0.9994,1,1,1,0.3381,0.7794,0.8676,0.9338
i_nuts_1_2,illumination,1918,1849,12.73,0.5676,0.9614,0.9677,0.9734,1,1,1,0.4324,0.8108,0.8865,0.9432
i_nuts_1_3,illumination,1884,1729,12.47,0.7326,0.9204,0.9305,0.9559,1,1,1,0.2674,0.7558,0.8535,0.9267
i_nuts_1_4,illumination,1809,1612,13.82,0.4826,0.8894,0.9060,0.9193,1,1,1,0.5174,0.8391,0.9035,0.9517
i_nuts_1_5,illumination,1555,1310,13.69,0.8483,0.8540,0.8752,0.8990,1,1,1,0.1517,0.7172,0.8303,0.9152
i_nuts_1_6,illumination,1539,1280,12.54,1.4936,0.8408,0.8635,0.9051,1,1,1,0.0000,0.5021,0.7013,0.8506
i_objects_1_2,illumination,1834,1826,9.09,0.5161,0.9945,1.0000,1.0000,1,1,1,0.4839,0.8280,0.8968,0.9484
i_objects_1_3,illumination,1811,1795,9.28,0.8597,0.9845,0.9967,0.9983,1,1,1,0.1403,0.7134,0.8281,0.9140
i_objects_1_4,illumination,1819,1774,9.06,0.8999,0.9659,0.9879,0.9929,1,1,1,0.1001,0.7000,0.8200,0.9100
i_objects_1_5,illumination,1788,1740,8.94,0.7166,0.9704,0.9916,0.9933,1,1,1,0.2834,0.7611,0.8567,0.9283
i_objects_1_6,illumination,1842,1841,8.44,0.1971,0.9995,1.0000,1.0000,1,1,1,0.8029,0.9343,0.9606,0.9803
i_parking_1_2,illumination,1758,1757,8.42,0.2710,0.9994,1.0000,1.0000,1,1,1,0.7290,0.9097,0.9458,0.9729
i_parking_1_3,illumination,1762,1756,8.42,0.4457,0.9949,0.9994,0.9994,1,1,1,0.5543,0.8514,0.9109,0.9554
i_parking_1_4,illumination,1745,1692,8.40,1.0736,0.9616,0.9765,0.9840,1,1,1,0.0000,0.6421,0.7853,0.8926
i_parking_1_5,illumination,1698,1639,8.50,1.1769,0.9547,0.9753,0.9829,1,1,1,0.0000,0.6077,0.7646,0.8823
i_parking_1_6,illumination,1745,1717,8.41,0.7882,0.9799,0.9903,0.9931,1,1,1,0.2118,0.7373,0.8424,0.9212
i_partyfood_1_2,illumination,880,880,8.46,0.6087,1.0000,1.0000,1.0000,1,1,1,0.3913,0.7971,0.8783,0.9391
i_partyfood_1_3,illumination,884,884,8.89,0.8767,1.0000,1.0000,1.0000,1,1,1,0.1233,0.7078,0.8247,0.9123
i_partyfood_1_4,illumination,884,883,9.15,0.9558,0.9989,0.9989,0.9989,1,1,1,0.0442,0.6814,0.8088,0.9044
i_partyfood_1_5,illumination,867,866,8.66,0.9650,0.9988,0.9988,0.9988,1,1,1,0.0350,0.6783,0.8070,0.9035
i_partyfood_1_6,illumination,818,818,8.39,0.3943,1.0000,1.0000,1.0000,1,1,1,0.6057,0.8686,0.9211,0.9606
i_pinard_1_2,illumination,1830,1822,9.44,0.3786,0.9945,0.9973,0.9978,1,1,1,0.6214,0.8738,0.9243,0.9621
i_pinard_1_3,illumination,1824,1766,9.40,0.2887,0.9682,0.9753,0.9874,1,1,1,0.7113,0.9038,0.9423,0.9711
i_pinard_1_4,illumination,1821,1783,9.58,0.3070,0.9769,0.9797,0.9907,1,1,1,0.6930,0.8977,0.9386,0.9693
i_pinard_1_5,illumination,1831,1800,9.47,0.3500,0.9825,0.9853,0.9967,1,1,1,0.6500,0.8833,0.9300,0.9650
i_pinard_1_6,illumination,1846,1831,9.39,0.2714,0.9908,0.9962,0.9989,1,1,1,0.7286,0.9095,0.9457,0.9729
i_pool_1_2,illumination,1203,1166,8.18,0.4467,0.9717,0.9834,0.9867,1,1,1,0.5533,0.8511,0.9107,0.9553
i_pool_1_3,illumination,593,549,8.50,0.2368,0.9275,0.9393,0.9477,1,1,1,0.7632,0.9211,0.9526,0.9763
i_pool_1_4,illumination,618,580,8.57,0.4672,0.9369,0.9515,0.9579,1,1,1,0.5328,0.8443,0.9066,0.9533
i_pool_1_5,illumination,779,726,8.18,0.3895,0.9332,0.9512,0.9589,1,1,1,0.6105,0.8702,0.9221,0.9611
i_pool_1_6,illumination,657,637,7.78,0.4263,0.9696,0.9772,0.9802,1,1,1,0.5737,0.8579,0.9147,0.9574
i_porta_1_2,illumination,1764,1632,9.97,0.5513,0.9246,0.9439,0.9603,1,1,1,0.4487,0.8162,0.8897,0.9449
i_porta_1_3,illumination,1767,1686,10.65,0.3856,0.9474,0.9717,0.9802,1,1,1,0.6144,0.8715,0.9229,0.9614
i_porta_1_4,illumination,1796,1639,10.42,0.2140,0.9115,0.9443,0.9761,1,1,1,0.7860,0.9287,0.9572,0.9786
i_porta_1_5,illumination,1683,1528,10.69,0.6471,0.9008,0.9263,0.9430,1,1,1,0.3529,0.7843,0.8706,0.9353
i_porta_1_6,illumination,1127,938,10.61,0.6115,0.8421,0.8625,0.8917,1,1,1,0.3885,0.7962,0.8777,0.9388
i_resort_1_2,illumination,1848,1848,10.75,0.2375,1.0000,1.0000,1.0000,1,1,1,0.7625,0.9208,0.9525,0.9763
i_resort_1_3,illumination,1850,1850,10.73,0.1182,1.0000,1.0000,1.0000,1,1,1,0.8818,0.9606,0.9764,0.9882
i_resort_1_4,illumination,1848,1848,10.29,0.0798,1.0000,1.0000,1.0000,1,1,1,0.9202,0.9734,0.9840,0.9920
i_resort_1_5,illumination,1856,1856,9.54,0.2168,1.0000,1.0000,1.0000,1,1,1,0.7832,0.9277,0.9566,0.9783
i_resort_1_6,illumination,1858,1858,9.91,0.6945,1.0000,1.0000,1.0000,1,1,1,0.3055,0.7685,0.8611,0.9305
i_salon_1_2,illumination,1854,1854,10.08,0.1331,1.0000,1.0000,1.0000,1,1,1,0.8669,0.9556,0.9734,0.9867
i_salon_1_3,illumination,1818,1818,9.83,0.2007,1.0000,1.0000,1.0000,1,1,1,0.7993,0.9331,0.9599,0.9799
i_salon_1_4,illumination,1795,1795,9.37,0.2560,1.0000,1.0000,1.0000,1,1,1,0.7440,0.9147,0.9488,0.9744
i_salon_1_5,illumination,1830,1830,9.35,0.1657,1.0000,1.0000,1.0000,1,1,1,0.8343,0.9448,0.9669,0.9834
i_salon_1_6,illumination,1809,1809,9.50,0.2530,1.0000,1.0000,1.0000,1,1,1,0.7470,0.9157,0.9494,0.9747
i_santuario_1_2,illumination,1735,1729,8.42,1.0162,0.9925,0.9994,0.9994,1,1,1,0.0000,0.6613,0.7968,0.8984
i_santuario_1_3,illumination,1728,1719,8.85,1.2672,0.9913,0.9994,0.9994,1,1,1,0.0000,0.5776,0.7466,0.8733
i_santuario_1_4,illumination,1716,1693,8.79,1.4410,0.9767,0.9913,0.9930,1,1,1,0.0000,0.5197,0.7118,0.8559
i_santuario_1_5,illumination,1748,1736,8.37,0.5544,0.9931,0.9989,0.9989,1,1,1,0.4456,0.8152,0.8891,0.9446
i_santuario_1_6,illumination,1725,1713,7.86,0.8562,0.9878,0.9977,0.9988,1,1,1,0.1438,0.7146,0.8288,0.9144
i_school_1_2,illumination,1737,1736,9.36,0.0916,0.9994,1.0000,1.0000,1,1,1,0.9084,0.9695,0.9817,0.9908
i_school_1_3,illumination,1728,1725,9.31,0.1949,0.9977,1.0000,1.0000,1,1,1,0.8051,0.9350,0.9610,0.9805
i_school_1_4,illumination,1742,1706,9.34,0.4379,0.9799,0.9902,0.9937,1,1,1,0.5621,0.8540,0.9124,0.9562
i_school_1_5,illumination,1744,1731,9.33,0.5873,0.9908,0.9989,0.9989,1,1,1,0.4127,0.8042,0.8825,0.9413
i_school_1_6,illumination,1517,1420,9.34,0.9466,0.9354,0.9532,0.9624,1,1,1,0.0534,0.6845,0.8107,0.9053
i_ski_1_2,illumination,1634,1632,9.58,0.2686,0.9994,1.0000,1.0000,1,1,1,0.7314,0.9105,0.9463,0.9731
i_ski_1_3,illumination,1634,1634,9.99,0.3954,1.0000,1.0000,1.0000,1,1,1,0.6046,0.8682,0.9209,0.9605
i_ski_1_4,illumination,1625,1623,10.35,0.6063,0.9982,0.9994,1.0000,1,1,1,0.3937,0.7979,0.8787,0.9394
i_ski_1_5,illumination,1635,1629,10.21,0.5532,0.9963,0.9982,1.0000,1,1,1,0.4468,0.8156,0.8894,0.9447
i_ski_1_6,illumination,1617,1609,9.38,0.5404,0.9951,0.9957,0.9969,1,1,1,0.4596,0.8199,0.8919,0.9460
i_smurf_1_2,illumination,1760,1759,9.61,0.1496,0.9994,0.9994,0.9994,1,1,1,0.8504,0.9501,0.9701,0.9850
i_smurf_1_3,illumination,1762,1762,9.49,0.1373,1.0000,1.0000,1.0000,1,1,1,0.8627,0.9542,0.9725,0.9863
i_smurf_1_4,illumination,1753,1753,9.36,0.2274,1.0000,1.0000,1.0000,1,1,1,0.7726,0.9242,0.9545,0.9773
i_smurf_1_5,illumination,1751,1751,9.52,0.2616,1.0000,1.0000,1.0000,1,1,1,0.7384,0.9128,0.9477,0.9738
i_smurf_1_6,illumination,1744,1729,9.37,0.2220,0.9914,0.9931,0.9931,1,1,1,0.7780,0.9260,0.9556,0.9778
i_steps_1_2,illumination,1776,1776,8.42,0.3290,1.0000,1.0000,1.0000,1,1,1,0.6710,0.8903,0.9342,0.9671
i_steps_1_3,illumination,1749,1747,9.86,0.6140,0.9989,1.0000,1.0000,1,1,1,0.3860,0.7953,0.8772,0.9386
i_steps_1_4,illumination,1745,1745,9.52,0.5286,1.0000,1.0000,1.0000,1,1,1,0.4714,0.8238,0.8943,0.9471
i_steps_1_5,illumination,1706,1698,9.70,0.6547,0.9936,0.9959,0.9982,1,1,1,0.3453,0.7818,0.8691,0.9345
i_steps_1_6,illumination,1733,1733,9.73,0.6181,0.9994,1.0000,1.0000,1,1,1,0.3819,0.7940,0.8764,0.9382
i_table_1_2,illumination,1834,1826,8.47,0.5161,0.9945,1.0000,1.0000,1,1,1,0.4839,0.8280,0.8968,0.9484
i_table_1_3,illumination,1811,1795,9.81,0.8597,0.9845,0.9967,0.9983,1,1,1,0.1403,0.7134,0.8281,0.9140
i_table_1_4,illumination,1819,1774,9.77,0.8999,0.9659,0.9879,0.9929,1,1,1,0.1001,0.7000,0.8200,0.9100
i_table_1_5,illumination,1788,1740,9.92,0.7166,0.9704,0.9916,0.9933,1,1,1,0.2834,0.7611,0.8567,0.9283
i_table_1_6,illumination,1842,1841,9.56,0.1971,0.9995,1.0000,1.0000,1,1,1,0.8029,0.9343,0.9606,0.9803
i_tools_1_2,illumination,1206,828,9.60,2.3334,0.6783,0.7280,0.8250,1,1,1,0.0000,0.2222,0.5333,0.7667
i_tools_1_3,illumination,1573,1464,9.38,1.0229,0.9377,0.9612,0.9771,1,1,1,0.0000,0.6590,0.7954,0.8977
i_tools_1_4,illumination,1318,1072,9.76,2.1231,0.7868,0.8505,0.9052,1,1,1,0.0000,0.2923,0.5754,0.7877
i_tools_1_5,illumination,1397,1322,8.63,1.2606,0.9270,0.9542,0.9628,1,1,1,0.0000,0.5798,0.7479,0.8739
i_tools_1_6,illumination,1128,633,10.06,4.8092,0.3723,0.4530,0.7535,0,1,1,0.0000,0.0000,0.0382,0.5191
i_toy_1_2,illumination,1802,1802,14.93,0.1896,1.0000,1.0000,1.0000,1,1,1,0.8104,0.9368,0.9621,0.9810
i_toy_1_3,illumination,1787,1787,14.16,0.2706,1.0000,1.0000,1.0000,1,1,1,0.7294,0.9098,0.9459,0.9729
i_toy_1_4,illumination,1786,1785,15.20,0.3753,0.9989,0.9994,0.9994,1,1,1,0.6247,0.8749,0.9249,0.9625
i_toy_1_5,illumination,1765,1746,14.33,0.2539,0.9904,0.9960,0.9972,1,1,1,0.7461,0.9154,0.9492,0.9746
i_toy_1_6,illumination,1755,1463,12.89,0.8898,0.8382,0.8581,0.8997,1,1,1,0.1102,0.7034,0.8220,0.9110
i_troulos_1_2,illumination,1041,1040,8.84,0.6526,1.0000,1.0000,1.0000,1,1,1,0.3474,0.7825,0.8695,0.9347
i_troulos_1_3,illumination,895,868,8.82,2.5006,0.8022,0.9654,0.9877,1,1,1,0.0000,0.1665,0.4999,0.7499
i_troulos_1_4,illumination,1029,1028,8.52,0.3209,0.9981,1.0000,1.0000,1,1,1,0.6791,0.8930,0.9358,0.9679
i_troulos_1_5,illumination,1018,1012,8.17,0.7021,0.9921,0.9971,0.9990,1,1,1,0.2979,0.7660,0.8596,0.9298
i_troulos_1_6,illumination,1010,1006,8.19,1.1659,0.9911,0.9960,0.9980,1,1,1,0.0000,0.6114,0.7668,0.8834
i_veggies_1_2,illumination,1857,1857,10.71,0.1078,1.0000,1.0000,1.0000,1,1,1,0.8922,0.9641,0.9784,0.9892
i_veggies_1_3,illumination,1850,1840,10.80,0.2045,0.9951,0.9995,0.9995,1,1,1,0.7955,0.9318,0.9591,0.9796
i_veggies_1_4,illumination,1872,1871,10.64,0.1847,0.9995,0.9995,0.9995,1,1,1,0.8153,0.9384,0.9631,0.9815
i_veggies_1_5,illumination,1877,1859,10.74,0.1992,0.9888,0.9931,0.9952,1,1,1,0.8008,0.9336,0.9602,0.9801
i_veggies_1_6,illumination,1838,1807,10.69,0.1871,0.9831,0.9891,0.9924,1,1,1,0.8129,0.9376,0.9626,0.9813
i_village_1_2,illumination,1897,1896,18.64,0.0835,0.9995,1.0000,1.0000,1,1,1,0.9165,0.9722,0.9833,0.9916
i_village_1_3,illumination,1914,1913,12.15,0.3064,0.9990,1.0000,1.0000,1,1,1,0.6936,0.8979,0.9387,0.9694
i_village_1_4,illumination,1887,1886,11.32,0.1815,0.9995,1.0000,1.0000,1,1,1,0.8185,0.9395,0.9637,0.9819
i_village_1_5,illumination,1892,1892,11.65,0.2864,1.0000,1.0000,1.0000,1,1,1,0.7136,0.9045,0.9427,0.9714
i_village_1_6,illumination,1893,1893,11.37,0.4065,0.9995,1.0000,1.0000,1,1,1,0.5935,0.8645,0.9187,0.9593
i_yellowtent_1_2,illumination,1786,1786,9.47,0.1576,1.0000,1.0000,1.0000,1,1,1,0.8424,0.9475,0.9685,0.9842
i_yellowtent_1_3,illumination,1795,1795,9.68,0.2972,1.0000,1.0000,1.0000,1,1,1,0.7028,0.9009,0.9406,0.9703
i_yellowtent_1_4,illumination,1793,1785,9.53,0.4291,0.9950,0.9961,0.9967,1,1,1,0.5709,0.8570,0.9142,0.9571
i_yellowtent_1_5,illumination,1796,1791,9.56,0.1788,0.9972,0.9972,0.9972,1,1,1,0.8212,0.9404,0.9642,0.9821
i_yellowtent_1_6,illumination,1780,1778,9.57,0.2963,0.9978,0.9994,0.9994,1,1,1,0.7037,0.9012,0.9407,0.9704
i_zion_1_2,illumination,1840,1840,9.39,0.2991,1.0000,1.0000,1.0000,1,1,1,0.7009,0.9003,0.9402,0.9701
i_zion_1_3,illumination,1825,1825,10.40,0.6425,1.0000,1.0000,1.0000,1,1,1,0.3575,0.7858,0.8715,0.9357
i_zion_1_4,illumination,1769,1755,10.45,0.6346,0.9915,0.9932,0.9932,1,1,1,0.3654,0.7885,0.8731,0.9365
i_zion_1_5,illumination,1726,1703,9.94,0.5392,0.9861,0.9884,0.9896,1,1,1,0.4608,0.8203,0.8922,0.9461
i_zion_1_6,illumination,1801,1780,9.46,0.6272,0.9889,0.9900,0.9906,1,1,1,0.3728,0.7909,0.8746,0.9373
v_abstract_1_2,viewpoint,1840,1840,9.47,0.1537,1.0000,1.0000,1.0000,1,1,1,0.8463,0.9488,0.9693,0.9846
v_abstract_1_3,viewpoint,1809,1805,9.48,0.4252,0.9978,0.9994,0.9994,1,1,1,0.5748,0.8583,0.9150,0.9575
v_abstract_1_4,viewpoint,1319,1308,9.33,0.9494,0.9917,0.9962,0.9970,1,1,1,0.0506,0.6835,0.8101,0.9051
v_abstract_1_5,viewpoint,1520,1519,9.30,0.4270,0.9993,1.0000,1.0000,1,1,1,0.5730,0.8577,0.9146,0.9573
v_abstract_1_6,viewpoint,1076,1049,9.32,0.6116,0.9703,0.9870,0.9870,1,1,1,0.3884,0.7961,0.8777,0.9388
v_adam_1_2,viewpoint,1625,1624,9.67,0.4870,0.9994,0.9994,0.9994,1,1,1,0.5130,0.8377,0.9026,0.9513
v_adam_1_3,viewpoint,1478,1474,10.19,0.8327,0.9973,0.9980,0.9980,1,1,1,0.1673,0.7224,0.8335,0.9167
v_adam_1_4,viewpoint,927,909,10.39,0.8987,0.9763,0.9946,0.9968,1,1,1,0.1013,0.7004,0.8203,0.9101
v_adam_1_5,viewpoint,1248,1238,10.08,0.6825,0.9912,0.9968,0.9992,1,1,1,0.3175,0.7725,0.8635,0.9317
v_adam_1_6,viewpoint,1322,1311,9.19,1.3071,0.9947,0.9970,0.9970,1,1,1,0.0000,0.5643,0.7386,0.8693
v_apprentices_1_2,viewpoint,1863,1847,16.72,0.1065,0.9914,0.9962,0.9995,1,1,1,0.8935,0.9645,0.9787,0.9894
v_apprentices_1_3,viewpoint,1672,1657,9.43,0.6252,0.9922,0.9970,0.9988,1,1,1,0.3748,0.7916,0.8750,0.9375
v_apprentices_1_4,viewpoint,1393,1372,9.40,0.8279,0.9828,0.9943,0.9986,1,1,1,0.1721,0.7240,0.8344,0.9172
v_apprentices_1_5,viewpoint,1110,1080,9.31,1.4963,0.9685,0.9856,0.9919,1,1,1,0.0000,0.5012,0.7007,0.8504
v_apprentices_1_6,viewpoint,1045,1027,9.45,0.5141,0.9828,0.9933,0.9981,1,1,1,0.4859,0.8286,0.8972,0.9486
v_azzola_1_2,viewpoint,1703,1700,10.52,0.6154,0.9959,1.0000,1.0000,1,1,1,0.3846,0.7949,0.8769,0.9385
v_azzola_1_3,viewpoint,1477,1397,10.44,0.5728,0.9303,0.9980,1.0000,1,1,1,0.4272,0.8091,0.8854,0.9427
v_azzola_1_4,viewpoint,1769,1767,10.00,0.4366,0.9972,1.0000,1.0000,1,1,1,0.5634,0.8545,0.9127,0.9563
v_azzola_1_5,viewpoint,1247,1199,9.72,0.7834,0.9294,0.9920,0.9984,1,1,1,0.2166,0.7389,0.8433,0.9217
v_azzola_1_6,viewpoint,449,399,10.64,2.3345,0.8441,0.9666,0.9755,1,1,1,0.0000,0.2218,0.5331,0.7666
v_bark_1_2,viewpoint,1251,1249,9.12,0.5045,0.9984,1.0000,1.0000,1,1,1,0.4955,0.8318,0.8991,0.9495
v_bark_1_3,viewpoint,26,5,9.25,304.6702,0.0000,0.0000,0.0000,0,0,0,0.0000,0.0000,0.0000,0.0000
v_bark_1_4,viewpoint,30,5,9.26,168.6962,0.0000,0.0000,0.0000,0,0,0,0.0000,0.0000,0.0000,0.0000
v_bark_1_5,viewpoint,83,6,8.75,373.3619,0.0482,0.0482,0.0482,0,0,0,0.0000,0.0000,0.0000,0.0000
v_bark_1_6,viewpoint,30,5,8.59,240.7249,0.0000,0.0000,0.0000,0,0,0,0.0000,0.0000,0.0000,0.0000
v_bees_1_2,viewpoint,1826,1825,10.50,0.1554,0.9995,1.0000,1.0000,1,1,1,0.8446,0.9482,0.9689,0.9845
v_bees_1_3,viewpoint,1818,1818,10.57,0.6132,1.0000,1.0000,1.0000,1,1,1,0.3868,0.7956,0.8774,0.9387
v_bees_1_4,viewpoint,1834,1834,10.03,0.5949,1.0000,1.0000,1.0000,1,1,1,0.4051,0.8017,0.8810,0.9405
v_bees_1_5,viewpoint,1563,1543,9.68,1.1829,0.9757,0.9936,0.9955,1,1,1,0.0000,0.6057,0.7634,0.8817
v_bees_1_6,viewpoint,1444,1412,9.91,0.5278,0.9771,0.9952,0.9952,1,1,1,0.4722,0.8241,0.8944,0.9472
v_beyus_1_2,viewpoint,945,901,9.40,0.5234,0.9545,0.9746,0.9852,1,1,1,0.4766,0.8255,0.8953,0.9477
v_beyus_1_3,viewpoint,609,490,9.32,2.6793,0.8013,0.8916,0.9278,1,1,1,0.0000,0.1069,0.4641,0.7321
v_beyus_1_4,viewpoint,1214,1192,9.33,0.2145,0.9819,0.9901,0.9926,1,1,1,0.7855,0.9285,0.9571,0.9785
v_beyus_1_5,viewpoint,676,611,10.10,1.5404,0.8861,0.9497,0.9719,1,1,1,0.0000,0.4865,0.6919,0.8460
v_beyus_1_6,viewpoint,1015,944,9.26,1.0379,0.9251,0.9655,0.9773,1,1,1,0.0000,0.6540,0.7924,0.8962
v_bip_1_2,viewpoint,1283,1274,9.64,0.1175,0.9930,0.9930,0.9930,1,1,1,0.8825,0.9608,0.9765,0.9883
v_bip_1_3,viewpoint,1226,1212,10.19,0.2462,0.9886,0.9886,0.9886,1,1,1,0.7538,0.9179,0.9508,0.9754
v_bip_1_4,viewpoint,1210,1206,10.38,0.2789,0.9959,0.9967,0.9967,1,1,1,0.7211,0.9070,0.9442,0.9721
v_bip_1_5,viewpoint,476,464,9.87,0.9253,0.9265,0.9748,0.9790,1,1,1,0.0747,0.6916,0.8149,0.9075
v_bip_1_6,viewpoint,439,422,9.17,0.0722,0.9613,0.9613,0.9613,1,1,1,0.9278,0.9759,0.9856,0.9928
v_bird_1_2,viewpoint,1734,1717,18.23,76.7751,0.0000,0.0000,0.0000,0,0,0,0.0000,0.0000,0.0000,0.0000
v_bird_1_3,viewpoint,1388,1360,11.68,84.5328,0.0000,0.0000,0.0000,0,0,0,0.0000,0.0000,0.0000,0.0000
v_bird_1_4,viewpoint,1397,1332,13.23,99.1917,0.0000,0.0000,0.0000,0,0,0,0.0000,0.0000,0.0000,0.0000
v_bird_1_5,viewpoint,1145,987,12.44,85.0303,0.0000,0.0000,0.0000,0,0,0,0.0000,0.0000,0.0000,0.0000
v_bird_1_6,viewpoint,169,86,11.51,178.4363,0.0000,0.0000,0.0000,0,0,0,0.0000,0.0000,0.0000,0.0000
v_birdwoman_1_2,viewpoint,654,645,10.06,44.4782,0.0000,0.0000,0.0000,0,0,0,0.0000,0.0000,0.0000,0.0000
v_birdwoman_1_3,viewpoint,767,727,10.29,55.4440,0.0000,0.0000,0.0000,0,0,0,0.0000,0.0000,0.0000,0.0000
v_birdwoman_1_4,viewpoint,1228,1209,10.35,50.3299,0.0000,0.0000,0.0000,0,0,0,0.0000,0.0000,0.0000,0.0000
v_birdwoman_1_5,viewpoint,1770,1741,9.91,52.8590,0.0000,0.0000,0.0000,0,0,0,0.0000,0.0000,0.0000,0.0000
v_birdwoman_1_6,viewpoint,1234,1217,9.34,51.4081,0.0000,0.0000,0.0000,0,0,0,0.0000,0.0000,0.0000,0.0000
v_blueprint_1_2,viewpoint,1723,1723,9.71,0.2224,1.0000,1.0000,1.0000,1,1,1,0.7776,0.9259,0.9555,0.9778
v_blueprint_1_3,viewpoint,1428,1424,9.33,0.3665,0.9972,0.9986,0.9993,1,1,1,0.6335,0.8778,0.9267,0.9633
v_blueprint_1_4,viewpoint,1596,1596,9.50,0.3703,1.0000,1.0000,1.0000,1,1,1,0.6297,0.8766,0.9259,0.9630
v_blueprint_1_5,viewpoint,1255,1253,9.26,0.5202,0.9984,0.9984,0.9984,1,1,1,0.4798,0.8266,0.8960,0.9480
v_blueprint_1_6,viewpoint,950,933,9.15,0.8998,0.9811,0.9926,0.9958,1,1,1,0.1002,0.7001,0.8200,0.9100
v_boat_1_2,viewpoint,1867,1855,17.75,0.4033,0.9941,0.9984,1.0000,1,1,1,0.5967,0.8656,0.9193,0.9597
v_boat_1_3,viewpoint,1465,1427,10.49,0.3250,0.9713,0.9925,0.9980,1,1,1,0.6750,0.8917,0.9350,0.9675
v_boat_1_4,viewpoint,20,5,10.06,618.5214,0.0000,0.0000,0.0000,0,0,0,0.0000,0.0000,0.0000,0.0000
v_boat_1_5,viewpoint,67,7,10.49,238.6618,0.0000,0.0000,0.0000,0,0,0,0.0000,0.0000,0.0000,0.0000
v_boat_1_6,viewpoint,624,611,9.80,0.3082,0.9776,0.9856,0.9872,1,1,1,0.6918,0.8973,0.9384,0.9692
v_bricks_1_2,viewpoint,1829,1829,8.45,33.3788,0.0000,0.0066,0.0295,0,0,0,0.0000,0.0000,0.0000,0.0000
v_bricks_1_3,viewpoint,1773,1762,8.53,32.2083,0.0000,0.0045,0.0254,0,0,0,0.0000,0.0000,0.0000,0.0000
v_bricks_1_4,viewpoint,1497,1491,8.48,31.0910,0.0000,0.0000,0.0080,0,0,0,0.0000,0.0000,0.0000,0.0000
v_bricks_1_5,viewpoint,1272,1269,8.42,28.0250,0.0000,0.0016,0.0157,0,0,0,0.0000,0.0000,0.0000,0.0000
v_bricks_1_6,viewpoint,895,879,8.16,27.7579,0.0000,0.0011,0.0011,0,0,0,0.0000,0.0000,0.0000,0.0000
v_busstop_1_2,viewpoint,1756,1756,9.86,0.2281,1.0000,1.0000,1.0000,1,1,1,0.7719,0.9240,0.9544,0.9772
v_busstop_1_3,viewpoint,1404,1401,10.09,0.3464,0.9979,0.9979,0.9979,1,1,1,0.6536,0.8845,0.9307,0.9654
v_busstop_1_4,viewpoint,1520,1518,10.52,0.5811,0.9987,0.9987,0.9987,1,1,1,0.4189,0.8063,0.8838,0.9419
v_busstop_1_5,viewpoint,1521,1521,9.82,0.3911,1.0000,1.0000,1.0000,1,1,1,0.6089,0.8696,0.9218,0.9609
v_busstop_1_6,viewpoint,1786,1786,9.52,0.3402,1.0000,1.0000,1.0000,1,1,1,0.6598,0.8866,0.9320,0.9660
v_calder_1_2,viewpoint,1392,1378,9.62,0.4015,0.9899,0.9943,0.9950,1,1,1,0.5985,0.8662,0.9197,0.9598
v_calder_1_3,viewpoint,1610,1604,10.22,0.3012,0.9963,0.9981,0.9988,1,1,1,0.6988,0.8996,0.9398,0.9699
v_calder_1_4,viewpoint,939,919,10.42,0.3697,0.9787,0.9915,0.9947,1,1,1,0.6303,0.8768,0.9261,0.9630
v_calder_1_5,viewpoint,633,598,9.83,0.3933,0.9431,0.9605,0.9731,1,1,1,0.6067,0.8689,0.9213,0.9607
v_calder_1_6,viewpoint,164,110,9.77,3.2392,0.6463,0.7256,0.7561,0,1,1,0.0000,0.0000,0.3522,0.6761
v_cartooncity_1_2,viewpoint,1730,1730,9.17,62.2748,0.0000,0.0000,0.0000,0,0,0,0.0000,0.0000,0.0000,0.0000
v_cartooncity_1_3,viewpoint,909,853,8.67,67.1702,0.0000,0.0000,0.0000,0,0,0,0.0000,0.0000,0.0000,0.0000
v_cartooncity_1_4,viewpoint,1476,1471,9.41,74.5635,0.0000,0.0000,0.0020,0,0,0,0.0000,0.0000,0.0000,0.0000
v_cartooncity_1_5,viewpoint,909,865,8.77,76.1121,0.0000,0.0000,0.0000,0,0,0,0.0000,0.0000,0.0000,0.0000
v_cartooncity_1_6,viewpoint,816,760,8.44,71.0551,0.0000,0.0000,0.0000,0,0,0,0.0000,0.0000,0.0000,0.0000
v_charing_1_2,viewpoint,440,356,9.55,5.0631,0.7818,0.8795,0.9091,0,0,1,0.0000,0.0000,0.0000,0.4937
v_charing_1_3,viewpoint,294,218,11.00,81.0650,0.7041,0.8367,0.8912,0,0,0,0.0000,0.0000,0.0000,0.0000
v_charing_1_4,viewpoint,530,421,10.60,11.2236,0.7943,0.8321,0.8566,0,0,0,0.0000,0.0000,0.0000,0.0000
v_charing_1_5,viewpoint,524,401,10.72,175.0630,0.7595,0.8130,0.8340,0,0,0,0.0000,0.0000,0.0000,0.0000
v_charing_1_6,viewpoint,463,362,10.86,306.2947,0.7775,0.8747,0.9114,0,0,0,0.0000,0.0000,0.0000,0.0000
v_churchill_1_2,viewpoint,1196,1175,10.63,0.8715,0.9816,0.9941,0.9950,1,1,1,0.1285,0.7095,0.8257,0.9129
v_churchill_1_3,viewpoint,1007,926,10.53,2.4908,0.9196,0.9603,0.9752,1,1,1,0.0000,0.1697,0.5018,0.7509
v_churchill_1_4,viewpoint,1007,935,10.76,1.4712,0.9285,0.9682,0.9801,1,1,1,0.0000,0.5096,0.7058,0.8529
v_churchill_1_5,viewpoint,1529,1529,11.69,0.3560,1.0000,1.0000,1.0000,1,1,1,0.6440,0.8813,0.9288,0.9644
v_churchill_1_6,viewpoint,707,599,10.04,3.1262,0.8444,0.9165,0.9491,0,1,1,0.0000,0.0000,0.3748,0.6874
v_circus_1_2,viewpoint,193,154,9.23,1.1579,0.7824,0.8446,0.8756,1,1,1,0.0000,0.6140,0.7684,0.8842
v_circus_1_3,viewpoint,477,426,9.20,1.8249,0.8910,0.9434,0.9602,1,1,1,0.0000,0.3917,0.6350,0.8175
v_circus_1_4,viewpoint,370,323,9.46,1.5134,0.8649,0.9486,0.9649,1,1,1,0.0000,0.4955,0.6973,0.8487
v_circus_1_5,viewpoint,927,852,9.41,0.9336,0.9137,0.9590,0.9612,1,1,1,0.0664,0.6888,0.8133,0.9066
v_circus_1_6,viewpoint,761,696,9.21,0.9473,0.9054,0.9540,0.9671,1,1,1,0.0527,0.6842,0.8105,0.9053
v_coffeehouse_1_2,viewpoint,1442,1394,9.25,0.7703,0.9605,0.9820,0.9875,1,1,1,0.2297,0.7432,0.8459,0.9230
v_coffeehouse_1_3,viewpoint,1449,1410,9.16,0.2160,0.9731,0.9841,0.9869,1,1,1,0.7840,0.9280,0.9568,0.9784
v_coffeehouse_1_4,viewpoint,1186,1146,8.95,1.3354,0.9629,0.9815,0.9916,1,1,1,0.0000,0.5549,0.7329,0.8665
v_coffeehouse_1_5,viewpoint,1273,1240,9.18,0.7930,0.9678,0.9835,0.9898,1,1,1,0.2070,0.7357,0.8414,0.9207
v_coffeehouse_1_6,viewpoint,807,761,8.24,0.7219,0.9418,0.9703,0.9827,1,1,1,0.2781,0.7594,0.8556,0.9278
v_colors_1_2,viewpoint,1076,901,8.68,1.1497,0.8123,0.9480,0.9647,1,1,1,0.0000,0.6168,0.7701,0.8850
v_colors_1_3,viewpoint,795,649,8.40,1.7946,0.7899,0.9245,0.9497,1,1,1,0.0000,0.4018,0.6411,0.8205
v_colors_1_4,viewpoint,133,69,8.55,11.2900,0.5113,0.6090,0.6617,0,0,0,0.0000,0.0000,0.0000,0.0000
v_colors_1_5,viewpoint,61,17,9.16,22.4406,0.3115,0.3443,0.4098,0,0,0,0.0000,0.0000,0.0000,0.0000
v_colors_1_6,viewpoint,14,5,9.18,453.5953,0.1429,0.2857,0.2857,0,0,0,0.0000,0.0000,0.0000,0.0000
v_courses_1_2,viewpoint,1752,1728,10.05,0.5808,0.9846,0.9983,0.9989,1,1,1,0.4192,0.8064,0.8838,0.9419
v_courses_1_3,viewpoint,1322,1270,10.44,1.3834,0.9561,0.9856,0.9932,1,1,1,0.0000,0.5389,0.7233,0.8617
v_courses_1_4,viewpoint,1414,1389,10.54,0.7700,0.9837,0.9936,0.9950,1,1,1,0.2300,0.7433,0.8460,0.9230
v_courses_1_5,viewpoint,1034,988,10.32,2.5367,0.9139,0.9826,0.9884,1,1,1,0.0000,0.1544,0.4927,0.7463
v_courses_1_6,viewpoint,781,709,10.43,4.0045,0.8630,0.9757,0.9834,0,1,1,0.0000,0.0000,0.1991,0.5996
v_dirtywall_1_2,viewpoint,1569,1566,15.76,0.2912,0.9975,1.0000,1.0000,1,1,1,0.7088,0.9029,0.9418,0.9709
v_dirtywall_1_3,viewpoint,1508,1503,8.51,0.2582,0.9960,0.9993,1.0000,1,1,1,0.7418,0.9139,0.9484,0.9742
v_dirtywall_1_4,viewpoint,1248,1227,8.93,0.3526,0.9816,0.9928,0.9952,1,1,1,0.6474,0.8825,0.9295,0.9647
v_dirtywall_1_5,viewpoint,1357,1344,8.68,0.3875,0.9889,0.9948,0.9971,1,1,1,0.6125,0.8708,0.9225,0.9612
v_dirtywall_1_6,viewpoint,982,954,9.25,0.7723,0.9674,0.9847,0.9908,1,1,1,0.2277,0.7426,0.8455,0.9228
v_dogman_1_2,viewpoint,1447,1380,8.60,0.4514,0.9544,0.9648,0.9689,1,1,1,0.5486,0.8495,0.9097,0.9549
v_dogman_1_3,viewpoint,1647,1498,8.39,0.3064,0.9089,0.9192,0.9284,1,1,1,0.6936,0.8979,0.9387,0.9694
v_dogman_1_4,viewpoint,787,714,8.16,0.9014,0.9085,0.9479,0.9720,1,1,1,0.0986,0.6995,0.8197,0.9099
v_dogman_1_5,viewpoint,1239,1171,8.21,0.9772,0.9427,0.9596,0.9669,1,1,1,0.0228,0.6743,0.8046,0.9023
v_dogman_1_6,viewpoint,461,370,8.14,7.8684,0.7831,0.8915,0.9262,0,0,0,0.0000,0.0000,0.0000,0.2132
v_eastsouth_1_2,viewpoint,1878,1878,9.85,0.2578,1.0000,1.0000,1.0000,1,1,1,0.7422,0.9141,0.9484,0.9742
v_eastsouth_1_3,viewpoint,904,782,9.76,0.5638,0.8628,0.9447,0.9690,1,1,1,0.4362,0.8121,0.8872,0.9436
v_eastsouth_1_4,viewpoint,113,10,9.60,265.2574,0.0088,0.0088,0.0088,0,0,0,0.0000,0.0000,0.0000,0.0000
v_eastsouth_1_5,viewpoint,216,125,9.52,0.9909,0.5648,0.7037,0.7593,1,1,1,0.0091,0.6697,0.8018,0.9009
v_eastsouth_1_6,viewpoint,304,259,9.51,0.3108,0.8487,0.8980,0.9112,1,1,1,0.6892,0.8964,0.9378,0.9689
v_feast_1_2,viewpoint,1362,1361,9.90,0.1735,0.9993,0.9993,0.9993,1,1,1,0.8265,0.9422,0.9653,0.9827
v_feast_1_3,viewpoint,1698,1686,10.37,0.1772,0.9906,0.9988,0.9988,1,1,1,0.8228,0.9409,0.9646,0.9823
v_feast_1_4,viewpoint,1126,1112,9.77,0.5122,0.9778,0.9991,1.0000,1,1,1,0.4878,0.8293,0.8976,0.9488
v_feast_1_5,viewpoint,1571,1541,9.72,0.7877,0.9701,0.9917,0.9981,1,1,1,0.2123,0.7374,0.8425,0.9212
v_feast_1_6,viewpoint,1279,1253,10.23,0.5087,0.9765,0.9914,0.9961,1,1,1,0.4913,0.8304,0.8983,0.9491
v_fest_1_2,viewpoint,1647,1647,9.62,0.3792,1.0000,1.0000,1.0000,1,1,1,0.6208,0.8736,0.9242,0.9621
v_fest_1_3,viewpoint,1283,1275,9.25,1.0731,0.9938,0.9969,0.9984,1,1,1,0.0000,0.6423,0.7854,0.8927
v_fest_1_4,viewpoint,1249,1249,9.33,0.4181,0.9992,1.0000,1.0000,1,1,1,0.5819,0.8606,0.9164,0.9582
v_fest_1_5,viewpoint,1343,1330,9.26,0.9828,0.9918,0.9970,1.0000,1,1,1,0.0172,0.6724,0.8034,0.9017
v_fest_1_6,viewpoint,1050,1006,9.25,1.9463,0.9524,0.9914,0.9943,1,1,1,0.0000,0.3512,0.6107,0.8054
v_gardens_1_2,viewpoint,1465,1434,9.87,0.5092,0.9782,0.9911,0.9932,1,1,1,0.4908,0.8303,0.8982,0.9491
v_gardens_1_3,viewpoint,800,760,10.39,2.8286,0.9437,0.9800,0.9875,1,1,1,0.0000,0.0571,0.4343,0.7171
v_gardens_1_4,viewpoint,1707,1688,9.93,0.4925,0.9895,0.9947,0.9959,1,1,1,0.5075,0.8358,0.9015,0.9508
v_gardens_1_5,viewpoint,1018,972,9.55,1.0194,0.9528,0.9813,0.9912,1,1,1,0.0000,0.6602,0.7961,0.8981
v_gardens_1_6,viewpoint,1585,1578,9.43,0.2599,0.9956,0.9975,0.9975,1,1,1,0.7401,0.9134,0.9480,0.9740
v_grace_1_2,viewpoint,1613,1607,8.39,0.2209,0.9957,1.0000,1.0000,1,1,1,0.7791,0.9264,0.9558,0.9779
v_grace_1_3,viewpoint,1454,1430,8.68,0.2691,0.9835,0.9952,0.9959,1,1,1,0.7309,0.9103,0.9462,0.9731
v_grace_1_4,viewpoint,1286,1216,8.59,0.7801,0.9456,0.9728,0.9891,1,1,1,0.2199,0.7400,0.8440,0.9220
v_grace_1_5,viewpoint,795,709,8.17,0.3482,0.8881,0.9547,0.9799,1,1,1,0.6518,0.8839,0.9304,0.9652
v_grace_1_6,viewpoint,195,134,8.25,2.9306,0.6769,0.7436,0.8051,1,1,1,0.0000,0.0231,0.4139,0.7069
v_graffiti_1_2,viewpoint,1756,1714,10.28,0.4073,0.9761,0.9875,0.9909,1,1,1,0.5927,0.8642,0.9185,0.9593
v_graffiti_1_3,viewpoint,1531,1481,10.76,1.5204,0.9595,0.9863,0.9902,1,1,1,0.0000,0.4932,0.6959,0.8480
v_graffiti_1_4,viewpoint,131,31,11.82,5.2288,0.1679,0.3206,0.3893,0,0,1,0.0000,0.0000,0.0000,0.4771
v_graffiti_1_5,viewpoint,834,691,11.06,1.0386,0.8153,0.9257,0.9568,1,1,1,0.0000,0.6538,0.7923,0.8961
v_graffiti_1_6,viewpoint,197,127,11.54,4.1136,0.5888,0.7310,0.8122,0,1,1,0.0000,0.0000,0.1773,0.5886
v_home_1_2,viewpoint,1133,1123,11.15,0.5751,0.9894,0.9974,0.9974,1,1,1,0.4249,0.8083,0.8850,0.9425
v_home_1_3,viewpoint,932,903,10.52,1.1856,0.9689,0.9796,0.9882,1,1,1,0.0000,0.6048,0.7629,0.8814
v_home_1_4,viewpoint,1124,1111,11.90,0.6252,0.9884,0.9911,0.9929,1,1,1,0.3748,0.7916,0.8750,0.9375
v_home_1_5,viewpoint,780,752,10.53,4.1456,0.9436,0.9821,0.9872,0,1,1,0.0000,0.0000,0.1709,0.5854
v_home_1_6,viewpoint,1002,958,10.66,0.7325,0.9491,0.9900,0.9950,1,1,1,0.2675,0.7558,0.8535,0.9268
v_laptop_1_2,viewpoint,1578,1551,10.28,0.4480,0.9829,0.9956,0.9975,1,1,1,0.5520,0.8507,0.9104,0.9552
v_laptop_1_3,viewpoint,1036,1006,10.57,0.4716,0.9662,0.9884,0.9981,1,1,1,0.5284,0.8428,0.9057,0.9528
v_laptop_1_4,viewpoint,87,30,10.50,3.4396,0.3448,0.4943,0.5402,0,1,1,0.0000,0.0000,0.3121,0.6560
v_laptop_1_5,viewpoint,37,6,10.19,142.4074,0.0270,0.0270,0.0270,0,0,0,0.0000,0.0000,0.0000,0.0000
v_laptop_1_6,viewpoint,31,7,9.78,327.2698,0.0000,0.0000,0.0000,0,0,0,0.0000,0.0000,0.0000,0.0000
v_london_1_2,viewpoint,1522,1519,9.35,0.1610,0.9980,0.9980,0.9980,1,1,1,0.8390,0.9463,0.9678,0.9839
v_london_1_3,viewpoint,1384,1381,8.69,0.1711,0.9978,0.9978,0.9978,1,1,1,0.8289,0.9430,0.9658,0.9829
v_london_1_4,viewpoint,1359,1346,8.38,0.3973,0.9897,0.9963,0.9971,1,1,1,0.6027,0.8676,0.9205,0.9603
v_london_1_5,viewpoint,1555,1555,8.29,0.1161,1.0000,1.0000,1.0000,1,1,1,0.8839,0.9613,0.9768,0.9884
v_london_1_6,viewpoint,1712,1710,8.33,0.1489,0.9988,0.9994,0.9994,1,1,1,0.8511,0.9504,0.9702,0.9851
v_machines_1_2,viewpoint,1651,1608,10.13,0.4244,0.9746,0.9958,0.9964,1,1,1,0.5756,0.8585,0.9151,0.9576
v_machines_1_3,viewpoint,997,883,10.13,2.9646,0.8676,0.9609,0.9769,1,1,1,0.0000,0.0118,0.4071,0.7035
v_machines_1_4,viewpoint,1457,1452,9.84,0.5161,0.9966,1.0000,1.0000,1,1,1,0.4839,0.8280,0.8968,0.9484
v_machines_1_5,viewpoint,986,936,9.51,1.5297,0.9381,0.9868,0.9970,1,1,1,0.0000,0.4901,0.6941,0.8470
v_machines_1_6,viewpoint,1393,1385,9.12,0.1774,0.9943,0.9978,1.0000,1,1,1,0.8226,0.9409,0.9645,0.9823
v_man_1_2,viewpoint,1594,1540,9.30,1.4283,0.9630,0.9931,0.9962,1,1,1,0.0000,0.5239,0.7143,0.8572
v_man_1_3,viewpoint,1171,1105,9.27,4.3756,0.8898,0.9710,0.9898,0,1,1,0.0000,0.0000,0.1249,0.5624
v_man_1_4,viewpoint,978,873,9.32,1.4559,0.8773,0.9530,0.9796,1,1,1,0.0000,0.5147,0.7088,0.8544
v_man_1_5,viewpoint,1456,1390,9.52,2.5748,0.9313,0.9794,0.9897,1,1,1,0.0000,0.1417,0.4850,0.7425
v_man_1_6,viewpoint,1475,1403,9.54,2.1247,0.9505,0.9864,0.9946,1,1,1,0.0000,0.2918,0.5751,0.7875
v_maskedman_1_2,viewpoint,1383,1309,8.58,0.9299,0.9414,0.9754,0.9870,1,1,1,0.0701,0.6900,0.8140,0.9070
v_maskedman_1_3,viewpoint,1117,1036,8.75,1.1845,0.9150,0.9570,0.9776,1,1,1,0.0000,0.6052,0.7631,0.8816
v_maskedman_1_4,viewpoint,1317,1303,10.21,3.0485,0.9749,0.9947,0.9954,0,1,1,0.0000,0.0000,0.3903,0.6952
v_maskedman_1_5,viewpoint,1466,1446,9.54,2.0873,0.9775,0.9925,0.9959,1,1,1,0.0000,0.3042,0.5825,0.7913
v_maskedman_1_6,viewpoint,384,318,8.74,2.9867,0.8125,0.8802,0.9062,1,1,1,0.0000,0.0044,0.4027,0.7013
v_pomegranate_1_2,viewpoint,1829,1810,10.34,0.2659,0.9902,0.9973,1.0000,1,1,1,0.7341,0.9114,0.9468,0.9734
v_pomegranate_1_3,viewpoint,1802,1700,9.86,0.8990,0.9384,0.9728,0.9895,1,1,1,0.1010,0.7003,0.8202,0.9101
v_pomegranate_1_4,viewpoint,1582,1552,9.38,0.3144,0.9791,0.9930,0.9962,1,1,1,0.6856,0.8952,0.9371,0.9686
v_pomegranate_1_5,viewpoint,1783,1737,9.46,0.7522,0.9731,0.9893,0.9983,1,1,1,0.2478,0.7493,0.8496,0.9248
v_pomegranate_1_6,viewpoint,1766,1749,9.55,0.3311,0.9887,0.9949,0.9983,1,1,1,0.6689,0.8896,0.9338,0.9669
v_posters_1_2,viewpoint,1709,1706,13.43,115.2171,0.0000,0.0000,0.0000,0,0,0,0.0000,0.0000,0.0000,0.0000
v_posters_1_3,viewpoint,1875,1871,14.14,120.8205,0.0000,0.0000,0.0000,0,0,0,0.0000,0.0000,0.0000,0.0000
v_posters_1_4,viewpoint,1916,1915,12.60,112.4401,0.0000,0.0000,0.0000,0,0,0,0.0000,0.0000,0.0000,0.0000
v_posters_1_5,viewpoint,1517,1449,12.81,124.4675,0.0000,0.0000,0.0000,0,0,0,0.0000,0.0000,0.0000,0.0000
v_posters_1_6,viewpoint,1273,1121,12.80,147.6296,0.0000,0.0000,0.0000,0,0,0,0.0000,0.0000,0.0000,0.0000
v_samples_1_2,viewpoint,1941,1934,12.52,68.0357,0.0000,0.0000,0.0000,0,0,0,0.0000,0.0000,0.0000,0.0000
v_samples_1_3,viewpoint,1900,1890,12.60,72.5865,0.0000,0.0000,0.0000,0,0,0,0.0000,0.0000,0.0000,0.0000
v_samples_1_4,viewpoint,1936,1930,12.68,71.9260,0.0000,0.0005,0.0015,0,0,0,0.0000,0.0000,0.0000,0.0000
v_samples_1_5,viewpoint,1894,1890,13.05,80.7448,0.0000,0.0000,0.0000,0,0,0,0.0000,0.0000,0.0000,0.0000
v_samples_1_6,viewpoint,1931,1907,13.42,67.2021,0.0000,0.0000,0.0005,0,0,0,0.0000,0.0000,0.0000,0.0000
v_soldiers_1_2,viewpoint,1375,1351,10.46,0.7208,0.9825,0.9920,0.9964,1,1,1,0.2792,0.7597,0.8558,0.9279
v_soldiers_1_3,viewpoint,993,919,10.16,2.9382,0.9255,0.9527,0.9668,1,1,1,0.0000,0.0206,0.4124,0.7062
v_soldiers_1_4,viewpoint,717,647,9.64,2.4500,0.8982,0.9372,0.9568,1,1,1,0.0000,0.1833,0.5100,0.7550
v_soldiers_1_5,viewpoint,547,480,9.03,1.2833,0.8793,0.9269,0.9433,1,1,1,0.0000,0.5722,0.7433,0.8717
v_soldiers_1_6,viewpoint,1094,1022,9.32,96.4978,0.0000,0.0000,0.0000,0,0,0,0.0000,0.0000,0.0000,0.0000
v_strand_1_2,viewpoint,1831,1825,9.34,0.2194,0.9962,1.0000,1.0000,1,1,1,0.7806,0.9269,0.9561,0.9781
v_strand_1_3,viewpoint,1550,1464,9.31,1.0230,0.9174,0.9884,0.9981,1,1,1,0.0000,0.6590,0.7954,0.8977
v_strand_1_4,viewpoint,1546,1468,9.49,2.2941,0.9405,0.9780,0.9929,1,1,1,0.0000,0.2353,0.5412,0.7706
v_strand_1_5,viewpoint,1524,1465,9.18,2.5672,0.9449,0.9843,0.9921,1,1,1,0.0000,0.1443,0.4866,0.7433
v_strand_1_6,viewpoint,1277,1204,9.37,4.3808,0.8551,0.9679,0.9890,0,1,1,0.0000,0.0000,0.1238,0.5619
v_sunseason_1_2,viewpoint,1758,1733,8.40,0.1055,0.9858,0.9863,0.9863,1,1,1,0.8945,0.9648,0.9789,0.9895
v_sunseason_1_3,viewpoint,1720,1716,9.36,0.1678,0.9977,0.9977,0.9977,1,1,1,0.8322,0.9441,0.9664,0.9832
v_sunseason_1_4,viewpoint,1032,953,9.57,0.8807,0.9234,0.9322,0.9370,1,1,1,0.1193,0.7064,0.8239,0.9119
v_sunseason_1_5,viewpoint,826,713,8.29,1.4784,0.8559,0.8850,0.8910,1,1,1,0.0000,0.5072,0.7043,0.8522
v_sunseason_1_6,viewpoint,537,407,8.47,1.6514,0.7635,0.8082,0.8175,1,1,1,0.0000,0.4495,0.6697,0.8349
v_tabletop_1_2,viewpoint,1448,1438,9.58,0.4552,0.9924,0.9993,1.0000,1,1,1,0.5448,0.8483,0.9090,0.9545
v_tabletop_1_3,viewpoint,964,868,9.40,0.5719,0.8973,0.9378,0.9564,1,1,1,0.4281,0.8094,0.8856,0.9428
v_tabletop_1_4,viewpoint,1040,992,9.54,1.0120,0.9529,0.9731,0.9817,1,1,1,0.0000,0.6627,0.7976,0.8988
v_tabletop_1_5,viewpoint,1077,1031,9.23,0.6936,0.9545,0.9842,0.9870,1,1,1,0.3064,0.7688,0.8613,0.9306
v_tabletop_1_6,viewpoint,1105,1048,9.32,0.8225,0.9439,0.9747,0.9837,1,1,1,0.1775,0.7258,0.8355,0.9178
v_tempera_1_2,viewpoint,1531,1531,9.91,0.0823,1.0000,1.0000,1.0000,1,1,1,0.9177,0.9726,0.9835,0.9918
v_tempera_1_3,viewpoint,1592,1588,10.28,0.3657,0.9975,1.0000,1.0000,1,1,1,0.6343,0.8781,0.9269,0.9634
v_tempera_1_4,viewpoint,1311,1309,10.34,0.3362,0.9985,1.0000,1.0000,1,1,1,0.6638,0.8879,0.9328,0.9664
v_tempera_1_5,viewpoint,1235,1227,9.55,0.5960,0.9919,0.9984,0.9992,1,1,1,0.4040,0.8013,0.8808,0.9404
v_tempera_1_6,viewpoint,771,724,9.17,1.8700,0.9326,0.9689,0.9767,1,1,1,0.0000,0.3767,0.6260,0.8130
v_there_1_2,viewpoint,1610,1588,8.30,0.3922,0.9863,0.9975,0.9988,1,1,1,0.6078,0.8693,0.9216,0.9608
v_there_1_3,viewpoint,481,433,8.02,0.5039,0.9002,0.9459,0.9563,1,1,1,0.4961,0.8320,0.8992,0.9496
v_there_1_4,viewpoint,56,41,7.86,1.5881,0.7500,0.8750,0.8750,1,1,1,0.0000,0.4706,0.6824,0.8412
v_there_1_5,viewpoint,17,6,7.83,379.3894,0.0588,0.0588,0.0588,0,0,0,0.0000,0.0000,0.0000,0.0000
v_there_1_6,viewpoint,24,7,7.88,400.7788,0.0000,0.0000,0.0000,0,0,0,0.0000,0.0000,0.0000,0.0000
v_underground_1_2,viewpoint,1625,1622,8.84,0.0856,0.9982,0.9982,0.9982,1,1,1,0.9144,0.9715,0.9829,0.9914
v_underground_1_3,viewpoint,1352,1330,8.86,0.2207,0.9837,0.9852,0.9859,1,1,1,0.7793,0.9264,0.9559,0.9779
v_underground_1_4,viewpoint,1039,1002,8.96,0.6690,0.9644,0.9798,0.9846,1,1,1,0.3310,0.7770,0.8662,0.9331
v_underground_1_5,viewpoint,795,701,8.50,0.5549,0.8780,0.9245,0.9409,1,1,1,0.4451,0.8150,0.8890,0.9445
v_underground_1_6,viewpoint,455,346,8.04,2.1318,0.7560,0.8725,0.8967,1,1,1,0.0000,0.2894,0.5736,0.7868
v_vitro_1_2,viewpoint,1831,1804,9.23,0.1040,0.9853,0.9853,0.9853,1,1,1,0.8960,0.9653,0.9792,0.9896
v_vitro_1_3,viewpoint,1616,1587,9.54,0.1528,0.9821,0.9821,0.9821,1,1,1,0.8472,0.9491,0.9694,0.9847
v_vitro_1_4,viewpoint,1353,1280,9.21,0.4216,0.9416,0.9682,0.9690,1,1,1,0.5784,0.8595,0.9157,0.9578
v_vitro_1_5,viewpoint,1677,1667,9.25,0.3670,0.9928,0.9946,0.9952,1,1,1,0.6330,0.8777,0.9266,0.9633
v_vitro_1_6,viewpoint,1476,1431,9.39,0.5177,0.9614,0.9831,0.9844,1,1,1,0.4823,0.8274,0.8965,0.9482
v_wall_1_2,viewpoint,1778,1731,8.66,0.3636,0.9713,0.9798,0.9820,1,1,1,0.6364,0.8788,0.9273,0.9636
v_wall_1_3,viewpoint,1580,1534,8.81,0.5290,0.9690,0.9854,0.9924,1,1,1,0.4710,0.8237,0.8942,0.9471
v_wall_1_4,viewpoint,1758,1719,8.42,0.7090,0.9750,0.9801,0.9829,1,1,1,0.2910,0.7637,0.8582,0.9291
v_wall_1_5,viewpoint,1437,1398,8.53,1.1106,0.9673,0.9840,0.9861,1,1,1,0.0000,0.6298,0.7779,0.8889
v_wall_1_6,viewpoint,1318,1269,8.25,3.4492,0.9530,0.9772,0.9856,0,1,1,0.0000,0.0000,0.3102,0.6551
v_wapping_1_2,viewpoint,1833,1775,9.60,0.3510,0.9678,0.9858,0.9880,1,1,1,0.6490,0.8830,0.9298,0.9649
v_wapping_1_3,viewpoint,1007,826,9.33,1.5681,0.8173,0.9166,0.9513,1,1,1,0.0000,0.4773,0.6864,0.8432
v_wapping_1_4,viewpoint,1234,1100,9.21,1.3916,0.8849,0.9554,0.9757,1,1,1,0.0000,0.5361,0.7217,0.8608
v_wapping_1_5,viewpoint,639,527,9.16,2.2210,0.8169,0.9030,0.9264,1,1,1,0.0000,0.2597,0.5558,0.7779
v_wapping_1_6,viewpoint,278,198,8.92,4.8768,0.6906,0.8237,0.8741,0,1,1,0.0000,0.0000,0.0246,0.5123
v_war_1_2,viewpoint,1302,1266,9.87,0.6620,0.9770,0.9869,0.9962,1,1,1,0.3380,0.7793,0.8676,0.9338
v_war_1_3,viewpoint,875,811,10.08,1.0570,0.9154,0.9760,0.9897,1,1,1,0.0000,0.6477,0.7886,0.8943
v_war_1_4,viewpoint,1619,1598,10.03,0.4372,0.9870,0.9957,1.0000,1,1,1,0.5628,0.8543,0.9126,0.9563
v_war_1_5,viewpoint,1538,1514,9.77,0.9592,0.9837,0.9889,0.9967,1,1,1,0.0408,0.6803,0.8082,0.9041
v_war_1_6,viewpoint,964,916,9.65,2.6319,0.9108,0.9855,0.9938,1,1,1,0.0000,0.1227,0.4736,0.7368
v_weapons_1_2,viewpoint,1433,1416,9.23,0.5843,0.9888,0.9916,0.9916,1,1,1,0.4157,0.8052,0.8831,0.9416
v_weapons_1_3,viewpoint,1284,1261,9.24,0.5259,0.9821,0.9977,1.0000,1,1,1,0.4741,0.8247,0.8948,0.9474
v_weapons_1_4,viewpoint,1263,1259,9.16,0.3875,0.9968,0.9984,1.0000,1,1,1,0.6125,0.8708,0.9225,0.9612
v_weapons_1_5,viewpoint,1593,1591,9.28,0.9614,0.9975,1.0000,1.0000,1,1,1,0.0386,0.6795,0.8077,0.9039
v_weapons_1_6,viewpoint,1434,1425,9.19,1.0285,0.9916,0.9993,1.0000,1,1,1,0.0000,0.6572,0.7943,0.8971
v_woman_1_2,viewpoint,1073,1053,9.52,46.0366,0.0000,0.0000,0.0000,0,0,0,0.0000,0.0000,0.0000,0.0000
v_woman_1_3,viewpoint,1171,1133,10.29,49.6672,0.0000,0.0000,0.0000,0,0,0,0.0000,0.0000,0.0000,0.0000
v_woman_1_4,viewpoint,1014,932,10.43,50.1932,0.0000,0.0000,0.0000,0,0,0,0.0000,0.0000,0.0000,0.0000
v_woman_1_5,viewpoint,722,694,9.38,44.2414,0.0000,0.0000,0.0000,0,0,0,0.0000,0.0000,0.0000,0.0000
v_woman_1_6,viewpoint,762,678,9.28,49.5087,0.0000,0.0000,0.0000,0,0,0,0.0000,0.0000,0.0000,0.0000
v_wormhole_1_2,viewpoint,1395,1392,8.27,0.2707,0.9978,0.9986,1.0000,1,1,1,0.7293,0.9098,0.9459,0.9729
v_wormhole_1_3,viewpoint,1590,1586,8.26,0.4596,0.9975,1.0000,1.0000,1,1,1,0.5404,0.8468,0.9081,0.9540
v_wormhole_1_4,viewpoint,1637,1636,8.28,0.4687,0.9994,0.9994,1.0000,1,1,1,0.5313,0.8438,0.9063,0.9531
v_wormhole_1_5,viewpoint,1108,1020,8.19,6.7348,0.9170,0.9549,0.9675,0,0,1,0.0000,0.0000,0.0000,0.3265
v_wormhole_1_6,viewpoint,633,502,8.15,3.7531,0.7852,0.8863,0.9226,0,1,1,0.0000,0.0000,0.2494,0.6247
v_wounded_1_2,viewpoint,1309,1192,9.97,2.9925,0.8923,0.9290,0.9557,1,1,1,0.0000,0.0025,0.4015,0.7008
v_wounded_1_3,viewpoint,840,679,9.99,1.0149,0.7988,0.8440,0.8595,1,1,1,0.0000,0.6617,0.7970,0.8985
v_wounded_1_4,viewpoint,179,117,9.50,35.2216,0.6369,0.7486,0.8045,0,0,0,0.0000,0.0000,0.0000,0.0000
v_wounded_1_5,viewpoint,797,647,9.47,4.2399,0.8068,0.8733,0.9046,0,1,1,0.0000,0.0000,0.1520,0.5760
v_wounded_1_6,viewpoint,410,300,8.98,3.9859,0.7146,0.8366,0.8854,0,1,1,0.0000,0.0000,0.2028,0.6014
v_yard_1_2,viewpoint,1744,1736,9.36,0.3904,0.9954,0.9977,0.9989,1,1,1,0.6096,0.8699,0.9219,0.9610
v_yard_1_3,viewpoint,980,957,9.19,0.7690,0.9796,0.9878,0.9888,1,1,1,0.2310,0.7437,0.8462,0.9231
v_yard_1_4,viewpoint,1606,1604,9.23,0.2449,0.9988,1.0000,1.0000,1,1,1,0.7551,0.9184,0.9510,0.9755
v_yard_1_5,viewpoint,1356,1338,9.35,0.4096,0.9867,0.9985,0.9993,1,1,1,0.5904,0.8635,0.9181,0.9590
v_yard_1_6,viewpoint,788,665,9.68,1.6565,0.8350,0.9315,0.9543,1,1,1,0.0000,0.4478,0.6687,0.8343
v_yuri_1_2,viewpoint,1827,1764,10.02,1.0667,0.9464,0.9830,0.9907,1,1,1,0.0000,0.6444,0.7867,0.8933
v_yuri_1_3,viewpoint,894,738,9.97,4.2904,0.8277,0.8714,0.9016,0,1,1,0.0000,0.0000,0.1419,0.5710
v_yuri_1_4,viewpoint,589,451,9.87,48.8529,0.7334,0.8336,0.8744,0,0,0,0.0000,0.0000,0.0000,0.0000
v_yuri_1_5,viewpoint,1070,993,9.30,2.1443,0.9178,0.9589,0.9766,1,1,1,0.0000,0.2852,0.5711,0.7856
v_yuri_1_6,viewpoint,695,609,9.16,8.2145,0.8619,0.9194,0.9367,0,0,0,0.0000,0.0000,0.0000,0.1785
