PairName,SeqType,NumMatches,Inliers,TimeMS,H_Error,MMA@3,MMA@5,MMA@7,MHA_Acc@3,MHA_Acc@5,MHA_Acc@7,AUC@1,AUC@3,AUC@5,AUC@10
i_ajuntament_1_2,illumination,354,301,132.58,0.5768,0.8475,0.8616,0.8672,1,1,1,0.4232,0.8077,0.8846,0.9423
i_ajuntament_1_3,illumination,150,38,30.17,2.1314,0.2533,0.2667,0.2800,1,1,1,0.0000,0.2895,0.5737,0.7869
i_ajuntament_1_4,illumination,99,8,32.74,296.9566,0.0909,0.0909,0.1010,0,0,0,0.0000,0.0000,0.0000,0.0000
i_ajuntament_1_5,illumination,106,7,26.57,368.1896,0.0660,0.0755,0.0755,0,0,0,0.0000,0.0000,0.0000,0.0000
i_ajuntament_1_6,illumination,106,6,29.06,347.9654,0.0660,0.0660,0.0660,0,0,0,0.0000,0.0000,0.0000,0.0000
i_autannes_1_2,illumination,107,73,23.17,1.7618,0.6822,0.7103,0.7103,1,1,1,0.0000,0.4127,0.6476,0.8238
i_autannes_1_3,illumination,96,52,23.08,2.0583,0.5521,0.5625,0.5625,1,1,1,0.0000,0.3139,0.5883,0.7942
i_autannes_1_4,illumination,87,20,23.19,4.3023,0.2184,0.2644,0.2644,0,1,1,0.0000,0.0000,0.1395,0.5698
i_autannes_1_5,illumination,84,21,23.41,2.0883,0.2381,0.2738,0.2738,1,1,1,0.0000,0.3039,0.5823,0.7912
i_autannes_1_6,illumination,68,41,23.66,0.7798,0.6029,0.6176,0.6471,1,1,1,0.2202,0.7401,0.8440,0.9220
i_bologna_1_2,illumination,107,78,22.50,0.5008,0.7290,0.7383,0.7383,1,1,1,0.4992,0.8331,0.8998,0.9499
i_bologna_1_3,illumination,94,60,22.49,0.4642,0.6383,0.6383,0.6383,1,1,1,0.5358,0.8453,0.9072,0.9536
i_bologna_1_4,illumination,93,51,22.00,1.4964,0.5484,0.5591,0.5591,1,1,1,0.0000,0.5012,0.7007,0.8504
i_bologna_1_5,illumination,100,51,21.61,1.8840,0.5100,0.5200,0.5200,1,1,1,0.0000,0.3720,0.6232,0.8116
i_bologna_1_6,illumination,92,50,22.82,0.9596,0.5435,0.5435,0.5435,1,1,1,0.0404,0.6801,0.8081,0.9040
i_books_1_2,illumination,170,153,25.06,0.5177,0.9000,0.9059,0.9176,1,1,1,0.4823,0.8274,0.8965,0.9482
i_books_1_3,illumination,271,228,22.92,0.2511,0.8413,0.8524,0.8598,1,1,1,0.7489,0.9163,0.9498,0.9749
i_books_1_4,illumination,290,247,26.26,0.1159,0.8517,0.8552,0.8655,1,1,1,0.8841,0.9614,0.9768,0.9884
i_books_1_5,illumination,287,258,28.02,0.3576,0.8990,0.9059,0.9094,1,1,1,0.6424,0.8808,0.9285,0.9642
i_books_1_6,illumination,217,192,21.94,0.7427,0.8848,0.8848,0.8894,1,1,1,0.2573,0.7524,0.8515,0.9257
i_boutique_1_2,illumination,704,559,29.63,0.2691,0.7926,0.7983,0.8068,1,1,1,0.7309,0.9103,0.9462,0.9731
i_boutique_1_3,illumination,606,310,29.79,0.5564,0.5083,0.5198,0.5248,1,1,1,0.4436,0.8145,0.8887,0.9444
i_boutique_1_4,illumination,569,297,29.66,0.6481,0.5149,0.5378,0.5413,1,1,1,0.3519,0.7840,0.8704,0.9352
i_boutique_1_5,illumination,467,66,30.34,0.8882,0.1392,0.1413,0.1499,1,1,1,0.1118,0.7039,0.8224,0.9112
i_boutique_1_6,illumination,448,58,29.94,1.3935,0.1250,0.1295,0.1339,1,1,1,0.0000,0.5355,0.7213,0.8606
i_bridger_1_2,illumination,422,259,19.17,0.4617,0.5995,0.6256,0.6398,1,1,1,0.5383,0.8461,0.9077,0.9538
i_bridger_1_3,illumination,347,189,24.17,0.6134,0.5418,0.5706,0.5764,1,1,1,0.3866,0.7955,0.8773,0.9387
i_bridger_1_4,illumination,320,163,24.36,0.4132,0.5094,0.5344,0.5375,1,1,1,0.5868,0.8623,0.9174,0.9587
i_bridger_1_5,illumination,135,64,16.86,1.7063,0.4741,0.4815,0.4815,1,1,1,0.0000,0.4312,0.6587,0.8294
i_bridger_1_6,illumination,21,7,15.78,282.7691,0.2857,0.2857,0.2857,0,0,0,0.0000,0.0000,0.0000,0.0000
i_brooklyn_1_2,illumination,367,211,24.37,0.5510,0.5749,0.5940,0.6076,1,1,1,0.4490,0.8163,0.8898,0.9449
i_brooklyn_1_3,illumination,414,322,23.69,1.1455,0.7729,0.7995,0.8140,1,1,1,0.0000,0.6182,0.7709,0.8855
i_brooklyn_1_4,illumination,249,93,23.87,2.0277,0.3655,0.3896,0.4177,1,1,1,0.0000,0.3241,0.5945,0.7972
i_brooklyn_1_5,illumination,451,322,25.26,1.5107,0.7051,0.7384,0.7539,1,1,1,0.0000,0.4964,0.6979,0.8489
i_brooklyn_1_6,illumination,341,161,24.04,1.5525,0.4663,0.5044,0.5191,1,1,1,0.0000,0.4825,0.6895,0.8447
i_castle_1_2,illumination,366,54,24.61,2.2874,0.1421,0.1530,0.1667,1,1,1,0.0000,0.2375,0.5425,0.7713
i_castle_1_3,illumination,335,155,24.42,0.7266,0.4537,0.4687,0.4746,1,1,1,0.2734,0.7578,0.8547,0.9273
i_castle_1_4,illumination,232,93,24.29,1.4484,0.3966,0.4095,0.4138,1,1,1,0.0000,0.5172,0.7103,0.8552
i_castle_1_5,illumination,204,43,28.03,1.5701,0.2059,0.2353,0.2451,1,1,1,0.0000,0.4766,0.6860,0.8430
i_castle_1_6,illumination,286,56,27.97,1.7458,0.1993,0.2063,0.2133,1,1,1,0.0000,0.4181,0.6508,0.8254
i_chestnuts_1_2,illumination,544,418,28.61,0.1481,0.7684,0.7739,0.7812,1,1,1,0.8519,0.9506,0.9704,0.9852
i_chestnuts_1_3,illumination,540,423,31.79,0.2094,0.7852,0.7907,0.7981,1,1,1,0.7906,0.9302,0.9581,0.9791
i_chestnuts_1_4,illumination,527,416,28.35,0.1303,0.7894,0.7951,0.7970,1,1,1,0.8697,0.9566,0.9739,0.9870
i_chestnuts_1_5,illumination,466,340,27.04,0.3159,0.7296,0.7318,0.7361,1,1,1,0.6841,0.8947,0.9368,0.9684
i_chestnuts_1_6,illumination,349,198,25.54,0.0973,0.5673,0.5731,0.5788,1,1,1,0.9027,0.9676,0.9805,0.9903
i_crownday_1_2,illumination,172,56,25.46,1.6293,0.3140,0.3256,0.3372,1,1,1,0.0000,0.4569,0.6741,0.8371
i_crownday_1_3,illumination,210,93,25.50,1.1496,0.4429,0.4857,0.4952,1,1,1,0.0000,0.6168,0.7701,0.8850
i_crownday_1_4,illumination,222,133,25.51,0.5307,0.5991,0.6171,0.6351,1,1,1,0.4693,0.8231,0.8939,0.9469
i_crownday_1_5,illumination,267,230,24.95,0.2826,0.8614,0.8689,0.8727,1,1,1,0.7174,0.9058,0.9435,0.9717
i_crownday_1_6,illumination,182,51,24.98,1.5952,0.2747,0.2857,0.2967,1,1,1,0.0000,0.4683,0.6810,0.8405
i_dome_1_2,illumination,335,279,24.36,0.2415,0.8328,0.8328,0.8418,1,1,1,0.7585,0.9195,0.9517,0.9758
i_dome_1_3,illumination,221,49,24.95,3.3913,0.2262,0.2308,0.2353,0,1,1,0.0000,0.0000,0.3217,0.6609
i_dome_1_4,illumination,237,47,24.93,4.2987,0.2025,0.2068,0.2110,0,1,1,0.0000,0.0000,0.1403,0.5701
i_dome_1_5,illumination,226,48,25.24,0.4721,0.2124,0.2212,0.2301,1,1,1,0.5279,0.8426,0.9056,0.9528
i_dome_1_6,illumination,250,117,24.89,0.4009,0.4680,0.4840,0.4840,1,1,1,0.5991,0.8664,0.9198,0.9599
i_duda_1_2,illumination,303,278,22.74,0.3379,0.9175,0.9307,0.9373,1,1,1,0.6621,0.8874,0.9324,0.9662
i_duda_1_3,illumination,244,210,23.95,0.6151,0.8525,0.8730,0.8770,1,1,1,0.3849,0.7950,0.8770,0.9385
i_duda_1_4,illumination,167,124,23.18,1.0435,0.7425,0.7545,0.7545,1,1,1,0.0000,0.6522,0.7913,0.8956
i_duda_1_5,illumination,136,95,19.79,0.6320,0.6985,0.7206,0.7206,1,1,1,0.3680,0.7893,0.8736,0.9368
i_duda_1_6,illumination,74,34,22.13,0.6496,0.4595,0.4865,0.4865,1,1,1,0.3504,0.7835,0.8701,0.9350
i_fenis_1_2,illumination,452,362,25.01,0.2473,0.8009,0.8075,0.8097,1,1,1,0.7527,0.9176,0.9505,0.9753
i_fenis_1_3,illumination,333,149,23.57,0.4422,0.4474,0.4535,0.4625,1,1,1,0.5578,0.8526,0.9116,0.9558
i_fenis_1_4,illumination,254,65,23.20,1.6168,0.2480,0.2559,0.2559,1,1,1,0.0000,0.4611,0.6766,0.8383
i_fenis_1_5,illumination,190,51,22.60,1.3482,0.2684,0.2684,0.2737,1,1,1,0.0000,0.5506,0.7304,0.8652
i_fenis_1_6,illumination,183,51,22.82,1.1031,0.2787,0.2787,0.2896,1,1,1,0.0000,0.6323,0.7794,0.8897
i_fog_1_2,illumination,311,230,21.45,0.3180,0.7395,0.7492,0.7588,1,1,1,0.6820,0.8940,0.9364,0.9682
i_fog_1_3,illumination,215,131,21.04,0.2663,0.6093,0.6093,0.6186,1,1,1,0.7337,0.9112,0.9467,0.9734
i_fog_1_4,illumination,182,114,20.84,0.6113,0.6209,0.6374,0.6374,1,1,1,0.3887,0.7962,0.8777,0.9389
i_fog_1_5,illumination,177,104,21.06,1.0894,0.5876,0.5876,0.5876,1,1,1,0.0000,0.6369,0.7821,0.8911
i_fog_1_6,illumination,151,86,21.23,1.1970,0.5695,0.5695,0.5695,1,1,1,0.0000,0.6010,0.7606,0.8803
i_fruits_1_2,illumination,356,342,35.91,0.1168,0.9607,0.9663,0.9663,1,1,1,0.8832,0.9611,0.9766,0.9883
i_fruits_1_3,illumination,309,291,34.97,0.1934,0.9385,0.9450,0.9482,1,1,1,0.8066,0.9355,0.9613,0.9807
i_fruits_1_4,illumination,307,281,35.25,0.2210,0.9088,0.9218,0.9218,1,1,1,0.7790,0.9263,0.9558,0.9779
i_fruits_1_5,illumination,289,251,32.88,0.3626,0.8616,0.8858,0.8858,1,1,1,0.6374,0.8791,0.9275,0.9637
i_fruits_1_6,illumination,301,270,33.62,0.3561,0.8837,0.9070,0.9070,1,1,1,0.6439,0.8813,0.9288,0.9644
i_gonnenberg_1_2,illumination,504,430,22.67,0.3825,0.8512,0.8591,0.8651,1,1,1,0.6175,0.8725,0.9235,0.9617
i_gonnenberg_1_3,illumination,495,412,35.44,0.0645,0.8323,0.8364,0.8364,1,1,1,0.9355,0.9785,0.9871,0.9935
i_gonnenberg_1_4,illumination,454,342,18.36,0.5081,0.7533,0.7621,0.7709,1,1,1,0.4919,0.8306,0.8984,0.9492
i_gonnenberg_1_5,illumination,410,318,17.74,0.4621,0.7756,0.7780,0.7854,1,1,1,0.5379,0.8460,0.9076,0.9538
i_gonnenberg_1_6,illumination,459,383,20.47,0.2423,0.8344,0.8366,0.8410,1,1,1,0.7577,0.9192,0.9515,0.9758
i_greenhouse_1_2,illumination,587,325,26.58,0.2733,0.5537,0.5690,0.5707,1,1,1,0.7267,0.9089,0.9453,0.9727
i_greenhouse_1_3,illumination,702,387,27.73,0.5056,0.5513,0.5613,0.5670,1,1,1,0.4944,0.8315,0.8989,0.9494
i_greenhouse_1_4,illumination,697,333,28.19,0.3450,0.4763,0.4907,0.4935,1,1,1,0.6550,0.8850,0.9310,0.9655
i_greenhouse_1_5,illumination,673,288,28.32,0.7185,0.4250,0.4368,0.4428,1,1,1,0.2815,0.7605,0.8563,0.9282
i_greenhouse_1_6,illumination,644,255,31.28,1.0375,0.3898,0.4037,0.4130,1,1,1,0.0000,0.6542,0.7925,0.8962
i_greentea_1_2,illumination,556,446,28.65,0.1228,0.8022,0.8076,0.8076,1,1,1,0.8772,0.9591,0.9754,0.9877
i_greentea_1_3,illumination,653,555,31.47,0.1283,0.8499,0.8560,0.8560,1,1,1,0.8717,0.9572,0.9743,0.9872
i_greentea_1_4,illumination,680,601,27.90,0.1081,0.8838,0.8868,0.8897,1,1,1,0.8919,0.9640,0.9784,0.9892
i_greentea_1_5,illumination,638,583,27.52,0.1532,0.9138,0.9232,0.9263,1,1,1,0.8468,0.9489,0.9694,0.9847
i_greentea_1_6,illumination,488,400,26.85,0.4845,0.8197,0.8340,0.8361,1,1,1,0.5155,0.8385,0.9031,0.9515
i_indiana_1_2,illumination,359,178,19.66,0.7106,0.4958,0.5042,0.5097,1,1,1,0.2894,0.7631,0.8579,0.9289
i_indiana_1_3,illumination,377,136,19.91,0.4859,0.3607,0.3714,0.3767,1,1,1,0.5141,0.8380,0.9028,0.9514
i_indiana_1_4,illumination,360,82,19.21,0.3310,0.2278,0.2472,0.2500,1,1,1,0.6690,0.8897,0.9338,0.9669
i_indiana_1_5,illumination,344,76,19.09,1.1380,0.2209,0.2384,0.2442,1,1,1,0.0000,0.6207,0.7724,0.8862
i_indiana_1_6,illumination,329,59,20.12,0.4993,0.1763,0.1945,0.1976,1,1,1,0.5007,0.8336,0.9001,0.9501
i_kions_1_2,illumination,371,119,26.41,1.0203,0.3208,0.3369,0.3369,1,1,1,0.0000,0.6599,0.7959,0.8980
i_kions_1_3,illumination,334,91,26.57,1.6571,0.2695,0.2844,0.3024,1,1,1,0.0000,0.4476,0.6686,0.8343
i_kions_1_4,illumination,228,58,25.61,1.8741,0.2544,0.2588,0.2588,1,1,1,0.0000,0.3753,0.6252,0.8126
i_kions_1_5,illumination,198,43,25.00,2.8821,0.2172,0.2222,0.2222,1,1,1,0.0000,0.0393,0.4236,0.7118
i_kions_1_6,illumination,333,62,25.13,2.7030,0.1862,0.1952,0.1982,1,1,1,0.0000,0.0990,0.4594,0.7297
i_ktirio_1_2,illumination,532,483,27.43,0.1285,0.9079,0.9098,0.9098,1,1,1,0.8715,0.9572,0.9743,0.9872
i_ktirio_1_3,illumination,281,133,27.78,0.9145,0.4733,0.4840,0.4947,1,1,1,0.0855,0.6952,0.8171,0.9086
i_ktirio_1_4,illumination,198,54,26.31,0.8111,0.2727,0.2828,0.3030,1,1,1,0.1889,0.7296,0.8378,0.9189
i_ktirio_1_5,illumination,247,114,26.43,1.1067,0.4615,0.4858,0.4899,1,1,1,0.0000,0.6311,0.7787,0.8893
i_ktirio_1_6,illumination,189,41,28.03,2.4929,0.2169,0.2381,0.2487,1,1,1,0.0000,0.1690,0.5014,0.7507
i_kurhaus_1_2,illumination,557,474,26.12,0.1337,0.8510,0.8546,0.8600,1,1,1,0.8663,0.9554,0.9733,0.9866
i_kurhaus_1_3,illumination,490,371,22.06,0.1291,0.7571,0.7673,0.7714,1,1,1,0.8709,0.9570,0.9742,0.9871
i_kurhaus_1_4,illumination,436,311,21.71,0.3084,0.7133,0.7225,0.7248,1,1,1,0.6916,0.8972,0.9383,0.9692
i_kurhaus_1_5,illumination,408,240,22.20,0.3741,0.5907,0.6054,0.6103,1,1,1,0.6259,0.8753,0.9252,0.9626
i_kurhaus_1_6,illumination,370,191,22.97,0.6226,0.5135,0.5297,0.5405,1,1,1,0.3774,0.7925,0.8755,0.9377
i_leuven_1_2,illumination,304,271,24.88,0.9253,0.8947,0.8947,0.8947,1,1,1,0.0747,0.6916,0.8149,0.9075
i_leuven_1_3,illumination,292,249,22.60,1.0065,0.8527,0.8630,0.8664,1,1,1,0.0000,0.6645,0.7987,0.8993
i_leuven_1_4,illumination,253,191,23.83,1.4309,0.7510,0.7668,0.7747,1,1,1,0.0000,0.5230,0.7138,0.8569
i_leuven_1_5,illumination,232,129,22.04,1.0222,0.5560,0.5819,0.5862,1,1,1,0.0000,0.6593,0.7956,0.8978
i_leuven_1_6,illumination,193,74,22.57,5.6326,0.3264,0.3886,0.4093,0,0,1,0.0000,0.0000,0.0000,0.4367
i_lionday_1_2,illumination,172,54,25.19,1.0137,0.2965,0.3314,0.3547,1,1,1,0.0000,0.6621,0.7973,0.8986
i_lionday_1_3,illumination,256,116,25.90,0.6272,0.4492,0.5078,0.5234,1,1,1,0.3728,0.7909,0.8746,0.9373
i_lionday_1_4,illumination,137,28,24.50,8.8224,0.1752,0.2117,0.2190,0,0,0,0.0000,0.0000,0.0000,0.1178
i_lionday_1_5,illumination,194,40,25.52,2.0964,0.1907,0.2216,0.2577,1,1,1,0.0000,0.3012,0.5807,0.7904
i_lionday_1_6,illumination,236,116,27.66,1.2711,0.4661,0.5212,0.5551,1,1,1,0.0000,0.5763,0.7458,0.8729
i_lionnight_1_2,illumination,457,164,45.38,0.9415,0.3611,0.3654,0.3676,1,1,1,0.0585,0.6862,0.8117,0.9059
i_lionnight_1_3,illumination,292,77,32.95,1.0711,0.2637,0.2705,0.2740,1,1,1,0.0000,0.6430,0.7858,0.8929
i_lionnight_1_4,illumination,612,294,35.07,0.8393,0.4804,0.4804,0.4820,1,1,1,0.1607,0.7202,0.8321,0.9161
i_lionnight_1_5,illumination,631,292,40.32,1.1995,0.4612,0.4643,0.4691,1,1,1,0.0000,0.6002,0.7601,0.8801
i_lionnight_1_6,illumination,470,212,33.97,1.7952,0.4511,0.4532,0.4553,1,1,1,0.0000,0.4016,0.6410,0.8205
i_londonbridge_1_2,illumination,344,291,23.47,1.1620,0.8459,0.8634,0.8692,1,1,1,0.0000,0.6127,0.7676,0.8838
i_londonbridge_1_3,illumination,289,192,23.19,0.8960,0.6574,0.6713,0.6747,1,1,1,0.1040,0.7013,0.8208,0.9104
i_londonbridge_1_4,illumination,239,129,22.33,1.5303,0.5397,0.5690,0.5774,1,1,1,0.0000,0.4899,0.6939,0.8470
i_londonbridge_1_5,illumination,161,24,21.65,1.7677,0.1429,0.1615,0.1615,1,1,1,0.0000,0.4108,0.6465,0.8232
i_londonbridge_1_6,illumination,211,62,22.52,1.1029,0.2891,0.3223,0.3223,1,1,1,0.0000,0.6324,0.7794,0.8897
i_melon_1_2,illumination,333,301,26.49,0.9493,0.9039,0.9279,0.9309,1,1,1,0.0507,0.6836,0.8101,0.9051
i_melon_1_3,illumination,253,194,25.32,0.9028,0.7668,0.7945,0.8024,1,1,1,0.0972,0.6991,0.8194,0.9097
i_melon_1_4,illumination,161,43,24.15,1.5480,0.2671,0.3043,0.3230,1,1,1,0.0000,0.4840,0.6904,0.8452
i_melon_1_5,illumination,232,172,24.17,1.2621,0.7371,0.7629,0.7716,1,1,1,0.0000,0.5793,0.7476,0.8738
i_melon_1_6,illumination,218,136,24.13,0.8168,0.6284,0.6514,0.6743,1,1,1,0.1832,0.7277,0.8366,0.9183
i_miniature_1_2,illumination,952,813,31.55,0.2919,0.8519,0.8624,0.8676,1,1,1,0.7081,0.9027,0.9416,0.9708
i_miniature_1_3,illumination,620,347,29.23,0.5339,0.5581,0.5742,0.5823,1,1,1,0.4661,0.8220,0.8932,0.9466
i_miniature_1_4,illumination,370,95,35.89,0.7231,0.2622,0.2703,0.2730,1,1,1,0.2769,0.7590,0.8554,0.9277
i_miniature_1_5,illumination,279,41,25.80,6.0755,0.1470,0.1541,0.1541,0,0,1,0.0000,0.0000,0.0000,0.3924
i_miniature_1_6,illumination,607,341,28.22,0.8197,0.5618,0.5783,0.5898,1,1,1,0.1803,0.7268,0.8361,0.9180
i_nescafe_1_2,illumination,445,348,28.81,0.2380,0.7820,0.7978,0.8045,1,1,1,0.7620,0.9207,0.9524,0.9762
i_nescafe_1_3,illumination,505,381,29.18,0.4677,0.7545,0.7683,0.7743,1,1,1,0.5323,0.8441,0.9065,0.9532
i_nescafe_1_4,illumination,495,405,27.65,0.5203,0.8182,0.8263,0.8283,1,1,1,0.4797,0.8266,0.8959,0.9480
i_nescafe_1_5,illumination,393,297,26.66,0.6668,0.7557,0.7761,0.7837,1,1,1,0.3332,0.7777,0.8666,0.9333
i_nescafe_1_6,illumination,446,291,28.65,0.2820,0.6525,0.6570,0.6614,1,1,1,0.7180,0.9060,0.9436,0.9718
i_nijmegen_1_2,illumination,387,246,31.84,0.8849,0.6434,0.6589,0.6770,1,1,1,0.1151,0.7050,0.8230,0.9115
i_nijmegen_1_3,illumination,500,340,29.17,0.6141,0.6760,0.7000,0.7120,1,1,1,0.3859,0.7953,0.8772,0.9386
i_nijmegen_1_4,illumination,170,50,26.83,0.3225,0.2882,0.2941,0.3000,1,1,1,0.6775,0.8925,0.9355,0.9678
i_nijmegen_1_5,illumination,439,314,27.28,0.5871,0.7107,0.7289,0.7403,1,1,1,0.4129,0.8043,0.8826,0.9413
i_nijmegen_1_6,illumination,390,236,27.22,0.6063,0.6000,0.6205,0.6513,1,1,1,0.3937,0.7979,0.8787,0.9394
i_nuts_1_2,illumination,188,92,35.64,1.9475,0.4787,0.5638,0.6117,1,1,1,0.0000,0.3508,0.6105,0.8053
i_nuts_1_3,illumination,146,23,34.53,3.4022,0.1575,0.1644,0.1849,0,1,1,0.0000,0.0000,0.3196,0.6598
i_nuts_1_4,illumination,143,5,34.54,332.5189,0.0629,0.0699,0.0769,0,0,0,0.0000,0.0000,0.0000,0.0000
i_nuts_1_5,illumination,150,5,34.49,387.3897,0.0133,0.0133,0.0133,0,0,0,0.0000,0.0000,0.0000,0.0000
i_nuts_1_6,illumination,148,6,34.44,381.4010,0.0203,0.0203,0.0203,0,0,0,0.0000,0.0000,0.0000,0.0000
i_objects_1_2,illumination,731,354,28.00,0.4776,0.4829,0.5130,0.5294,1,1,1,0.5224,0.8408,0.9045,0.9522
i_objects_1_3,illumination,644,202,27.71,1.4202,0.3090,0.3323,0.3525,1,1,1,0.0000,0.5266,0.7160,0.8580
i_objects_1_4,illumination,611,126,38.83,1.9822,0.2046,0.2193,0.2357,1,1,1,0.0000,0.3393,0.6036,0.8018
i_objects_1_5,illumination,591,99,27.08,1.4248,0.1675,0.1743,0.1794,1,1,1,0.0000,0.5251,0.7150,0.8575
i_objects_1_6,illumination,870,647,27.96,0.2505,0.7414,0.7586,0.7621,1,1,1,0.7495,0.9165,0.9499,0.9749
i_parking_1_2,illumination,257,193,24.90,0.3731,0.7588,0.7938,0.8054,1,1,1,0.6269,0.8756,0.9254,0.9627
i_parking_1_3,illumination,258,186,24.74,0.3889,0.7248,0.7519,0.7636,1,1,1,0.6111,0.8704,0.9222,0.9611
i_parking_1_4,illumination,221,107,23.01,1.2647,0.4661,0.5204,0.5294,1,1,1,0.0000,0.5784,0.7471,0.8735
i_parking_1_5,illumination,194,78,24.54,1.3496,0.3918,0.4124,0.4175,1,1,1,0.0000,0.5501,0.7301,0.8650
i_parking_1_6,illumination,202,107,22.15,0.8329,0.5347,0.5594,0.5693,1,1,1,0.1671,0.7224,0.8334,0.9167
i_partyfood_1_2,illumination,246,241,23.60,0.3900,0.9756,0.9837,0.9878,1,1,1,0.6100,0.8700,0.9220,0.9610
i_partyfood_1_3,illumination,183,155,22.68,0.2044,0.8470,0.8579,0.8689,1,1,1,0.7956,0.9319,0.9591,0.9796
i_partyfood_1_4,illumination,145,121,21.56,0.4613,0.8345,0.8414,0.8414,1,1,1,0.5387,0.8462,0.9077,0.9539
i_partyfood_1_5,illumination,139,108,21.89,1.2095,0.7770,0.7914,0.7914,1,1,1,0.0000,0.5968,0.7581,0.8790
i_partyfood_1_6,illumination,125,92,21.60,0.4753,0.7360,0.7440,0.7440,1,1,1,0.5247,0.8416,0.9049,0.9525
i_pinard_1_2,illumination,184,146,24.82,0.4766,0.7935,0.8261,0.8424,1,1,1,0.5234,0.8411,0.9047,0.9523
i_pinard_1_3,illumination,232,154,26.99,2.6069,0.6638,0.6724,0.6853,1,1,1,0.0000,0.1310,0.4786,0.7393
i_pinard_1_4,illumination,238,167,25.66,1.9847,0.7017,0.7017,0.7143,1,1,1,0.0000,0.3384,0.6031,0.8015
i_pinard_1_5,illumination,231,172,25.82,0.3594,0.7446,0.7619,0.7706,1,1,1,0.6406,0.8802,0.9281,0.9641
i_pinard_1_6,illumination,211,147,26.28,3.7226,0.6967,0.7062,0.7299,0,1,1,0.0000,0.0000,0.2555,0.6277
i_pool_1_2,illumination,57,6,21.64,289.5648,0.1228,0.1228,0.1579,0,0,0,0.0000,0.0000,0.0000,0.0000
i_pool_1_3,illumination,45,5,21.30,248.7776,0.0222,0.0222,0.0222,0,0,0,0.0000,0.0000,0.0000,0.0000
i_pool_1_4,illumination,47,5,20.41,316.3049,0.0000,0.0000,0.0000,0,0,0,0.0000,0.0000,0.0000,0.0000
i_pool_1_5,illumination,44,5,20.29,289.7835,0.0455,0.0455,0.0455,0,0,0,0.0000,0.0000,0.0000,0.0000
i_pool_1_6,illumination,31,5,19.85,316.2350,0.0645,0.0645,0.0645,0,0,0,0.0000,0.0000,0.0000,0.0000
i_porta_1_2,illumination,269,209,23.39,0.8088,0.7695,0.8030,0.8253,1,1,1,0.1912,0.7304,0.8382,0.9191
i_porta_1_3,illumination,294,220,24.76,0.5766,0.7415,0.7687,0.7823,1,1,1,0.4234,0.8078,0.8847,0.9423
i_porta_1_4,illumination,194,111,24.21,1.3089,0.5773,0.6031,0.6134,1,1,1,0.0000,0.5637,0.7382,0.8691
i_porta_1_5,illumination,160,84,23.92,0.8281,0.5188,0.5437,0.5437,1,1,1,0.1719,0.7240,0.8344,0.9172
i_porta_1_6,illumination,172,75,24.95,1.6815,0.4419,0.4419,0.4477,1,1,1,0.0000,0.4395,0.6637,0.8319
i_resort_1_2,illumination,354,235,36.74,0.5188,0.6638,0.6836,0.6921,1,1,1,0.4812,0.8271,0.8962,0.9481
i_resort_1_3,illumination,399,353,25.82,0.2116,0.8822,0.8922,0.8972,1,1,1,0.7884,0.9295,0.9577,0.9788
i_resort_1_4,illumination,342,300,24.53,0.3178,0.8743,0.8830,0.8889,1,1,1,0.6822,0.8941,0.9364,0.9682
i_resort_1_5,illumination,296,175,26.91,0.6202,0.5878,0.6182,0.6318,1,1,1,0.3798,0.7933,0.8760,0.9380
i_resort_1_6,illumination,257,169,24.19,0.6434,0.6576,0.6809,0.6848,1,1,1,0.3566,0.7855,0.8713,0.9357
i_salon_1_2,illumination,1184,1013,32.66,0.2916,0.8547,0.8632,0.8649,1,1,1,0.7084,0.9028,0.9417,0.9708
i_salon_1_3,illumination,753,395,31.92,0.4609,0.5219,0.5339,0.5405,1,1,1,0.5391,0.8464,0.9078,0.9539
i_salon_1_4,illumination,461,99,29.34,0.6169,0.2082,0.2278,0.2299,1,1,1,0.3831,0.7944,0.8766,0.9383
i_salon_1_5,illumination,901,633,32.43,0.2344,0.7026,0.7114,0.7170,1,1,1,0.7656,0.9219,0.9531,0.9766
i_salon_1_6,illumination,706,333,31.07,0.4623,0.4717,0.4802,0.4830,1,1,1,0.5377,0.8459,0.9075,0.9538
i_santuario_1_2,illumination,518,341,31.27,1.1724,0.6564,0.6873,0.6950,1,1,1,0.0000,0.6092,0.7655,0.8828
i_santuario_1_3,illumination,532,337,28.49,1.5585,0.6241,0.6523,0.6654,1,1,1,0.0000,0.4805,0.6883,0.8442
i_santuario_1_4,illumination,438,219,24.23,1.8907,0.4817,0.5091,0.5114,1,1,1,0.0000,0.3698,0.6219,0.8109
i_santuario_1_5,illumination,511,257,24.26,0.4706,0.4990,0.5205,0.5264,1,1,1,0.5294,0.8431,0.9059,0.9529
i_santuario_1_6,illumination,400,157,24.57,1.2416,0.3900,0.4050,0.4125,1,1,1,0.0000,0.5861,0.7517,0.8758
i_school_1_2,illumination,467,383,26.98,0.2190,0.8201,0.8223,0.8266,1,1,1,0.7810,0.9270,0.9562,0.9781
i_school_1_3,illumination,452,385,27.85,0.2195,0.8518,0.8562,0.8606,1,1,1,0.7805,0.9268,0.9561,0.9781
i_school_1_4,illumination,290,151,26.97,0.7113,0.5241,0.5345,0.5345,1,1,1,0.2887,0.7629,0.8577,0.9289
i_school_1_5,illumination,400,294,27.80,0.7122,0.7300,0.7475,0.7575,1,1,1,0.2878,0.7626,0.8576,0.9288
i_school_1_6,illumination,290,140,27.41,1.3645,0.4724,0.4931,0.5103,1,1,1,0.0000,0.5452,0.7271,0.8636
i_ski_1_2,illumination,672,536,29.13,0.3355,0.7976,0.8080,0.8125,1,1,1,0.6645,0.8882,0.9329,0.9664
i_ski_1_3,illumination,597,414,28.50,0.5056,0.6951,0.7186,0.7253,1,1,1,0.4944,0.8315,0.8989,0.9494
i_ski_1_4,illumination,573,345,28.85,0.6405,0.6003,0.6178,0.6178,1,1,1,0.3595,0.7865,0.8719,0.9359
i_ski_1_5,illumination,493,249,28.73,0.5886,0.5071,0.5233,0.5335,1,1,1,0.4114,0.8038,0.8823,0.9411
i_ski_1_6,illumination,444,185,28.43,0.8900,0.4122,0.4324,0.4392,1,1,1,0.1100,0.7033,0.8220,0.9110
i_smurf_1_2,illumination,655,529,28.70,0.2291,0.8092,0.8214,0.8244,1,1,1,0.7709,0.9236,0.9542,0.9771
i_smurf_1_3,illumination,650,483,29.83,0.1690,0.7431,0.7538,0.7554,1,1,1,0.8310,0.9437,0.9662,0.9831
i_smurf_1_4,illumination,581,407,27.49,0.3112,0.7022,0.7160,0.7263,1,1,1,0.6888,0.8963,0.9378,0.9689
i_smurf_1_5,illumination,590,383,28.25,0.1126,0.6475,0.6712,0.6814,1,1,1,0.8874,0.9625,0.9775,0.9887
i_smurf_1_6,illumination,478,282,28.03,0.3578,0.5900,0.6067,0.6172,1,1,1,0.6422,0.8807,0.9284,0.9642
i_steps_1_2,illumination,181,155,30.43,0.4162,0.8564,0.8840,0.8840,1,1,1,0.5838,0.8613,0.9168,0.9584
i_steps_1_3,illumination,201,163,26.61,0.9780,0.8109,0.8358,0.8408,1,1,1,0.0220,0.6740,0.8044,0.9022
i_steps_1_4,illumination,228,175,23.42,0.5066,0.7632,0.7763,0.7851,1,1,1,0.4934,0.8311,0.8987,0.9493
i_steps_1_5,illumination,178,44,23.54,2.2689,0.2416,0.2528,0.2584,1,1,1,0.0000,0.2437,0.5462,0.7731
i_steps_1_6,illumination,205,110,21.65,1.2109,0.5366,0.5463,0.5659,1,1,1,0.0000,0.5964,0.7578,0.8789
i_table_1_2,illumination,731,354,40.37,0.4776,0.4829,0.5130,0.5294,1,1,1,0.5224,0.8408,0.9045,0.9522
i_table_1_3,illumination,644,202,31.43,1.4202,0.3090,0.3323,0.3525,1,1,1,0.0000,0.5266,0.7160,0.8580
i_table_1_4,illumination,611,126,29.30,1.9822,0.2046,0.2193,0.2357,1,1,1,0.0000,0.3393,0.6036,0.8018
i_table_1_5,illumination,591,99,28.59,1.4248,0.1675,0.1743,0.1794,1,1,1,0.0000,0.5251,0.7150,0.8575
i_table_1_6,illumination,870,647,29.24,0.2505,0.7414,0.7586,0.7621,1,1,1,0.7495,0.9165,0.9499,0.9749
i_tools_1_2,illumination,189,21,23.29,7.7458,0.1111,0.1111,0.1270,0,0,0,0.0000,0.0000,0.0000,0.2254
i_tools_1_3,illumination,179,66,22.02,2.5742,0.3687,0.3743,0.3799,1,1,1,0.0000,0.1419,0.4852,0.7426
i_tools_1_4,illumination,167,6,23.13,331.7120,0.0778,0.0838,0.0838,0,0,0,0.0000,0.0000,0.0000,0.0000
i_tools_1_5,illumination,184,101,23.45,1.7426,0.5380,0.5489,0.5543,1,1,1,0.0000,0.4191,0.6515,0.8257
i_tools_1_6,illumination,185,7,24.02,381.0866,0.0865,0.1135,0.1351,0,0,0,0.0000,0.0000,0.0000,0.0000
i_toy_1_2,illumination,583,529,37.67,0.2349,0.9074,0.9245,0.9365,1,1,1,0.7651,0.9217,0.9530,0.9765
i_toy_1_3,illumination,533,426,36.94,0.2826,0.7992,0.8199,0.8274,1,1,1,0.7174,0.9058,0.9435,0.9717
i_toy_1_4,illumination,456,298,35.79,0.2573,0.6535,0.6689,0.6732,1,1,1,0.7427,0.9142,0.9485,0.9743
i_toy_1_5,illumination,423,228,36.52,0.6610,0.5366,0.5556,0.5603,1,1,1,0.3390,0.7797,0.8678,0.9339
i_toy_1_6,illumination,313,123,36.76,0.9572,0.3834,0.3962,0.4058,1,1,1,0.0428,0.6809,0.8086,0.9043
i_troulos_1_2,illumination,104,71,22.42,0.8756,0.6827,0.7115,0.7308,1,1,1,0.1244,0.7081,0.8249,0.9124
i_troulos_1_3,illumination,91,54,21.97,2.7156,0.4286,0.6044,0.6264,1,1,1,0.0000,0.0948,0.4569,0.7284
i_troulos_1_4,illumination,171,138,21.44,0.4607,0.8070,0.8070,0.8187,1,1,1,0.5393,0.8464,0.9079,0.9539
i_troulos_1_5,illumination,135,54,23.46,0.9868,0.4000,0.4074,0.4074,1,1,1,0.0132,0.6711,0.8026,0.9013
i_troulos_1_6,illumination,114,70,20.88,1.2761,0.6053,0.6316,0.6404,1,1,1,0.0000,0.5746,0.7448,0.8724
i_veggies_1_2,illumination,701,622,29.46,0.1647,0.8873,0.9016,0.9030,1,1,1,0.8353,0.9451,0.9671,0.9835
i_veggies_1_3,illumination,476,301,29.64,0.3296,0.6324,0.6555,0.6639,1,1,1,0.6704,0.8901,0.9341,0.9670
i_veggies_1_4,illumination,522,343,30.06,0.1618,0.6571,0.6686,0.6877,1,1,1,0.8382,0.9461,0.9676,0.9838
i_veggies_1_5,illumination,397,80,29.54,0.8143,0.2015,0.2141,0.2368,1,1,1,0.1857,0.7286,0.8371,0.9186
i_veggies_1_6,illumination,341,62,30.77,1.5392,0.1818,0.2023,0.2141,1,1,1,0.0000,0.4869,0.6922,0.8461
i_village_1_2,illumination,517,137,37.93,0.6127,0.2650,0.2669,0.2689,1,1,1,0.3873,0.7958,0.8775,0.9387
i_village_1_3,illumination,643,160,38.07,0.7315,0.2457,0.2566,0.2582,1,1,1,0.2685,0.7562,0.8537,0.9269
i_village_1_4,illumination,551,149,37.71,0.5117,0.2704,0.2831,0.2886,1,1,1,0.4883,0.8294,0.8977,0.9488
i_village_1_5,illumination,959,654,44.40,0.4963,0.6820,0.6913,0.6955,1,1,1,0.5037,0.8346,0.9007,0.9504
i_village_1_6,illumination,638,182,43.23,0.6985,0.2821,0.2900,0.2931,1,1,1,0.3015,0.7672,0.8603,0.9302
i_yellowtent_1_2,illumination,956,802,29.78,0.2412,0.8389,0.8462,0.8504,1,1,1,0.7588,0.9196,0.9518,0.9759
i_yellowtent_1_3,illumination,617,415,31.07,0.7312,0.6694,0.6921,0.7018,1,1,1,0.2688,0.7563,0.8538,0.9269
i_yellowtent_1_4,illumination,394,149,29.29,0.8532,0.3731,0.3959,0.4036,1,1,1,0.1468,0.7156,0.8294,0.9147
i_yellowtent_1_5,illumination,578,305,31.67,0.2898,0.5277,0.5467,0.5554,1,1,1,0.7102,0.9034,0.9420,0.9710
i_yellowtent_1_6,illumination,490,159,30.76,0.6759,0.3245,0.3347,0.3429,1,1,1,0.3241,0.7747,0.8648,0.9324
i_zion_1_2,illumination,576,429,27.99,0.3030,0.7448,0.7500,0.7535,1,1,1,0.6970,0.8990,0.9394,0.9697
i_zion_1_3,illumination,449,182,27.27,0.6088,0.4053,0.4120,0.4187,1,1,1,0.3912,0.7971,0.8782,0.9391
i_zion_1_4,illumination,337,71,25.87,1.3837,0.2107,0.2136,0.2166,1,1,1,0.0000,0.5388,0.7233,0.8616
i_zion_1_5,illumination,246,7,22.95,325.9144,0.0691,0.0732,0.0732,0,0,0,0.0000,0.0000,0.0000,0.0000
i_zion_1_6,illumination,99,6,22.10,327.5221,0.0101,0.0101,0.0101,0,0,0,0.0000,0.0000,0.0000,0.0000
v_abstract_1_2,viewpoint,369,294,27.33,0.2764,0.7967,0.8022,0.8049,1,1,1,0.7236,0.9079,0.9447,0.9724
v_abstract_1_3,viewpoint,347,251,26.45,0.1894,0.7262,0.7464,0.7522,1,1,1,0.8106,0.9369,0.9621,0.9811
v_abstract_1_4,viewpoint,237,99,26.22,0.8148,0.3924,0.4430,0.4473,1,1,1,0.1852,0.7284,0.8370,0.9185
v_abstract_1_5,viewpoint,317,211,26.13,0.7699,0.6656,0.6782,0.6814,1,1,1,0.2301,0.7434,0.8460,0.9230
v_abstract_1_6,viewpoint,250,103,25.99,1.8088,0.3880,0.4280,0.4360,1,1,1,0.0000,0.3971,0.6382,0.8191
v_adam_1_2,viewpoint,223,196,23.84,0.6592,0.8789,0.8969,0.8969,1,1,1,0.3408,0.7803,0.8682,0.9341
v_adam_1_3,viewpoint,162,141,24.27,0.6267,0.8704,0.8765,0.8765,1,1,1,0.3733,0.7911,0.8747,0.9373
v_adam_1_4,viewpoint,137,74,24.37,1.2493,0.5401,0.5620,0.5620,1,1,1,0.0000,0.5836,0.7501,0.8751
v_adam_1_5,viewpoint,168,138,24.61,0.7533,0.8274,0.8452,0.8452,1,1,1,0.2467,0.7489,0.8493,0.9247
v_adam_1_6,viewpoint,155,117,24.26,0.8455,0.7548,0.7548,0.7742,1,1,1,0.1545,0.7182,0.8309,0.9154
v_apprentices_1_2,viewpoint,1237,1100,31.89,0.0732,0.8884,0.8957,0.8973,1,1,1,0.9268,0.9756,0.9854,0.9927
v_apprentices_1_3,viewpoint,1053,858,33.56,0.5279,0.8129,0.8243,0.8281,1,1,1,0.4721,0.8240,0.8944,0.9472
v_apprentices_1_4,viewpoint,883,582,31.26,0.6915,0.6569,0.6716,0.6772,1,1,1,0.3085,0.7695,0.8617,0.9309
v_apprentices_1_5,viewpoint,634,289,29.27,0.3734,0.4590,0.4858,0.4874,1,1,1,0.6266,0.8755,0.9253,0.9627
v_apprentices_1_6,viewpoint,616,345,28.66,1.4435,0.5584,0.5698,0.5763,1,1,1,0.0000,0.5188,0.7113,0.8556
v_azzola_1_2,viewpoint,1066,793,33.77,0.5520,0.7411,0.7598,0.7636,1,1,1,0.4480,0.8160,0.8896,0.9448
v_azzola_1_3,viewpoint,855,376,33.69,1.8473,0.4292,0.5006,0.5111,1,1,1,0.0000,0.3842,0.6305,0.8153
v_azzola_1_4,viewpoint,1131,904,32.83,0.6167,0.7975,0.8046,0.8073,1,1,1,0.3833,0.7944,0.8767,0.9383
v_azzola_1_5,viewpoint,837,414,33.22,0.8662,0.4851,0.5317,0.5400,1,1,1,0.1338,0.7113,0.8268,0.9134
v_azzola_1_6,viewpoint,577,96,30.20,1.1656,0.1612,0.1872,0.1924,1,1,1,0.0000,0.6115,0.7669,0.8834
v_bark_1_2,viewpoint,912,570,32.19,0.3275,0.6250,0.6272,0.6283,1,1,1,0.6725,0.8908,0.9345,0.9672
v_bark_1_3,viewpoint,792,312,30.25,0.4460,0.3939,0.3952,0.3977,1,1,1,0.5540,0.8513,0.9108,0.9554
v_bark_1_4,viewpoint,815,275,29.19,0.1452,0.3374,0.3387,0.3387,1,1,1,0.8548,0.9516,0.9710,0.9855
v_bark_1_5,viewpoint,744,182,29.34,0.1151,0.2446,0.2460,0.2460,1,1,1,0.8849,0.9616,0.9770,0.9885
v_bark_1_6,viewpoint,723,106,28.94,0.1115,0.1466,0.1466,0.1466,1,1,1,0.8885,0.9628,0.9777,0.9889
v_bees_1_2,viewpoint,1207,1084,32.53,0.1922,0.8981,0.9031,0.9047,1,1,1,0.8078,0.9359,0.9616,0.9808
v_bees_1_3,viewpoint,1077,967,30.51,0.0908,0.8979,0.9044,0.9062,1,1,1,0.9092,0.9697,0.9818,0.9909
v_bees_1_4,viewpoint,940,825,30.04,0.2719,0.8777,0.8830,0.8862,1,1,1,0.7281,0.9094,0.9456,0.9728
v_bees_1_5,viewpoint,641,444,28.63,0.5304,0.6942,0.7051,0.7098,1,1,1,0.4696,0.8232,0.8939,0.9470
v_bees_1_6,viewpoint,891,674,31.18,0.6945,0.7486,0.7767,0.7823,1,1,1,0.3055,0.7685,0.8611,0.9305
v_beyus_1_2,viewpoint,189,112,25.97,0.7386,0.5873,0.6032,0.6032,1,1,1,0.2614,0.7538,0.8523,0.9261
v_beyus_1_3,viewpoint,151,27,29.04,3.3157,0.1854,0.2252,0.2318,0,1,1,0.0000,0.0000,0.3369,0.6684
v_beyus_1_4,viewpoint,256,205,31.45,0.5063,0.8008,0.8164,0.8281,1,1,1,0.4937,0.8312,0.8987,0.9494
v_beyus_1_5,viewpoint,149,45,24.71,1.2172,0.3020,0.3423,0.3557,1,1,1,0.0000,0.5943,0.7566,0.8783
v_beyus_1_6,viewpoint,165,94,24.85,1.3234,0.5515,0.6000,0.6061,1,1,1,0.0000,0.5589,0.7353,0.8677
v_bip_1_2,viewpoint,840,670,31.77,0.1484,0.7976,0.8000,0.8000,1,1,1,0.8516,0.9505,0.9703,0.9852
v_bip_1_3,viewpoint,673,473,30.30,0.1690,0.7028,0.7043,0.7043,1,1,1,0.8310,0.9437,0.9662,0.9831
v_bip_1_4,viewpoint,898,684,30.71,0.2024,0.7617,0.7650,0.7650,1,1,1,0.7976,0.9325,0.9595,0.9798
v_bip_1_5,viewpoint,569,318,28.19,1.0848,0.5395,0.5624,0.5624,1,1,1,0.0000,0.6384,0.7830,0.8915
v_bip_1_6,viewpoint,556,255,32.44,0.2718,0.4586,0.4622,0.4622,1,1,1,0.7282,0.9094,0.9456,0.9728
v_bird_1_2,viewpoint,661,395,39.47,76.9069,0.0000,0.0000,0.0000,0,0,0,0.0000,0.0000,0.0000,0.0000
v_bird_1_3,viewpoint,559,199,37.00,84.6571,0.0000,0.0000,0.0000,0,0,0,0.0000,0.0000,0.0000,0.0000
v_bird_1_4,viewpoint,551,185,37.75,99.9448,0.0000,0.0000,0.0000,0,0,0,0.0000,0.0000,0.0000,0.0000
v_bird_1_5,viewpoint,470,84,36.62,93.4865,0.0000,0.0000,0.0000,0,0,0,0.0000,0.0000,0.0000,0.0000
v_bird_1_6,viewpoint,358,7,36.03,546.4351,0.0000,0.0028,0.0028,0,0,0,0.0000,0.0000,0.0000,0.0000
v_birdwoman_1_2,viewpoint,350,100,28.49,44.5894,0.0029,0.0029,0.0029,0,0,0,0.0000,0.0000,0.0000,0.0000
v_birdwoman_1_3,viewpoint,373,66,32.41,53.7419,0.0000,0.0027,0.0054,0,0,0,0.0000,0.0000,0.0000,0.0000
v_birdwoman_1_4,viewpoint,434,168,29.85,50.7157,0.0000,0.0000,0.0000,0,0,0,0.0000,0.0000,0.0000,0.0000
v_birdwoman_1_5,viewpoint,604,393,30.91,52.7568,0.0000,0.0000,0.0000,0,0,0,0.0000,0.0000,0.0000,0.0000
v_birdwoman_1_6,viewpoint,436,215,33.16,51.5011,0.0000,0.0000,0.0000,0,0,0,0.0000,0.0000,0.0000,0.0000
v_blueprint_1_2,viewpoint,917,677,42.43,0.2588,0.7383,0.7437,0.7437,1,1,1,0.7412,0.9137,0.9482,0.9741
v_blueprint_1_3,viewpoint,778,480,36.67,0.5302,0.6170,0.6272,0.6324,1,1,1,0.4698,0.8233,0.8940,0.9470
v_blueprint_1_4,viewpoint,864,621,33.24,0.5370,0.7176,0.7257,0.7292,1,1,1,0.4630,0.8210,0.8926,0.9463
v_blueprint_1_5,viewpoint,617,328,31.32,0.5150,0.5316,0.5381,0.5413,1,1,1,0.4850,0.8283,0.8970,0.9485
v_blueprint_1_6,viewpoint,454,148,30.11,2.2796,0.3304,0.3480,0.3546,1,1,1,0.0000,0.2401,0.5441,0.7720
v_boat_1_2,viewpoint,961,754,34.28,0.1762,0.7836,0.7908,0.7940,1,1,1,0.8238,0.9413,0.9648,0.9824
v_boat_1_3,viewpoint,861,614,35.09,0.0716,0.7131,0.7189,0.7213,1,1,1,0.9284,0.9761,0.9857,0.9928
v_boat_1_4,viewpoint,739,460,34.29,0.2029,0.6211,0.6265,0.6306,1,1,1,0.7971,0.9324,0.9594,0.9797
v_boat_1_5,viewpoint,561,287,32.71,0.6656,0.5134,0.5205,0.5312,1,1,1,0.3344,0.7781,0.8669,0.9334
v_boat_1_6,viewpoint,502,200,31.98,0.2859,0.4004,0.4104,0.4163,1,1,1,0.7141,0.9047,0.9428,0.9714
v_bricks_1_2,viewpoint,1042,861,32.15,33.3819,0.0000,0.0173,0.0499,0,0,0,0.0000,0.0000,0.0000,0.0000
v_bricks_1_3,viewpoint,1006,782,32.25,32.2269,0.0000,0.0129,0.0398,0,0,0,0.0000,0.0000,0.0000,0.0000
v_bricks_1_4,viewpoint,856,550,32.18,31.0389,0.0000,0.0012,0.0175,0,0,0,0.0000,0.0000,0.0000,0.0000
v_bricks_1_5,viewpoint,754,366,32.08,27.9504,0.0000,0.0053,0.0146,0,0,0,0.0000,0.0000,0.0000,0.0000
v_bricks_1_6,viewpoint,690,92,31.95,28.1053,0.0000,0.0014,0.0029,0,0,0,0.0000,0.0000,0.0000,0.0000
v_busstop_1_2,viewpoint,1025,780,32.91,0.4336,0.7590,0.7659,0.7668,1,1,1,0.5664,0.8555,0.9133,0.9566
v_busstop_1_3,viewpoint,920,575,36.71,0.6605,0.6228,0.6337,0.6370,1,1,1,0.3395,0.7798,0.8679,0.9340
v_busstop_1_4,viewpoint,987,610,32.83,0.7610,0.6180,0.6261,0.6272,1,1,1,0.2390,0.7463,0.8478,0.9239
v_busstop_1_5,viewpoint,984,632,40.60,0.3889,0.6413,0.6433,0.6433,1,1,1,0.6111,0.8704,0.9222,0.9611
v_busstop_1_6,viewpoint,1080,813,33.21,0.2125,0.7528,0.7565,0.7565,1,1,1,0.7875,0.9292,0.9575,0.9788
v_calder_1_2,viewpoint,597,427,30.96,0.2715,0.7136,0.7286,0.7353,1,1,1,0.7285,0.9095,0.9457,0.9728
v_calder_1_3,viewpoint,865,737,32.26,0.3216,0.8520,0.8566,0.8578,1,1,1,0.6784,0.8928,0.9357,0.9678
v_calder_1_4,viewpoint,363,120,29.51,0.6145,0.3278,0.3416,0.3499,1,1,1,0.3855,0.7952,0.8771,0.9386
v_calder_1_5,viewpoint,456,172,28.64,0.3819,0.3772,0.3860,0.3947,1,1,1,0.6181,0.8727,0.9236,0.9618
v_calder_1_6,viewpoint,294,7,29.85,449.9045,0.0680,0.0816,0.0816,0,0,0,0.0000,0.0000,0.0000,0.0000
v_cartooncity_1_2,viewpoint,1192,1025,32.05,62.1826,0.0000,0.0000,0.0000,0,0,0,0.0000,0.0000,0.0000,0.0000
v_cartooncity_1_3,viewpoint,729,225,31.16,67.0560,0.0000,0.0000,0.0014,0,0,0,0.0000,0.0000,0.0000,0.0000
v_cartooncity_1_4,viewpoint,1053,813,32.49,74.6819,0.0009,0.0019,0.0038,0,0,0,0.0000,0.0000,0.0000,0.0000
v_cartooncity_1_5,viewpoint,733,211,32.02,76.1528,0.0014,0.0014,0.0014,0,0,0,0.0000,0.0000,0.0000,0.0000
v_cartooncity_1_6,viewpoint,727,227,31.90,71.2969,0.0000,0.0000,0.0000,0,0,0,0.0000,0.0000,0.0000,0.0000
v_charing_1_2,viewpoint,180,78,27.00,2.3381,0.4333,0.4611,0.4778,1,1,1,0.0000,0.2206,0.5324,0.7662
v_charing_1_3,viewpoint,134,29,26.04,16.7559,0.2015,0.2313,0.2388,0,0,0,0.0000,0.0000,0.0000,0.0000
v_charing_1_4,viewpoint,161,90,25.94,4.4808,0.5528,0.6211,0.6398,0,1,1,0.0000,0.0000,0.1038,0.5519
v_charing_1_5,viewpoint,145,65,28.16,59.9591,0.4276,0.4552,0.4759,0,0,0,0.0000,0.0000,0.0000,0.0000
v_charing_1_6,viewpoint,142,49,26.92,418.7395,0.3169,0.3662,0.3803,0,0,0,0.0000,0.0000,0.0000,0.0000
v_churchill_1_2,viewpoint,554,421,29.08,0.4223,0.7599,0.7924,0.8032,1,1,1,0.5777,0.8592,0.9155,0.9578
v_churchill_1_3,viewpoint,460,265,28.49,3.0412,0.5717,0.6043,0.6261,0,1,1,0.0000,0.0000,0.3918,0.6959
v_churchill_1_4,viewpoint,400,219,29.32,1.7104,0.5475,0.5725,0.5950,1,1,1,0.0000,0.4299,0.6579,0.8290
v_churchill_1_5,viewpoint,647,587,28.71,0.1433,0.9073,0.9134,0.9165,1,1,1,0.8567,0.9522,0.9713,0.9857
v_churchill_1_6,viewpoint,295,81,27.24,3.8329,0.2678,0.2881,0.2949,0,1,1,0.0000,0.0000,0.2334,0.6167
v_circus_1_2,viewpoint,626,518,33.23,0.3175,0.8275,0.8291,0.8323,1,1,1,0.6825,0.8942,0.9365,0.9682
v_circus_1_3,viewpoint,396,203,26.28,1.4068,0.5025,0.5354,0.5379,1,1,1,0.0000,0.5311,0.7186,0.8593
v_circus_1_4,viewpoint,331,91,25.48,3.3698,0.2749,0.3051,0.3112,0,1,1,0.0000,0.0000,0.3260,0.6630
v_circus_1_5,viewpoint,513,350,26.54,0.3151,0.6823,0.6862,0.6881,1,1,1,0.6849,0.8950,0.9370,0.9685
v_circus_1_6,viewpoint,382,205,25.49,1.3436,0.5366,0.5602,0.5681,1,1,1,0.0000,0.5521,0.7313,0.8656
v_coffeehouse_1_2,viewpoint,605,467,24.41,0.6906,0.7702,0.7769,0.7785,1,1,1,0.3094,0.7698,0.8619,0.9309
v_coffeehouse_1_3,viewpoint,733,565,27.13,0.6300,0.7708,0.7749,0.7804,1,1,1,0.3700,0.7900,0.8740,0.9370
v_coffeehouse_1_4,viewpoint,708,536,25.47,1.7486,0.7571,0.7684,0.7712,1,1,1,0.0000,0.4171,0.6503,0.8251
v_coffeehouse_1_5,viewpoint,601,431,25.14,0.4428,0.7188,0.7271,0.7338,1,1,1,0.5572,0.8524,0.9114,0.9557
v_coffeehouse_1_6,viewpoint,577,355,25.33,1.9992,0.6101,0.6360,0.6412,1,1,1,0.0000,0.3336,0.6002,0.8001
v_colors_1_2,viewpoint,44,26,21.39,1.8239,0.5909,0.6818,0.6818,1,1,1,0.0000,0.3920,0.6352,0.8176
v_colors_1_3,viewpoint,33,19,20.87,1.9279,0.5152,0.6667,0.7273,1,1,1,0.0000,0.3574,0.6144,0.8072
v_colors_1_4,viewpoint,28,5,21.66,75.0384,0.0714,0.1429,0.2143,0,0,0,0.0000,0.0000,0.0000,0.0000
v_colors_1_5,viewpoint,24,5,20.46,445.1601,0.0000,0.0000,0.0417,0,0,0,0.0000,0.0000,0.0000,0.0000
v_colors_1_6,viewpoint,16,5,20.13,402.2858,0.0000,0.0000,0.0625,0,0,0,0.0000,0.0000,0.0000,0.0000
v_courses_1_2,viewpoint,756,685,29.91,0.7118,0.9074,0.9140,0.9140,1,1,1,0.2882,0.7627,0.8576,0.9288
v_courses_1_3,viewpoint,608,452,29.61,1.4162,0.7451,0.7697,0.7697,1,1,1,0.0000,0.5279,0.7168,0.8584
v_courses_1_4,viewpoint,616,486,29.14,0.9682,0.7922,0.8068,0.8084,1,1,1,0.0318,0.6773,0.8064,0.9032
v_courses_1_5,viewpoint,449,247,29.32,3.4859,0.5501,0.5612,0.5679,0,1,1,0.0000,0.0000,0.3028,0.6514
v_courses_1_6,viewpoint,423,193,29.39,11.4631,0.4515,0.4870,0.4894,0,0,0,0.0000,0.0000,0.0000,0.0000
v_dirtywall_1_2,viewpoint,1075,837,43.29,0.2903,0.7786,0.7823,0.7833,1,1,1,0.7097,0.9032,0.9419,0.9710
v_dirtywall_1_3,viewpoint,927,607,30.60,0.2930,0.6537,0.6634,0.6656,1,1,1,0.7070,0.9023,0.9414,0.9707
v_dirtywall_1_4,viewpoint,779,304,36.44,0.4041,0.3890,0.3954,0.3979,1,1,1,0.5959,0.8653,0.9192,0.9596
v_dirtywall_1_5,viewpoint,960,595,32.11,0.6899,0.6198,0.6302,0.6354,1,1,1,0.3101,0.7700,0.8620,0.9310
v_dirtywall_1_6,viewpoint,751,176,30.00,0.7879,0.2344,0.2397,0.2410,1,1,1,0.2121,0.7374,0.8424,0.9212
v_dogman_1_2,viewpoint,417,331,24.19,1.5004,0.7938,0.8010,0.8058,1,1,1,0.0000,0.4999,0.6999,0.8500
v_dogman_1_3,viewpoint,425,378,23.18,0.6712,0.8918,0.9035,0.9082,1,1,1,0.3288,0.7763,0.8658,0.9329
v_dogman_1_4,viewpoint,263,84,24.15,7.4887,0.2852,0.3232,0.3574,0,0,0,0.0000,0.0000,0.0000,0.2511
v_dogman_1_5,viewpoint,321,204,23.07,1.3489,0.6355,0.6542,0.6729,1,1,1,0.0000,0.5504,0.7302,0.8651
v_dogman_1_6,viewpoint,232,8,23.39,385.1500,0.0733,0.1164,0.1509,0,0,0,0.0000,0.0000,0.0000,0.0000
v_eastsouth_1_2,viewpoint,1077,859,37.30,0.1644,0.7976,0.7994,0.7994,1,1,1,0.8356,0.9452,0.9671,0.9836
v_eastsouth_1_3,viewpoint,969,691,36.60,0.0665,0.7131,0.7152,0.7152,1,1,1,0.9335,0.9778,0.9867,0.9934
v_eastsouth_1_4,viewpoint,817,509,34.92,0.1967,0.6230,0.6267,0.6267,1,1,1,0.8033,0.9344,0.9607,0.9803
v_eastsouth_1_5,viewpoint,775,353,35.12,0.0809,0.4555,0.4568,0.4568,1,1,1,0.9191,0.9730,0.9838,0.9919
v_eastsouth_1_6,viewpoint,549,204,32.71,0.2768,0.3716,0.3716,0.3716,1,1,1,0.7232,0.9077,0.9446,0.9723
v_feast_1_2,viewpoint,733,449,29.09,0.3689,0.6126,0.6207,0.6235,1,1,1,0.6311,0.8770,0.9262,0.9631
v_feast_1_3,viewpoint,933,600,31.81,0.8407,0.6345,0.6517,0.6559,1,1,1,0.1593,0.7198,0.8319,0.9159
v_feast_1_4,viewpoint,601,293,28.48,0.5484,0.4875,0.5025,0.5042,1,1,1,0.4516,0.8172,0.8903,0.9452
v_feast_1_5,viewpoint,853,511,30.38,0.5085,0.5979,0.6049,0.6073,1,1,1,0.4915,0.8305,0.8983,0.9492
v_feast_1_6,viewpoint,695,323,31.49,0.5845,0.4532,0.4719,0.4734,1,1,1,0.4155,0.8052,0.8831,0.9415
v_fest_1_2,viewpoint,1065,829,32.71,0.2884,0.7765,0.7850,0.7878,1,1,1,0.7116,0.9039,0.9423,0.9712
v_fest_1_3,viewpoint,837,394,32.66,2.3248,0.4707,0.4875,0.4922,1,1,1,0.0000,0.2251,0.5350,0.7675
v_fest_1_4,viewpoint,960,623,35.71,0.3956,0.6490,0.6552,0.6583,1,1,1,0.6044,0.8681,0.9209,0.9604
v_fest_1_5,viewpoint,869,416,33.06,0.9519,0.4776,0.4948,0.5040,1,1,1,0.0481,0.6827,0.8096,0.9048
v_fest_1_6,viewpoint,789,243,35.74,1.7775,0.3118,0.3232,0.3308,1,1,1,0.0000,0.4075,0.6445,0.8222
v_gardens_1_2,viewpoint,641,394,28.82,1.1207,0.6178,0.6318,0.6443,1,1,1,0.0000,0.6264,0.7759,0.8879
v_gardens_1_3,viewpoint,413,60,31.05,6.4283,0.1501,0.1622,0.1840,0,0,1,0.0000,0.0000,0.0000,0.3572
v_gardens_1_4,viewpoint,775,613,29.26,0.4711,0.7923,0.8000,0.8026,1,1,1,0.5289,0.8430,0.9058,0.9529
v_gardens_1_5,viewpoint,510,160,31.68,2.0157,0.3039,0.3314,0.3431,1,1,1,0.0000,0.3281,0.5969,0.7984
v_gardens_1_6,viewpoint,767,618,29.64,0.4347,0.8057,0.8175,0.8188,1,1,1,0.5653,0.8551,0.9131,0.9565
v_grace_1_2,viewpoint,544,406,28.88,0.6040,0.7463,0.7592,0.7647,1,1,1,0.3960,0.7987,0.8792,0.9396
v_grace_1_3,viewpoint,485,300,25.47,0.7424,0.6186,0.6371,0.6433,1,1,1,0.2576,0.7525,0.8515,0.9258
v_grace_1_4,viewpoint,399,187,25.61,1.2758,0.4687,0.4962,0.5113,1,1,1,0.0000,0.5747,0.7448,0.8724
v_grace_1_5,viewpoint,321,75,25.46,4.7938,0.2305,0.2492,0.2586,0,1,1,0.0000,0.0000,0.0412,0.5206
v_grace_1_6,viewpoint,249,20,24.80,51.1603,0.0964,0.1124,0.1165,0,0,0,0.0000,0.0000,0.0000,0.0000
v_graffiti_1_2,viewpoint,768,612,35.14,0.1749,0.7969,0.8021,0.8021,1,1,1,0.8251,0.9417,0.9650,0.9825
v_graffiti_1_3,viewpoint,667,394,35.07,0.9799,0.5907,0.6132,0.6237,1,1,1,0.0201,0.6734,0.8040,0.9020
v_graffiti_1_4,viewpoint,538,121,39.87,0.9980,0.2193,0.2602,0.2825,1,1,1,0.0020,0.6673,0.8004,0.9002
v_graffiti_1_5,viewpoint,507,6,33.86,261.3059,0.0394,0.0533,0.0592,0,0,0,0.0000,0.0000,0.0000,0.0000
v_graffiti_1_6,viewpoint,470,6,34.77,418.9082,0.0149,0.0234,0.0255,0,0,0,0.0000,0.0000,0.0000,0.0000
v_home_1_2,viewpoint,443,264,28.29,0.6446,0.5959,0.6095,0.6140,1,1,1,0.3554,0.7851,0.8711,0.9355
v_home_1_3,viewpoint,375,137,28.30,2.2723,0.3573,0.3947,0.4053,1,1,1,0.0000,0.2426,0.5455,0.7728
v_home_1_4,viewpoint,439,285,28.98,0.5011,0.6492,0.6629,0.6674,1,1,1,0.4989,0.8330,0.8998,0.9499
v_home_1_5,viewpoint,323,85,29.84,6.1315,0.2693,0.2910,0.3220,0,0,1,0.0000,0.0000,0.0000,0.3869
v_home_1_6,viewpoint,491,380,27.64,0.5571,0.7739,0.7760,0.7760,1,1,1,0.4429,0.8143,0.8886,0.9443
v_laptop_1_2,viewpoint,452,407,26.90,0.1635,0.9004,0.9049,0.9093,1,1,1,0.8365,0.9455,0.9673,0.9837
v_laptop_1_3,viewpoint,319,273,28.97,0.3375,0.8558,0.8589,0.8589,1,1,1,0.6625,0.8875,0.9325,0.9662
v_laptop_1_4,viewpoint,295,245,26.02,0.3730,0.8305,0.8373,0.8407,1,1,1,0.6270,0.8757,0.9254,0.9627
v_laptop_1_5,viewpoint,312,247,24.61,0.3707,0.7917,0.7981,0.8013,1,1,1,0.6293,0.8764,0.9259,0.9629
v_laptop_1_6,viewpoint,359,308,29.47,0.5132,0.8579,0.8607,0.8635,1,1,1,0.4868,0.8289,0.8974,0.9487
v_london_1_2,viewpoint,1089,867,37.34,0.0498,0.7961,0.8044,0.8053,1,1,1,0.9502,0.9834,0.9900,0.9950
v_london_1_3,viewpoint,1076,830,54.61,0.1474,0.7714,0.7760,0.7760,1,1,1,0.8526,0.9509,0.9705,0.9853
v_london_1_4,viewpoint,967,667,32.07,0.4499,0.6887,0.6970,0.6980,1,1,1,0.5501,0.8500,0.9100,0.9550
v_london_1_5,viewpoint,1114,916,32.09,0.2571,0.8223,0.8241,0.8259,1,1,1,0.7429,0.9143,0.9486,0.9743
v_london_1_6,viewpoint,1147,941,31.75,0.1963,0.8204,0.8256,0.8282,1,1,1,0.8037,0.9346,0.9607,0.9804
v_machines_1_2,viewpoint,698,510,27.66,0.7027,0.7292,0.7550,0.7665,1,1,1,0.2973,0.7658,0.8595,0.9297
v_machines_1_3,viewpoint,430,179,32.01,2.5500,0.4116,0.4326,0.4465,1,1,1,0.0000,0.1500,0.4900,0.7450
v_machines_1_4,viewpoint,580,425,28.37,0.6582,0.7362,0.7483,0.7586,1,1,1,0.3418,0.7806,0.8684,0.9342
v_machines_1_5,viewpoint,391,160,32.01,2.2309,0.3913,0.4425,0.4527,1,1,1,0.0000,0.2564,0.5538,0.7769
v_machines_1_6,viewpoint,589,462,31.87,0.1716,0.7861,0.7946,0.7997,1,1,1,0.8284,0.9428,0.9657,0.9828
v_man_1_2,viewpoint,639,480,30.73,1.5674,0.7465,0.7668,0.7778,1,1,1,0.0000,0.4775,0.6865,0.8433
v_man_1_3,viewpoint,449,219,32.27,5.8021,0.4744,0.5100,0.5167,0,0,1,0.0000,0.0000,0.0000,0.4198
v_man_1_4,viewpoint,308,103,29.97,1.8137,0.3279,0.3571,0.3734,1,1,1,0.0000,0.3954,0.6373,0.8186
v_man_1_5,viewpoint,514,390,28.05,1.7998,0.7568,0.7763,0.7821,1,1,1,0.0000,0.4001,0.6400,0.8200
v_man_1_6,viewpoint,578,424,28.78,0.8054,0.7336,0.7491,0.7526,1,1,1,0.1946,0.7315,0.8389,0.9195
v_maskedman_1_2,viewpoint,165,105,20.41,1.4026,0.6364,0.6606,0.6606,1,1,1,0.0000,0.5325,0.7195,0.8597
v_maskedman_1_3,viewpoint,145,91,20.85,1.2574,0.6276,0.6276,0.6276,1,1,1,0.0000,0.5809,0.7485,0.8743
v_maskedman_1_4,viewpoint,217,144,20.96,1.3877,0.6636,0.7051,0.7097,1,1,1,0.0000,0.5374,0.7225,0.8612
v_maskedman_1_5,viewpoint,232,186,19.01,1.3057,0.8060,0.8276,0.8276,1,1,1,0.0000,0.5648,0.7389,0.8694
v_maskedman_1_6,viewpoint,161,23,19.33,15.2299,0.1366,0.1429,0.1429,0,0,0,0.0000,0.0000,0.0000,0.0000
v_pomegranate_1_2,viewpoint,872,696,32.49,0.4095,0.7959,0.8131,0.8222,1,1,1,0.5905,0.8635,0.9181,0.9590
v_pomegranate_1_3,viewpoint,708,535,30.46,0.8137,0.7528,0.7754,0.7811,1,1,1,0.1863,0.7288,0.8373,0.9186
v_pomegranate_1_4,viewpoint,583,452,29.74,0.3301,0.7753,0.7873,0.7907,1,1,1,0.6699,0.8900,0.9340,0.9670
v_pomegranate_1_5,viewpoint,742,594,30.04,0.8268,0.7978,0.8140,0.8181,1,1,1,0.1732,0.7244,0.8346,0.9173
v_pomegranate_1_6,viewpoint,705,558,30.96,0.4992,0.7929,0.8071,0.8099,1,1,1,0.5008,0.8336,0.9002,0.9501
v_posters_1_2,viewpoint,709,274,47.14,114.8439,0.0000,0.0000,0.0000,0,0,0,0.0000,0.0000,0.0000,0.0000
v_posters_1_3,viewpoint,794,381,43.77,120.7590,0.0000,0.0000,0.0013,0,0,0,0.0000,0.0000,0.0000,0.0000
v_posters_1_4,viewpoint,772,384,44.54,112.2602,0.0000,0.0000,0.0000,0,0,0,0.0000,0.0000,0.0000,0.0000
v_posters_1_5,viewpoint,629,122,43.82,124.6169,0.0000,0.0000,0.0000,0,0,0,0.0000,0.0000,0.0000,0.0000
v_posters_1_6,viewpoint,666,98,44.65,147.8603,0.0000,0.0015,0.0015,0,0,0,0.0000,0.0000,0.0000,0.0000
v_samples_1_2,viewpoint,824,615,42.07,68.0062,0.0012,0.0012,0.0024,0,0,0,0.0000,0.0000,0.0000,0.0000
v_samples_1_3,viewpoint,840,637,42.68,72.3953,0.0012,0.0012,0.0012,0,0,0,0.0000,0.0000,0.0000,0.0000
v_samples_1_4,viewpoint,735,476,45.75,71.9585,0.0000,0.0000,0.0041,0,0,0,0.0000,0.0000,0.0000,0.0000
v_samples_1_5,viewpoint,795,619,41.84,80.5021,0.0013,0.0013,0.0013,0,0,0,0.0000,0.0000,0.0000,0.0000
v_samples_1_6,viewpoint,724,429,41.16,67.3616,0.0000,0.0000,0.0041,0,0,0,0.0000,0.0000,0.0000,0.0000
v_soldiers_1_2,viewpoint,185,152,25.54,0.4604,0.8216,0.8216,0.8378,1,1,1,0.5396,0.8465,0.9079,0.9540
v_soldiers_1_3,viewpoint,194,147,25.53,0.8681,0.7577,0.7680,0.7784,1,1,1,0.1319,0.7106,0.8264,0.9132
v_soldiers_1_4,viewpoint,179,101,25.20,0.9470,0.5642,0.5642,0.5866,1,1,1,0.0530,0.6843,0.8106,0.9053
v_soldiers_1_5,viewpoint,162,69,25.74,5.4271,0.4259,0.4321,0.4444,0,0,1,0.0000,0.0000,0.0000,0.4573
v_soldiers_1_6,viewpoint,224,144,26.03,97.3297,0.0000,0.0045,0.0045,0,0,0,0.0000,0.0000,0.0000,0.0000
v_strand_1_2,viewpoint,690,626,29.55,0.2268,0.9072,0.9116,0.9145,1,1,1,0.7732,0.9244,0.9546,0.9773
v_strand_1_3,viewpoint,503,390,38.06,1.0516,0.7475,0.7972,0.7972,1,1,1,0.0000,0.6495,0.7897,0.8948
v_strand_1_4,viewpoint,565,465,29.71,1.8915,0.8159,0.8354,0.8389,1,1,1,0.0000,0.3695,0.6217,0.8108
v_strand_1_5,viewpoint,427,324,27.53,2.3040,0.7588,0.7728,0.7892,1,1,1,0.0000,0.2320,0.5392,0.7696
v_strand_1_6,viewpoint,383,270,27.08,3.1378,0.6632,0.7258,0.7493,0,1,1,0.0000,0.0000,0.3724,0.6862
v_sunseason_1_2,viewpoint,1151,839,29.22,0.0953,0.7289,0.7333,0.7341,1,1,1,0.9047,0.9682,0.9809,0.9905
v_sunseason_1_3,viewpoint,973,586,31.82,0.1600,0.6023,0.6043,0.6053,1,1,1,0.8400,0.9467,0.9680,0.9840
v_sunseason_1_4,viewpoint,771,281,30.38,0.5592,0.3632,0.3709,0.3761,1,1,1,0.4408,0.8136,0.8882,0.9441
v_sunseason_1_5,viewpoint,752,211,30.30,0.9233,0.2832,0.2899,0.2899,1,1,1,0.0767,0.6922,0.8153,0.9077
v_sunseason_1_6,viewpoint,642,90,32.63,1.0959,0.1402,0.1464,0.1464,1,1,1,0.0000,0.6347,0.7808,0.8904
v_tabletop_1_2,viewpoint,966,641,34.05,0.2375,0.6625,0.6718,0.6749,1,1,1,0.7625,0.9208,0.9525,0.9763
v_tabletop_1_3,viewpoint,731,127,33.46,0.7658,0.1724,0.1888,0.1929,1,1,1,0.2342,0.7447,0.8468,0.9234
v_tabletop_1_4,viewpoint,713,97,33.61,1.1538,0.1346,0.1388,0.1431,1,1,1,0.0000,0.6154,0.7692,0.8846
v_tabletop_1_5,viewpoint,707,120,33.53,1.3021,0.1683,0.1754,0.1796,1,1,1,0.0000,0.5660,0.7396,0.8698
v_tabletop_1_6,viewpoint,710,113,33.13,0.8148,0.1592,0.1620,0.1676,1,1,1,0.1852,0.7284,0.8370,0.9185
v_tempera_1_2,viewpoint,284,239,27.13,0.3735,0.8415,0.8521,0.8627,1,1,1,0.6265,0.8755,0.9253,0.9626
v_tempera_1_3,viewpoint,271,194,25.82,0.6000,0.7122,0.7491,0.7565,1,1,1,0.4000,0.8000,0.8800,0.9400
v_tempera_1_4,viewpoint,259,188,25.21,0.3528,0.7181,0.7297,0.7490,1,1,1,0.6472,0.8824,0.9294,0.9647
v_tempera_1_5,viewpoint,249,132,25.46,1.4685,0.5221,0.5542,0.5703,1,1,1,0.0000,0.5105,0.7063,0.8532
v_tempera_1_6,viewpoint,136,36,26.11,3.0642,0.2500,0.2721,0.2721,0,1,1,0.0000,0.0000,0.3872,0.6936
v_there_1_2,viewpoint,159,113,24.35,0.7137,0.7107,0.7610,0.7799,1,1,1,0.2863,0.7621,0.8573,0.9286
v_there_1_3,viewpoint,125,7,22.66,153.3399,0.1280,0.1600,0.1680,0,0,0,0.0000,0.0000,0.0000,0.0000
v_there_1_4,viewpoint,122,7,23.68,298.9772,0.0246,0.0246,0.0246,0,0,0,0.0000,0.0000,0.0000,0.0000
v_there_1_5,viewpoint,120,7,22.78,198.1391,0.0000,0.0000,0.0000,0,0,0,0.0000,0.0000,0.0000,0.0000
v_there_1_6,viewpoint,125,8,23.08,246.1112,0.0000,0.0000,0.0000,0,0,0,0.0000,0.0000,0.0000,0.0000
v_underground_1_2,viewpoint,1183,1014,30.98,0.1088,0.8571,0.8588,0.8605,1,1,1,0.8912,0.9637,0.9782,0.9891
v_underground_1_3,viewpoint,779,510,28.69,0.2710,0.6547,0.6624,0.6675,1,1,1,0.7290,0.9097,0.9458,0.9729
v_underground_1_4,viewpoint,533,273,27.01,1.0816,0.5103,0.5253,0.5385,1,1,1,0.0000,0.6395,0.7837,0.8918
v_underground_1_5,viewpoint,399,102,27.08,6.2366,0.2581,0.2707,0.2957,0,0,1,0.0000,0.0000,0.0000,0.3763
v_underground_1_6,viewpoint,314,37,25.54,2.6486,0.1115,0.1306,0.1338,1,1,1,0.0000,0.1171,0.4703,0.7351
v_vitro_1_2,viewpoint,1105,873,33.54,0.1492,0.7900,0.7928,0.7937,1,1,1,0.8508,0.9503,0.9702,0.9851
v_vitro_1_3,viewpoint,910,585,32.89,0.2520,0.6429,0.6484,0.6495,1,1,1,0.7480,0.9160,0.9496,0.9748
v_vitro_1_4,viewpoint,678,324,31.78,0.3599,0.4779,0.4808,0.4808,1,1,1,0.6401,0.8800,0.9280,0.9640
v_vitro_1_5,viewpoint,1005,770,32.78,0.2622,0.7662,0.7721,0.7721,1,1,1,0.7378,0.9126,0.9476,0.9738
v_vitro_1_6,viewpoint,801,477,33.37,0.4902,0.5955,0.6042,0.6055,1,1,1,0.5098,0.8366,0.9020,0.9510
v_wall_1_2,viewpoint,280,229,24.33,0.6115,0.8179,0.8286,0.8286,1,1,1,0.3885,0.7962,0.8777,0.9389
v_wall_1_3,viewpoint,263,190,23.67,0.5580,0.7148,0.7262,0.7300,1,1,1,0.4420,0.8140,0.8884,0.9442
v_wall_1_4,viewpoint,320,275,23.40,0.3174,0.8594,0.8688,0.8688,1,1,1,0.6826,0.8942,0.9365,0.9683
v_wall_1_5,viewpoint,268,152,22.68,1.2798,0.5597,0.6119,0.6157,1,1,1,0.0000,0.5734,0.7440,0.8720
v_wall_1_6,viewpoint,275,168,22.85,1.4688,0.6109,0.6255,0.6255,1,1,1,0.0000,0.5104,0.7062,0.8531
v_wapping_1_2,viewpoint,415,239,25.65,0.8046,0.5759,0.6048,0.6169,1,1,1,0.1954,0.7318,0.8391,0.9195
v_wapping_1_3,viewpoint,350,117,25.41,0.7474,0.3286,0.3714,0.3857,1,1,1,0.2526,0.7509,0.8505,0.9253
v_wapping_1_4,viewpoint,299,91,24.66,1.2852,0.2943,0.3244,0.3311,1,1,1,0.0000,0.5716,0.7430,0.8715
v_wapping_1_5,viewpoint,308,63,25.46,1.7642,0.1981,0.2240,0.2370,1,1,1,0.0000,0.4119,0.6472,0.8236
v_wapping_1_6,viewpoint,255,21,25.70,5.4996,0.0824,0.0902,0.1020,0,0,1,0.0000,0.0000,0.0000,0.4500
v_war_1_2,viewpoint,590,288,29.46,0.9427,0.4915,0.5271,0.5390,1,1,1,0.0573,0.6858,0.8115,0.9057
v_war_1_3,viewpoint,442,132,29.03,1.7389,0.2851,0.3258,0.3303,1,1,1,0.0000,0.4204,0.6522,0.8261
v_war_1_4,viewpoint,766,575,28.99,0.3920,0.7493,0.7559,0.7598,1,1,1,0.6080,0.8693,0.9216,0.9608
v_war_1_5,viewpoint,659,462,29.33,0.3104,0.7011,0.7147,0.7162,1,1,1,0.6896,0.8965,0.9379,0.9690
v_war_1_6,viewpoint,373,100,27.07,2.9379,0.2654,0.2761,0.2788,1,1,1,0.0000,0.0207,0.4124,0.7062
v_weapons_1_2,viewpoint,689,563,29.99,0.2207,0.8157,0.8287,0.8316,1,1,1,0.7793,0.9264,0.9559,0.9779
v_weapons_1_3,viewpoint,533,360,29.56,0.9067,0.6754,0.6867,0.6904,1,1,1,0.0933,0.6978,0.8187,0.9093
v_weapons_1_4,viewpoint,629,479,28.42,0.3241,0.7615,0.7711,0.7790,1,1,1,0.6759,0.8920,0.9352,0.9676
v_weapons_1_5,viewpoint,558,458,28.21,0.5205,0.8226,0.8315,0.8333,1,1,1,0.4795,0.8265,0.8959,0.9479
v_weapons_1_6,viewpoint,456,338,29.79,0.9349,0.7412,0.7588,0.7654,1,1,1,0.0651,0.6884,0.8130,0.9065
v_woman_1_2,viewpoint,330,175,26.78,46.4959,0.0000,0.0000,0.0000,0,0,0,0.0000,0.0000,0.0000,0.0000
v_woman_1_3,viewpoint,306,185,28.05,49.4651,0.0000,0.0000,0.0000,0,0,0,0.0000,0.0000,0.0000,0.0000
v_woman_1_4,viewpoint,286,120,26.40,50.1382,0.0000,0.0000,0.0000,0,0,0,0.0000,0.0000,0.0000,0.0000
v_woman_1_5,viewpoint,301,100,26.84,44.3883,0.0000,0.0000,0.0000,0,0,0,0.0000,0.0000,0.0000,0.0000
v_woman_1_6,viewpoint,240,69,26.43,47.8257,0.0000,0.0000,0.0000,0,0,0,0.0000,0.0000,0.0000,0.0000
v_wormhole_1_2,viewpoint,784,522,28.20,0.3564,0.6658,0.6709,0.6773,1,1,1,0.6436,0.8812,0.9287,0.9644
v_wormhole_1_3,viewpoint,742,568,31.35,0.7072,0.7642,0.7763,0.7898,1,1,1,0.2928,0.7643,0.8586,0.9293
v_wormhole_1_4,viewpoint,821,684,27.64,0.7294,0.8319,0.8429,0.8490,1,1,1,0.2706,0.7569,0.8541,0.9271
v_wormhole_1_5,viewpoint,636,356,29.20,3.1480,0.5597,0.5818,0.5896,0,1,1,0.0000,0.0000,0.3704,0.6852
v_wormhole_1_6,viewpoint,488,97,27.19,4.7844,0.1496,0.2131,0.2213,0,1,1,0.0000,0.0000,0.0431,0.5216
v_wounded_1_2,viewpoint,276,210,27.41,0.4893,0.7609,0.7645,0.7681,1,1,1,0.5107,0.8369,0.9021,0.9511
v_wounded_1_3,viewpoint,212,109,25.43,2.7164,0.5142,0.5566,0.5566,1,1,1,0.0000,0.0945,0.4567,0.7284
v_wounded_1_4,viewpoint,103,14,24.39,24.2069,0.1165,0.1262,0.1359,0,0,0,0.0000,0.0000,0.0000,0.0000
v_wounded_1_5,viewpoint,202,101,25.38,3.1033,0.4950,0.5198,0.5248,0,1,1,0.0000,0.0000,0.3793,0.6897
v_wounded_1_6,viewpoint,126,31,24.36,8.8307,0.2460,0.2619,0.2698,0,0,0,0.0000,0.0000,0.0000,0.1169
v_yard_1_2,viewpoint,916,669,30.89,0.2010,0.7303,0.7434,0.7456,1,1,1,0.7990,0.9330,0.9598,0.9799
v_yard_1_3,viewpoint,678,315,31.27,0.8993,0.4558,0.4779,0.4779,1,1,1,0.1007,0.7002,0.8201,0.9101
v_yard_1_4,viewpoint,802,519,32.11,0.3427,0.6496,0.6608,0.6658,1,1,1,0.6573,0.8858,0.9315,0.9657
v_yard_1_5,viewpoint,667,258,32.04,1.4949,0.3853,0.4168,0.4213,1,1,1,0.0000,0.5017,0.7010,0.8505
v_yard_1_6,viewpoint,489,61,30.03,5.6970,0.1309,0.1534,0.1616,0,0,1,0.0000,0.0000,0.0000,0.4303
v_yuri_1_2,viewpoint,185,121,26.54,1.3743,0.6595,0.6811,0.6865,1,1,1,0.0000,0.5419,0.7251,0.8626
v_yuri_1_3,viewpoint,181,126,25.27,2.9341,0.6906,0.7293,0.7459,1,1,1,0.0000,0.0220,0.4132,0.7066
v_yuri_1_4,viewpoint,156,62,25.88,65.6522,0.3654,0.4295,0.4615,0,0,0,0.0000,0.0000,0.0000,0.0000
v_yuri_1_5,viewpoint,194,142,25.42,1.8626,0.7320,0.7680,0.7732,1,1,1,0.0000,0.3791,0.6275,0.8137
v_yuri_1_6,viewpoint,161,82,25.93,20.1233,0.5031,0.5280,0.5404,0,0,0,0.0000,0.0000,0.0000,0.0000
