PairName,SeqType,NumMatches,Inliers,TimeMS,H_Error,MMA@3,MMA@5,MMA@7,MHA_Acc@3,MHA_Acc@5,MHA_Acc@7,AUC@1,AUC@3,AUC@5,AUC@10
i_ajuntament_1_2,illumination,763,710,239.68,0.2422,0.9266,0.9541,0.9738,1,1,1,0.7578,0.9193,0.9516,0.9758
i_ajuntament_1_3,illumination,583,474,6.64,1.1649,0.7839,0.8748,0.9074,1,1,1,0.0000,0.6117,0.7670,0.8835
i_ajuntament_1_4,illumination,440,225,6.46,1.3571,0.4977,0.6068,0.6614,1,1,1,0.0000,0.5476,0.7286,0.8643
i_ajuntament_1_5,illumination,440,234,6.42,0.9989,0.5205,0.6250,0.7182,1,1,1,0.0011,0.6670,0.8002,0.9001
i_ajuntament_1_6,illumination,464,249,6.43,2.1670,0.5259,0.6358,0.6983,1,1,1,0.0000,0.2777,0.5666,0.7833
i_autannes_1_2,illumination,626,552,15.60,0.0000,0.8850,0.9345,0.9601,1,1,1,1.0000,1.0000,1.0000,1.0000
i_autannes_1_3,illumination,601,499,6.80,0.4508,0.8270,0.8869,0.9235,1,1,1,0.5492,0.8497,0.9098,0.9549
i_autannes_1_4,illumination,694,513,7.45,1.4427,0.7277,0.8617,0.9049,1,1,1,0.0000,0.5191,0.7115,0.8557
i_autannes_1_5,illumination,689,508,7.26,2.3904,0.7257,0.8331,0.8839,1,1,1,0.0000,0.2032,0.5219,0.7610
i_autannes_1_6,illumination,645,532,6.64,1.0924,0.8217,0.9101,0.9364,1,1,1,0.0000,0.6359,0.7815,0.8908
i_bologna_1_2,illumination,942,881,13.07,0.1750,0.9352,0.9713,0.9841,1,1,1,0.8250,0.9417,0.9650,0.9825
i_bologna_1_3,illumination,872,782,6.46,0.5337,0.8911,0.9427,0.9679,1,1,1,0.4663,0.8221,0.8933,0.9466
i_bologna_1_4,illumination,904,807,6.60,0.7780,0.8916,0.9469,0.9657,1,1,1,0.2220,0.7407,0.8444,0.9222
i_bologna_1_5,illumination,883,800,6.68,0.7727,0.9071,0.9604,0.9717,1,1,1,0.2273,0.7424,0.8455,0.9227
i_bologna_1_6,illumination,865,763,6.88,0.6847,0.8740,0.9434,0.9665,1,1,1,0.3153,0.7718,0.8631,0.9315
i_books_1_2,illumination,577,546,9.77,0.2186,0.9463,0.9671,0.9688,1,1,1,0.7814,0.9271,0.9563,0.9781
i_books_1_3,illumination,702,650,6.44,0.0000,0.9274,0.9601,0.9815,1,1,1,1.0000,1.0000,1.0000,1.0000
i_books_1_4,illumination,717,665,6.70,0.1689,0.9261,0.9596,0.9861,1,1,1,0.8311,0.9437,0.9662,0.9831
i_books_1_5,illumination,717,671,6.48,0.0000,0.9358,0.9651,0.9749,1,1,1,1.0000,1.0000,1.0000,1.0000
i_books_1_6,illumination,656,612,6.04,0.3344,0.9314,0.9558,0.9634,1,1,1,0.6656,0.8885,0.9331,0.9666
i_boutique_1_2,illumination,971,886,7.30,0.0000,0.9156,0.9485,0.9609,1,1,1,1.0000,1.0000,1.0000,1.0000
i_boutique_1_3,illumination,1009,909,7.88,0.3212,0.8831,0.9366,0.9623,1,1,1,0.6788,0.8929,0.9358,0.9679
i_boutique_1_4,illumination,997,889,7.75,0.4029,0.8726,0.9338,0.9468,1,1,1,0.5971,0.8657,0.9194,0.9597
i_boutique_1_5,illumination,849,653,8.84,0.5755,0.7562,0.8528,0.8857,1,1,1,0.4245,0.8082,0.8849,0.9424
i_boutique_1_6,illumination,830,648,9.39,0.4794,0.7627,0.8639,0.8976,1,1,1,0.5206,0.8402,0.9041,0.9521
i_bridger_1_2,illumination,1152,1007,15.91,0.4620,0.8576,0.9392,0.9722,1,1,1,0.5380,0.8460,0.9076,0.9538
i_bridger_1_3,illumination,1110,949,9.30,0.5218,0.8450,0.9315,0.9577,1,1,1,0.4782,0.8261,0.8956,0.9478
i_bridger_1_4,illumination,977,851,7.83,0.2965,0.8659,0.9304,0.9560,1,1,1,0.7035,0.9012,0.9407,0.9704
i_bridger_1_5,illumination,847,710,6.84,0.6094,0.8347,0.9138,0.9469,1,1,1,0.3906,0.7969,0.8781,0.9391
i_bridger_1_6,illumination,470,313,6.75,1.6958,0.6511,0.7574,0.8298,1,1,1,0.0000,0.4347,0.6608,0.8304
i_brooklyn_1_2,illumination,1353,1179,9.18,0.3123,0.8729,0.9372,0.9638,1,1,1,0.6877,0.8959,0.9375,0.9688
i_brooklyn_1_3,illumination,1392,1271,10.23,1.2426,0.8901,0.9540,0.9792,1,1,1,0.0000,0.5858,0.7515,0.8757
i_brooklyn_1_4,illumination,1155,928,9.57,1.0621,0.7991,0.8840,0.9229,1,1,1,0.0000,0.6460,0.7876,0.8938
i_brooklyn_1_5,illumination,1359,1230,8.68,1.4475,0.8756,0.9566,0.9823,1,1,1,0.0000,0.5175,0.7105,0.8553
i_brooklyn_1_6,illumination,1302,1118,8.65,1.4852,0.8295,0.9255,0.9524,1,1,1,0.0000,0.5049,0.7030,0.8515
i_castle_1_2,illumination,1418,1111,14.07,1.0288,0.7715,0.8590,0.9027,1,1,1,0.0000,0.6571,0.7942,0.8971
i_castle_1_3,illumination,1439,1273,9.57,0.3565,0.8853,0.9395,0.9611,1,1,1,0.6435,0.8812,0.9287,0.9643
i_castle_1_4,illumination,1295,1140,8.96,0.5456,0.8649,0.9413,0.9668,1,1,1,0.4544,0.8181,0.8909,0.9454
i_castle_1_5,illumination,1191,921,8.89,0.8686,0.7691,0.8581,0.8892,1,1,1,0.1314,0.7105,0.8263,0.9131
i_castle_1_6,illumination,1183,874,9.49,0.7343,0.7320,0.8233,0.8690,1,1,1,0.2657,0.7552,0.8531,0.9266
i_chestnuts_1_2,illumination,1149,1043,7.83,0.1847,0.9043,0.9556,0.9791,1,1,1,0.8153,0.9384,0.9631,0.9815
i_chestnuts_1_3,illumination,1147,1031,8.46,0.0000,0.9006,0.9433,0.9738,1,1,1,1.0000,1.0000,1.0000,1.0000
i_chestnuts_1_4,illumination,1118,1002,8.28,0.1412,0.8998,0.9428,0.9741,1,1,1,0.8588,0.9529,0.9718,0.9859
i_chestnuts_1_5,illumination,1067,939,8.18,0.3707,0.8857,0.9288,0.9569,1,1,1,0.6293,0.8764,0.9259,0.9629
i_chestnuts_1_6,illumination,965,838,7.40,0.2959,0.8601,0.9264,0.9482,1,1,1,0.7041,0.9014,0.9408,0.9704
i_crownday_1_2,illumination,978,716,8.29,0.8497,0.7239,0.8323,0.8967,1,1,1,0.1503,0.7168,0.8301,0.9150
i_crownday_1_3,illumination,1061,879,8.17,0.6609,0.8228,0.9076,0.9491,1,1,1,0.3391,0.7797,0.8678,0.9339
i_crownday_1_4,illumination,1114,944,8.46,0.5237,0.8411,0.9210,0.9542,1,1,1,0.4763,0.8254,0.8953,0.9476
i_crownday_1_5,illumination,1162,1035,8.37,0.5232,0.8916,0.9415,0.9742,1,1,1,0.4768,0.8256,0.8954,0.9477
i_crownday_1_6,illumination,961,699,7.92,0.3725,0.7284,0.8429,0.9063,1,1,1,0.6275,0.8758,0.9255,0.9628
i_dome_1_2,illumination,1381,1317,8.91,0.1620,0.9529,0.9739,0.9790,1,1,1,0.8380,0.9460,0.9676,0.9838
i_dome_1_3,illumination,886,674,7.87,1.2701,0.7585,0.8330,0.8657,1,1,1,0.0000,0.5766,0.7460,0.8730
i_dome_1_4,illumination,893,674,8.43,0.6720,0.7525,0.8231,0.8611,1,1,1,0.3280,0.7760,0.8656,0.9328
i_dome_1_5,illumination,874,685,8.04,0.7760,0.7803,0.8444,0.8776,1,1,1,0.2240,0.7413,0.8448,0.9224
i_dome_1_6,illumination,1144,973,8.25,0.5803,0.8505,0.8960,0.9187,1,1,1,0.4197,0.8066,0.8839,0.9420
i_duda_1_2,illumination,658,651,5.29,0.2365,0.9863,0.9970,0.9985,1,1,1,0.7635,0.9212,0.9527,0.9763
i_duda_1_3,illumination,634,618,5.22,0.2376,0.9732,0.9874,0.9968,1,1,1,0.7624,0.9208,0.9525,0.9762
i_duda_1_4,illumination,594,574,5.26,0.2503,0.9663,0.9899,0.9949,1,1,1,0.7497,0.9166,0.9499,0.9750
i_duda_1_5,illumination,562,535,5.22,0.3182,0.9555,0.9822,0.9893,1,1,1,0.6818,0.8939,0.9364,0.9682
i_duda_1_6,illumination,461,428,5.00,0.7795,0.9241,0.9718,0.9892,1,1,1,0.2205,0.7402,0.8441,0.9221
i_fenis_1_2,illumination,1407,1284,8.39,0.3968,0.9112,0.9645,0.9851,1,1,1,0.6032,0.8677,0.9206,0.9603
i_fenis_1_3,illumination,1302,1131,8.73,0.5024,0.8687,0.9332,0.9631,1,1,1,0.4976,0.8325,0.8995,0.9498
i_fenis_1_4,illumination,876,531,8.13,1.0208,0.5913,0.7317,0.7877,1,1,1,0.0000,0.6597,0.7958,0.8979
i_fenis_1_5,illumination,808,465,7.65,1.1805,0.5495,0.6819,0.7562,1,1,1,0.0000,0.6065,0.7639,0.8819
i_fenis_1_6,illumination,873,595,8.18,0.9274,0.6518,0.7537,0.8121,1,1,1,0.0726,0.6909,0.8145,0.9073
i_fog_1_2,illumination,945,860,7.33,0.3202,0.9132,0.9503,0.9704,1,1,1,0.6798,0.8933,0.9360,0.9680
i_fog_1_3,illumination,783,667,6.50,0.4652,0.8519,0.9183,0.9502,1,1,1,0.5348,0.8449,0.9070,0.9535
i_fog_1_4,illumination,681,572,6.31,0.5226,0.8355,0.9001,0.9266,1,1,1,0.4774,0.8258,0.8955,0.9477
i_fog_1_5,illumination,421,331,6.55,0.4505,0.7862,0.8124,0.8266,1,1,1,0.5495,0.8498,0.9099,0.9549
i_fog_1_6,illumination,354,258,6.01,0.8738,0.7288,0.7740,0.7938,1,1,1,0.1262,0.7087,0.8252,0.9126
i_fruits_1_2,illumination,1161,1050,15.31,0.1895,0.9044,0.9552,0.9793,1,1,1,0.8105,0.9368,0.9621,0.9811
i_fruits_1_3,illumination,1154,1004,9.04,0.1653,0.8692,0.9298,0.9653,1,1,1,0.8347,0.9449,0.9669,0.9835
i_fruits_1_4,illumination,1145,1008,8.98,0.2795,0.8742,0.9310,0.9616,1,1,1,0.7205,0.9068,0.9441,0.9720
i_fruits_1_5,illumination,1141,989,9.32,0.3880,0.8545,0.9351,0.9614,1,1,1,0.6120,0.8707,0.9224,0.9612
i_fruits_1_6,illumination,1159,1016,9.11,0.3438,0.8697,0.9413,0.9655,1,1,1,0.6562,0.8854,0.9312,0.9656
i_gonnenberg_1_2,illumination,1153,1041,7.74,0.0000,0.9046,0.9289,0.9445,1,1,1,1.0000,1.0000,1.0000,1.0000
i_gonnenberg_1_3,illumination,1145,1034,8.26,0.9418,0.9022,0.9328,0.9581,1,1,1,0.0582,0.6861,0.8116,0.9058
i_gonnenberg_1_4,illumination,1103,988,8.19,0.6953,0.8903,0.9347,0.9565,1,1,1,0.3047,0.7682,0.8609,0.9305
i_gonnenberg_1_5,illumination,1115,1001,8.04,0.3530,0.8942,0.9283,0.9426,1,1,1,0.6470,0.8823,0.9294,0.9647
i_gonnenberg_1_6,illumination,1117,1006,8.27,0.2310,0.8997,0.9302,0.9436,1,1,1,0.7690,0.9230,0.9538,0.9769
i_greenhouse_1_2,illumination,1472,1305,10.58,0.2913,0.8906,0.9497,0.9660,1,1,1,0.7087,0.9029,0.9417,0.9709
i_greenhouse_1_3,illumination,1539,1337,10.68,0.4317,0.8713,0.9240,0.9506,1,1,1,0.5683,0.8561,0.9137,0.9568
i_greenhouse_1_4,illumination,1478,1262,9.88,0.6330,0.8525,0.9161,0.9432,1,1,1,0.3670,0.7890,0.8734,0.9367
i_greenhouse_1_5,illumination,1475,1257,9.88,0.6015,0.8468,0.9085,0.9424,1,1,1,0.3985,0.7995,0.8797,0.9398
i_greenhouse_1_6,illumination,1362,1092,10.20,0.8078,0.7996,0.8869,0.9178,1,1,1,0.1922,0.7307,0.8384,0.9192
i_greentea_1_2,illumination,1049,961,7.92,0.2243,0.9171,0.9504,0.9628,1,1,1,0.7757,0.9252,0.9551,0.9776
i_greentea_1_3,illumination,1201,1140,8.98,0.0000,0.9542,0.9750,0.9825,1,1,1,1.0000,1.0000,1.0000,1.0000
i_greentea_1_4,illumination,1223,1173,9.25,0.0815,0.9624,0.9796,0.9869,1,1,1,0.9185,0.9728,0.9837,0.9919
i_greentea_1_5,illumination,1172,1133,8.36,0.0000,0.9684,0.9795,0.9855,1,1,1,1.0000,1.0000,1.0000,1.0000
i_greentea_1_6,illumination,1043,985,7.71,0.1060,0.9425,0.9712,0.9808,1,1,1,0.8940,0.9647,0.9788,0.9894
i_indiana_1_2,illumination,1199,1002,8.34,0.4533,0.8315,0.9174,0.9500,1,1,1,0.5467,0.8489,0.9093,0.9547
i_indiana_1_3,illumination,1188,975,8.18,0.3623,0.8182,0.9066,0.9478,1,1,1,0.6377,0.8792,0.9275,0.9638
i_indiana_1_4,illumination,1164,910,8.53,0.6578,0.7637,0.8591,0.9175,1,1,1,0.3422,0.7807,0.8684,0.9342
i_indiana_1_5,illumination,1145,895,8.47,0.5467,0.7686,0.8681,0.9240,1,1,1,0.4533,0.8178,0.8907,0.9453
i_indiana_1_6,illumination,1126,856,8.37,0.7231,0.7469,0.8570,0.9085,1,1,1,0.2769,0.7590,0.8554,0.9277
i_kions_1_2,illumination,613,512,12.56,0.9088,0.8157,0.8989,0.9315,1,1,1,0.0912,0.6971,0.8182,0.9091
i_kions_1_3,illumination,606,486,6.62,0.6805,0.7921,0.8894,0.9125,1,1,1,0.3195,0.7732,0.8639,0.9320
i_kions_1_4,illumination,517,402,6.33,0.8531,0.7524,0.8878,0.9246,1,1,1,0.1469,0.7156,0.8294,0.9147
i_kions_1_5,illumination,540,411,6.14,0.7259,0.7444,0.8741,0.9167,1,1,1,0.2741,0.7580,0.8548,0.9274
i_kions_1_6,illumination,578,461,5.94,0.6195,0.7803,0.8772,0.9031,1,1,1,0.3805,0.7935,0.8761,0.9381
i_ktirio_1_2,illumination,746,724,5.90,0.2577,0.9718,0.9799,0.9853,1,1,1,0.7423,0.9141,0.9485,0.9742
i_ktirio_1_3,illumination,655,567,6.06,0.6454,0.8595,0.9145,0.9359,1,1,1,0.3546,0.7849,0.8709,0.9355
i_ktirio_1_4,illumination,615,503,6.10,1.1641,0.7984,0.8732,0.9252,1,1,1,0.0000,0.6120,0.7672,0.8836
i_ktirio_1_5,illumination,637,527,5.94,0.7203,0.8148,0.8823,0.9121,1,1,1,0.2797,0.7599,0.8559,0.9280
i_ktirio_1_6,illumination,602,485,6.34,1.0569,0.7924,0.8605,0.9070,1,1,1,0.0000,0.6477,0.7886,0.8943
i_kurhaus_1_2,illumination,1419,1316,8.73,0.2965,0.9274,0.9584,0.9732,1,1,1,0.7035,0.9012,0.9407,0.9704
i_kurhaus_1_3,illumination,1308,1169,8.78,0.3583,0.8930,0.9411,0.9618,1,1,1,0.6417,0.8806,0.9283,0.9642
i_kurhaus_1_4,illumination,1226,1051,8.50,0.2326,0.8581,0.9086,0.9356,1,1,1,0.7674,0.9225,0.9535,0.9767
i_kurhaus_1_5,illumination,1171,971,8.80,0.3025,0.8309,0.8856,0.9120,1,1,1,0.6975,0.8992,0.9395,0.9698
i_kurhaus_1_6,illumination,1120,894,8.58,0.5772,0.7982,0.8580,0.8857,1,1,1,0.4228,0.8076,0.8846,0.9423
i_leuven_1_2,illumination,798,768,6.34,0.7517,0.9637,0.9799,0.9875,1,1,1,0.2483,0.7494,0.8497,0.9248
i_leuven_1_3,illumination,781,761,7.43,0.8902,0.9731,0.9923,0.9987,1,1,1,0.1098,0.7033,0.8220,0.9110
i_leuven_1_4,illumination,769,724,7.44,1.3036,0.9415,0.9701,0.9792,1,1,1,0.0000,0.5655,0.7393,0.8696
i_leuven_1_5,illumination,712,655,7.17,1.2083,0.9213,0.9565,0.9705,1,1,1,0.0000,0.5972,0.7583,0.8792
i_leuven_1_6,illumination,689,623,6.68,6.5434,0.7417,0.8810,0.9303,0,0,1,0.0000,0.0000,0.0000,0.3457
i_lionday_1_2,illumination,989,745,8.59,1.2785,0.7361,0.8311,0.8837,1,1,1,0.0000,0.5738,0.7443,0.8722
i_lionday_1_3,illumination,943,714,8.42,1.4311,0.7370,0.8229,0.8706,1,1,1,0.0000,0.5230,0.7138,0.8569
i_lionday_1_4,illumination,802,387,8.24,2.3088,0.3940,0.5474,0.6409,1,1,1,0.0000,0.2304,0.5382,0.7691
i_lionday_1_5,illumination,862,475,8.43,2.8139,0.4896,0.6473,0.7367,1,1,1,0.0000,0.0620,0.4372,0.7186
i_lionday_1_6,illumination,967,707,8.09,2.2847,0.7053,0.8201,0.8728,1,1,1,0.0000,0.2384,0.5431,0.7715
i_lionnight_1_2,illumination,1354,1149,9.18,1.0365,0.8464,0.8648,0.8737,1,1,1,0.0000,0.6545,0.7927,0.8963
i_lionnight_1_3,illumination,1364,1184,9.07,1.2667,0.8497,0.8944,0.9054,1,1,1,0.0000,0.5778,0.7467,0.8733
i_lionnight_1_4,illumination,1454,1357,9.09,0.8714,0.9257,0.9519,0.9553,1,1,1,0.1286,0.7095,0.8257,0.9129
i_lionnight_1_5,illumination,1419,1207,9.15,1.4885,0.8428,0.8633,0.8689,1,1,1,0.0000,0.5038,0.7023,0.8512
i_lionnight_1_6,illumination,1395,1161,9.29,0.9395,0.8251,0.8466,0.8595,1,1,1,0.0605,0.6868,0.8121,0.9060
i_londonbridge_1_2,illumination,979,934,7.08,1.0768,0.9387,0.9816,0.9908,1,1,1,0.0000,0.6411,0.7846,0.8923
i_londonbridge_1_3,illumination,977,903,7.96,0.9852,0.9263,0.9713,0.9908,1,1,1,0.0148,0.6716,0.8030,0.9015
i_londonbridge_1_4,illumination,947,830,7.96,2.3405,0.8353,0.9483,0.9757,1,1,1,0.0000,0.2198,0.5319,0.7659
i_londonbridge_1_5,illumination,815,542,7.83,2.5371,0.6061,0.7767,0.8748,1,1,1,0.0000,0.1543,0.4926,0.7463
i_londonbridge_1_6,illumination,932,840,8.32,0.6715,0.8895,0.9506,0.9742,1,1,1,0.3285,0.7762,0.8657,0.9329
i_melon_1_2,illumination,628,597,9.93,0.0000,0.9522,0.9793,0.9857,1,1,1,1.0000,1.0000,1.0000,1.0000
i_melon_1_3,illumination,578,512,5.56,0.6681,0.8841,0.9464,0.9567,1,1,1,0.3319,0.7773,0.8664,0.9332
i_melon_1_4,illumination,467,316,6.71,1.3896,0.6724,0.7409,0.7944,1,1,1,0.0000,0.5368,0.7221,0.8610
i_melon_1_5,illumination,582,487,5.46,0.0000,0.8402,0.9021,0.9313,1,1,1,1.0000,1.0000,1.0000,1.0000
i_melon_1_6,illumination,565,452,9.73,1.1130,0.7947,0.8637,0.9115,1,1,1,0.0000,0.6290,0.7774,0.8887
i_miniature_1_2,illumination,1321,1272,8.83,0.2941,0.9591,0.9788,0.9924,1,1,1,0.7059,0.9020,0.9412,0.9706
i_miniature_1_3,illumination,1196,1106,9.06,0.5433,0.9097,0.9557,0.9707,1,1,1,0.4567,0.8189,0.8913,0.9457
i_miniature_1_4,illumination,986,815,8.58,0.7585,0.8144,0.8834,0.9178,1,1,1,0.2415,0.7472,0.8483,0.9242
i_miniature_1_5,illumination,646,480,8.04,0.8145,0.7337,0.8142,0.8576,1,1,1,0.1855,0.7285,0.8371,0.9186
i_miniature_1_6,illumination,1200,1079,9.22,0.7612,0.8867,0.9325,0.9683,1,1,1,0.2388,0.7463,0.8478,0.9239
i_nescafe_1_2,illumination,842,735,6.75,0.7031,0.8741,0.9192,0.9430,1,1,1,0.2969,0.7656,0.8594,0.9297
i_nescafe_1_3,illumination,933,815,7.06,0.0000,0.8778,0.9121,0.9368,1,1,1,1.0000,1.0000,1.0000,1.0000
i_nescafe_1_4,illumination,932,833,6.97,0.0000,0.8991,0.9249,0.9453,1,1,1,1.0000,1.0000,1.0000,1.0000
i_nescafe_1_5,illumination,804,701,6.72,0.2868,0.8682,0.9080,0.9366,1,1,1,0.7132,0.9044,0.9426,0.9713
i_nescafe_1_6,illumination,918,758,7.20,0.2809,0.8257,0.8976,0.9379,1,1,1,0.7191,0.9064,0.9438,0.9719
i_nijmegen_1_2,illumination,1285,1073,8.69,0.9288,0.8218,0.8957,0.9385,1,1,1,0.0712,0.6904,0.8142,0.9071
i_nijmegen_1_3,illumination,1349,1141,8.99,0.7592,0.8295,0.9222,0.9622,1,1,1,0.2408,0.7469,0.8482,0.9241
i_nijmegen_1_4,illumination,968,686,8.22,1.1858,0.6911,0.7934,0.8492,1,1,1,0.0000,0.6047,0.7628,0.8814
i_nijmegen_1_5,illumination,1304,1067,8.75,0.8064,0.7968,0.8842,0.9302,1,1,1,0.1936,0.7312,0.8387,0.9194
i_nijmegen_1_6,illumination,1275,1046,9.03,0.6353,0.8102,0.8855,0.9310,1,1,1,0.3647,0.7882,0.8729,0.9365
i_nuts_1_2,illumination,1150,898,10.09,0.5573,0.7783,0.8713,0.9252,1,1,1,0.4427,0.8142,0.8885,0.9443
i_nuts_1_3,illumination,994,674,9.80,0.0000,0.6821,0.8038,0.8753,1,1,1,1.0000,1.0000,1.0000,1.0000
i_nuts_1_4,illumination,793,534,10.00,0.4095,0.6469,0.7718,0.8386,1,1,1,0.5905,0.8635,0.9181,0.9590
i_nuts_1_5,illumination,699,386,9.28,1.0146,0.5193,0.6681,0.7511,1,1,1,0.0000,0.6618,0.7971,0.8985
i_nuts_1_6,illumination,603,238,9.32,2.1504,0.3682,0.4925,0.5854,1,1,1,0.0000,0.2832,0.5699,0.7850
i_objects_1_2,illumination,1286,1117,8.39,0.5932,0.8639,0.9347,0.9705,1,1,1,0.4068,0.8023,0.8814,0.9407
i_objects_1_3,illumination,1254,1017,8.50,0.9608,0.8038,0.9187,0.9633,1,1,1,0.0392,0.6797,0.8078,0.9039
i_objects_1_4,illumination,1155,838,8.60,0.7714,0.7238,0.8476,0.9177,1,1,1,0.2286,0.7429,0.8457,0.9229
i_objects_1_5,illumination,1185,842,8.65,1.1359,0.6895,0.8287,0.9030,1,1,1,0.0000,0.6214,0.7728,0.8864
i_objects_1_6,illumination,1371,1253,8.46,0.1507,0.9168,0.9650,0.9832,1,1,1,0.8493,0.9498,0.9699,0.9849
i_parking_1_2,illumination,721,624,6.16,0.3400,0.8696,0.9223,0.9501,1,1,1,0.6600,0.8867,0.9320,0.9660
i_parking_1_3,illumination,727,603,6.22,0.3933,0.8377,0.9078,0.9477,1,1,1,0.6067,0.8689,0.9213,0.9607
i_parking_1_4,illumination,636,486,6.25,1.2915,0.7296,0.8349,0.8962,1,1,1,0.0000,0.5695,0.7417,0.8709
i_parking_1_5,illumination,610,375,7.05,0.9445,0.6115,0.7361,0.8148,1,1,1,0.0555,0.6852,0.8111,0.9055
i_parking_1_6,illumination,657,497,6.79,0.7863,0.7473,0.8402,0.8874,1,1,1,0.2137,0.7379,0.8427,0.9214
i_partyfood_1_2,illumination,475,473,4.85,0.2416,0.9958,0.9979,0.9979,1,1,1,0.7584,0.9195,0.9517,0.9758
i_partyfood_1_3,illumination,444,441,4.54,0.2975,0.9932,1.0000,1.0000,1,1,1,0.7025,0.9008,0.9405,0.9702
i_partyfood_1_4,illumination,419,413,4.53,0.4729,0.9857,0.9952,0.9976,1,1,1,0.5271,0.8424,0.9054,0.9527
i_partyfood_1_5,illumination,410,401,4.48,0.5573,0.9805,0.9951,0.9976,1,1,1,0.4427,0.8142,0.8885,0.9443
i_partyfood_1_6,illumination,378,360,4.48,0.9584,0.9497,0.9841,0.9947,1,1,1,0.0416,0.6805,0.8083,0.9042
i_pinard_1_2,illumination,572,533,5.36,0.6893,0.9301,0.9685,0.9808,1,1,1,0.3107,0.7702,0.8621,0.9311
i_pinard_1_3,illumination,552,439,5.51,0.0000,0.7989,0.8551,0.8949,1,1,1,1.0000,1.0000,1.0000,1.0000
i_pinard_1_4,illumination,567,460,5.55,0.4661,0.8113,0.8536,0.8907,1,1,1,0.5339,0.8446,0.9068,0.9534
i_pinard_1_5,illumination,555,474,5.54,0.0000,0.8541,0.9009,0.9315,1,1,1,1.0000,1.0000,1.0000,1.0000
i_pinard_1_6,illumination,564,487,5.43,0.0000,0.8706,0.9220,0.9450,1,1,1,1.0000,1.0000,1.0000,1.0000
i_pool_1_2,illumination,420,280,5.71,0.6615,0.6571,0.7595,0.8119,1,1,1,0.3385,0.7795,0.8677,0.9338
i_pool_1_3,illumination,311,156,5.47,1.7594,0.4887,0.5659,0.6270,1,1,1,0.0000,0.4135,0.6481,0.8241
i_pool_1_4,illumination,318,152,5.43,1.2435,0.4748,0.5472,0.6258,1,1,1,0.0000,0.5855,0.7513,0.8757
i_pool_1_5,illumination,358,222,6.35,0.8188,0.6061,0.6899,0.7346,1,1,1,0.1812,0.7271,0.8362,0.9181
i_pool_1_6,illumination,365,217,6.03,1.0669,0.5890,0.6685,0.7068,1,1,1,0.0000,0.6444,0.7866,0.8933
i_porta_1_2,illumination,964,498,8.18,0.0000,0.5218,0.6929,0.7946,1,1,1,1.0000,1.0000,1.0000,1.0000
i_porta_1_3,illumination,955,513,8.46,0.5607,0.5435,0.7120,0.8157,1,1,1,0.4393,0.8131,0.8879,0.9439
i_porta_1_4,illumination,896,466,8.24,0.8095,0.5167,0.7009,0.7924,1,1,1,0.1905,0.7302,0.8381,0.9191
i_porta_1_5,illumination,439,333,6.13,1.1641,0.7494,0.8610,0.9271,1,1,1,0.0000,0.6120,0.7672,0.8836
i_porta_1_6,illumination,531,291,7.10,0.7059,0.5499,0.6610,0.7571,1,1,1,0.2941,0.7647,0.8588,0.9294
i_resort_1_2,illumination,1186,1045,8.42,0.4089,0.8820,0.9325,0.9629,1,1,1,0.5911,0.8637,0.9182,0.9591
i_resort_1_3,illumination,1168,1110,7.58,0.0000,0.9521,0.9735,0.9846,1,1,1,1.0000,1.0000,1.0000,1.0000
i_resort_1_4,illumination,1185,1124,7.74,0.4703,0.9460,0.9722,0.9865,1,1,1,0.5297,0.8432,0.9059,0.9530
i_resort_1_5,illumination,1079,913,7.84,0.6852,0.8508,0.9147,0.9555,1,1,1,0.3148,0.7716,0.8630,0.9315
i_resort_1_6,illumination,1023,874,7.76,0.6164,0.8407,0.9120,0.9404,1,1,1,0.3836,0.7945,0.8767,0.9384
i_salon_1_2,illumination,1329,1265,8.54,0.2647,0.9436,0.9744,0.9902,1,1,1,0.7353,0.9118,0.9471,0.9735
i_salon_1_3,illumination,1185,1078,9.28,0.4481,0.8844,0.9376,0.9696,1,1,1,0.5519,0.8506,0.9104,0.9552
i_salon_1_4,illumination,1060,899,8.97,0.5647,0.8349,0.9075,0.9462,1,1,1,0.4353,0.8118,0.8871,0.9435
i_salon_1_5,illumination,1204,1103,8.54,0.3315,0.9120,0.9551,0.9751,1,1,1,0.6685,0.8895,0.9337,0.9668
i_salon_1_6,illumination,1127,992,8.35,0.4134,0.8696,0.9343,0.9654,1,1,1,0.5866,0.8622,0.9173,0.9587
i_santuario_1_2,illumination,1274,1141,8.42,1.1339,0.8728,0.9482,0.9717,1,1,1,0.0000,0.6220,0.7732,0.8866
i_santuario_1_3,illumination,1283,1121,8.20,1.3199,0.8558,0.9369,0.9641,1,1,1,0.0000,0.5600,0.7360,0.8680
i_santuario_1_4,illumination,1192,1014,8.10,1.4796,0.8020,0.9178,0.9581,1,1,1,0.0000,0.5068,0.7041,0.8520
i_santuario_1_5,illumination,1276,1107,8.24,0.3319,0.8629,0.9365,0.9632,1,1,1,0.6681,0.8894,0.9336,0.9668
i_santuario_1_6,illumination,1154,957,8.01,0.8419,0.8224,0.8995,0.9419,1,1,1,0.1581,0.7194,0.8316,0.9158
i_school_1_2,illumination,1095,1007,7.80,0.2790,0.9178,0.9598,0.9790,1,1,1,0.7210,0.9070,0.9442,0.9721
i_school_1_3,illumination,1077,991,7.82,0.2067,0.9201,0.9638,0.9833,1,1,1,0.7933,0.9311,0.9587,0.9793
i_school_1_4,illumination,957,785,8.20,0.6742,0.8036,0.8871,0.9363,1,1,1,0.3258,0.7753,0.8652,0.9326
i_school_1_5,illumination,1059,904,8.40,0.7375,0.8461,0.9093,0.9509,1,1,1,0.2625,0.7542,0.8525,0.9262
i_school_1_6,illumination,847,604,7.71,1.1969,0.7096,0.7993,0.8323,1,1,1,0.0000,0.6010,0.7606,0.8803
i_ski_1_2,illumination,1527,1411,9.94,0.2685,0.9214,0.9745,0.9823,1,1,1,0.7315,0.9105,0.9463,0.9732
i_ski_1_3,illumination,1455,1294,11.04,0.6422,0.8797,0.9540,0.9739,1,1,1,0.3578,0.7859,0.8716,0.9358
i_ski_1_4,illumination,1346,1164,9.44,0.6685,0.8529,0.9495,0.9718,1,1,1,0.3315,0.7772,0.8663,0.9332
i_ski_1_5,illumination,1323,1099,9.05,0.8266,0.8148,0.9214,0.9546,1,1,1,0.1734,0.7245,0.8347,0.9173
i_ski_1_6,illumination,1280,1031,9.41,0.6847,0.7828,0.9062,0.9430,1,1,1,0.3153,0.7718,0.8631,0.9315
i_smurf_1_2,illumination,978,860,7.41,0.0000,0.8804,0.9131,0.9479,1,1,1,1.0000,1.0000,1.0000,1.0000
i_smurf_1_3,illumination,961,832,7.14,0.2602,0.8626,0.9230,0.9386,1,1,1,0.7398,0.9133,0.9480,0.9740
i_smurf_1_4,illumination,965,820,7.42,0.2645,0.8456,0.9067,0.9389,1,1,1,0.7355,0.9118,0.9471,0.9736
i_smurf_1_5,illumination,945,781,7.36,0.4906,0.8243,0.8815,0.9153,1,1,1,0.5094,0.8365,0.9019,0.9509
i_smurf_1_6,illumination,810,623,7.23,0.4773,0.7556,0.8333,0.8889,1,1,1,0.5227,0.8409,0.9045,0.9523
i_steps_1_2,illumination,954,903,6.64,0.5739,0.9413,0.9801,0.9906,1,1,1,0.4261,0.8087,0.8852,0.9426
i_steps_1_3,illumination,1007,926,6.76,1.0602,0.9116,0.9513,0.9712,1,1,1,0.0000,0.6466,0.7880,0.8940
i_steps_1_4,illumination,1046,991,7.12,0.6387,0.9388,0.9847,0.9904,1,1,1,0.3613,0.7871,0.8723,0.9361
i_steps_1_5,illumination,868,748,6.76,1.0030,0.8606,0.9263,0.9493,1,1,1,0.0000,0.6657,0.7994,0.8997
i_steps_1_6,illumination,930,854,6.87,0.7370,0.9204,0.9602,0.9806,1,1,1,0.2630,0.7543,0.8526,0.9263
i_table_1_2,illumination,1286,1117,8.79,0.5932,0.8639,0.9347,0.9705,1,1,1,0.4068,0.8023,0.8814,0.9407
i_table_1_3,illumination,1254,1017,9.43,0.9608,0.8038,0.9187,0.9633,1,1,1,0.0392,0.6797,0.8078,0.9039
i_table_1_4,illumination,1155,838,9.54,0.7714,0.7238,0.8476,0.9177,1,1,1,0.2286,0.7429,0.8457,0.9229
i_table_1_5,illumination,1185,842,8.78,1.1359,0.6895,0.8287,0.9030,1,1,1,0.0000,0.6214,0.7728,0.8864
i_table_1_6,illumination,1371,1253,8.48,0.1507,0.9168,0.9650,0.9832,1,1,1,0.8493,0.9498,0.9699,0.9849
i_tools_1_2,illumination,603,359,6.20,2.1902,0.5622,0.7114,0.8176,1,1,1,0.0000,0.2699,0.5620,0.7810
i_tools_1_3,illumination,633,525,5.69,1.0723,0.8215,0.9352,0.9747,1,1,1,0.0000,0.6426,0.7855,0.8928
i_tools_1_4,illumination,613,357,5.83,2.9252,0.5808,0.7374,0.8320,1,1,1,0.0000,0.0249,0.4150,0.7075
i_tools_1_5,illumination,617,473,5.85,1.4300,0.7536,0.8768,0.9190,1,1,1,0.0000,0.5233,0.7140,0.8570
i_tools_1_6,illumination,584,296,5.92,5.2968,0.3459,0.5325,0.7106,0,0,1,0.0000,0.0000,0.0000,0.4703
i_toy_1_2,illumination,1679,1447,14.52,0.2120,0.8582,0.9244,0.9595,1,1,1,0.7880,0.9293,0.9576,0.9788
i_toy_1_3,illumination,1604,1321,11.78,0.3231,0.8186,0.8903,0.9408,1,1,1,0.6769,0.8923,0.9354,0.9677
i_toy_1_4,illumination,1549,1167,11.65,0.4348,0.7495,0.8483,0.8993,1,1,1,0.5652,0.8551,0.9130,0.9565
i_toy_1_5,illumination,1443,953,11.29,0.6270,0.6549,0.7678,0.8399,1,1,1,0.3730,0.7910,0.8746,0.9373
i_toy_1_6,illumination,1257,704,11.80,1.0565,0.5481,0.6651,0.7470,1,1,1,0.0000,0.6478,0.7887,0.8944
i_troulos_1_2,illumination,664,550,5.67,0.6621,0.7937,0.9262,0.9654,1,1,1,0.3379,0.7793,0.8676,0.9338
i_troulos_1_3,illumination,577,460,6.39,2.8610,0.4541,0.8596,0.9324,1,1,1,0.0000,0.0463,0.4278,0.7139
i_troulos_1_4,illumination,770,713,6.41,0.5912,0.9221,0.9636,0.9831,1,1,1,0.4088,0.8029,0.8818,0.9409
i_troulos_1_5,illumination,727,615,5.94,1.2271,0.8171,0.9257,0.9587,1,1,1,0.0000,0.5910,0.7546,0.8773
i_troulos_1_6,illumination,663,556,5.69,1.4782,0.7979,0.9095,0.9502,1,1,1,0.0000,0.5073,0.7044,0.8522
i_veggies_1_2,illumination,1070,1028,7.62,0.1927,0.9607,0.9832,0.9925,1,1,1,0.8073,0.9358,0.9615,0.9807
i_veggies_1_3,illumination,928,786,7.17,0.4090,0.8459,0.9246,0.9494,1,1,1,0.5910,0.8637,0.9182,0.9591
i_veggies_1_4,illumination,1031,933,7.55,0.1779,0.9049,0.9447,0.9641,1,1,1,0.8221,0.9407,0.9644,0.9822
i_veggies_1_5,illumination,889,673,7.72,0.3517,0.7615,0.8560,0.9044,1,1,1,0.6483,0.8828,0.9297,0.9648
i_veggies_1_6,illumination,835,589,7.32,0.7351,0.7078,0.8120,0.8707,1,1,1,0.2649,0.7550,0.8530,0.9265
i_village_1_2,illumination,1420,1158,16.22,0.5593,0.8085,0.9056,0.9458,1,1,1,0.4407,0.8136,0.8881,0.9441
i_village_1_3,illumination,1504,1230,10.20,0.3669,0.8138,0.8930,0.9362,1,1,1,0.6331,0.8777,0.9266,0.9633
i_village_1_4,illumination,1466,1229,10.54,0.4521,0.8302,0.9127,0.9413,1,1,1,0.5479,0.8493,0.9096,0.9548
i_village_1_5,illumination,1682,1551,10.31,0.2676,0.9215,0.9566,0.9762,1,1,1,0.7324,0.9108,0.9465,0.9732
i_village_1_6,illumination,1462,1168,10.25,0.6193,0.7804,0.8796,0.9295,1,1,1,0.3807,0.7936,0.8761,0.9381
i_yellowtent_1_2,illumination,1136,1109,7.98,0.3175,0.9736,0.9850,0.9903,1,1,1,0.6825,0.8942,0.9365,0.9683
i_yellowtent_1_3,illumination,1063,968,8.46,0.2409,0.9078,0.9633,0.9746,1,1,1,0.7591,0.9197,0.9518,0.9759
i_yellowtent_1_4,illumination,942,780,8.08,0.7394,0.8121,0.9055,0.9352,1,1,1,0.2606,0.7535,0.8521,0.9261
i_yellowtent_1_5,illumination,995,870,8.29,0.4448,0.8724,0.9256,0.9528,1,1,1,0.5552,0.8517,0.9110,0.9555
i_yellowtent_1_6,illumination,932,800,7.41,0.6045,0.8594,0.9152,0.9421,1,1,1,0.3955,0.7985,0.8791,0.9395
i_zion_1_2,illumination,1461,1345,9.16,0.2256,0.9172,0.9665,0.9815,1,1,1,0.7744,0.9248,0.9549,0.9774
i_zion_1_3,illumination,1285,1076,9.53,0.5030,0.8319,0.9012,0.9323,1,1,1,0.4970,0.8323,0.8994,0.9497
i_zion_1_4,illumination,1150,919,9.29,0.7926,0.7861,0.8730,0.9061,1,1,1,0.2074,0.7358,0.8415,0.9207
i_zion_1_5,illumination,867,569,8.79,1.1772,0.6390,0.7313,0.7624,1,1,1,0.0000,0.6076,0.7646,0.8823
i_zion_1_6,illumination,698,441,7.73,0.8636,0.6175,0.7221,0.7636,1,1,1,0.1364,0.7121,0.8273,0.9136
v_abstract_1_2,viewpoint,1206,1133,8.95,0.4150,0.9386,0.9635,0.9677,1,1,1,0.5850,0.8617,0.9170,0.9585
v_abstract_1_3,viewpoint,1214,1123,9.00,0.4058,0.9217,0.9547,0.9662,1,1,1,0.5942,0.8647,0.9188,0.9594
v_abstract_1_4,viewpoint,958,825,9.18,1.0501,0.8601,0.9019,0.9186,1,1,1,0.0000,0.6500,0.7900,0.8950
v_abstract_1_5,viewpoint,1014,889,8.73,0.8356,0.8777,0.9073,0.9122,1,1,1,0.1644,0.7215,0.8329,0.9164
v_abstract_1_6,viewpoint,863,675,8.28,1.1536,0.7764,0.8331,0.8494,1,1,1,0.0000,0.6155,0.7693,0.8846
v_adam_1_2,viewpoint,833,782,6.83,0.4671,0.9388,0.9676,0.9796,1,1,1,0.5329,0.8443,0.9066,0.9533
v_adam_1_3,viewpoint,777,737,6.76,0.6323,0.9472,0.9704,0.9897,1,1,1,0.3677,0.7892,0.8735,0.9368
v_adam_1_4,viewpoint,590,511,6.35,0.8125,0.8661,0.9271,0.9475,1,1,1,0.1875,0.7292,0.8375,0.9188
v_adam_1_5,viewpoint,706,654,6.49,0.5161,0.9263,0.9646,0.9788,1,1,1,0.4839,0.8280,0.8968,0.9484
v_adam_1_6,viewpoint,723,665,6.75,0.6429,0.9170,0.9502,0.9710,1,1,1,0.3571,0.7857,0.8714,0.9357
v_apprentices_1_2,viewpoint,1718,1667,17.44,0.1274,0.9686,0.9878,0.9924,1,1,1,0.8726,0.9575,0.9745,0.9873
v_apprentices_1_3,viewpoint,1557,1482,10.78,0.5358,0.9518,0.9762,0.9846,1,1,1,0.4642,0.8214,0.8928,0.9464
v_apprentices_1_4,viewpoint,1359,1270,9.64,0.7101,0.9345,0.9654,0.9765,1,1,1,0.2899,0.7633,0.8580,0.9290
v_apprentices_1_5,viewpoint,1187,1091,9.18,0.9829,0.9166,0.9612,0.9697,1,1,1,0.0171,0.6724,0.8034,0.9017
v_apprentices_1_6,viewpoint,1063,1001,8.47,0.6319,0.9379,0.9671,0.9708,1,1,1,0.3681,0.7894,0.8736,0.9368
v_azzola_1_2,viewpoint,1447,1340,16.12,0.6565,0.9191,0.9634,0.9751,1,1,1,0.3435,0.7812,0.8687,0.9344
v_azzola_1_3,viewpoint,1294,1072,10.09,0.9951,0.8130,0.9389,0.9637,1,1,1,0.0049,0.6683,0.8010,0.9005
v_azzola_1_4,viewpoint,1493,1419,10.08,0.7051,0.9478,0.9725,0.9873,1,1,1,0.2949,0.7650,0.8590,0.9295
v_azzola_1_5,viewpoint,1119,962,9.58,0.8635,0.8293,0.9455,0.9714,1,1,1,0.1365,0.7122,0.8273,0.9136
v_azzola_1_6,viewpoint,758,549,8.99,1.4988,0.7164,0.8681,0.9077,1,1,1,0.0000,0.5004,0.7002,0.8501
v_bark_1_2,viewpoint,853,561,10.72,1.3075,0.6530,0.7714,0.8312,1,1,1,0.0000,0.5642,0.7385,0.8693
v_bark_1_3,viewpoint,325,9,9.37,487.3667,0.0000,0.0000,0.0000,0,0,0,0.0000,0.0000,0.0000,0.0000
v_bark_1_4,viewpoint,343,7,10.17,229.1239,0.0000,0.0029,0.0029,0,0,0,0.0000,0.0000,0.0000,0.0000
v_bark_1_5,viewpoint,414,51,9.12,1.7398,0.1159,0.1425,0.1570,1,1,1,0.0000,0.4201,0.6520,0.8260
v_bark_1_6,viewpoint,351,7,9.25,416.4383,0.0000,0.0000,0.0000,0,0,0,0.0000,0.0000,0.0000,0.0000
v_bees_1_2,viewpoint,1573,1520,9.77,0.2378,0.9669,0.9841,0.9898,1,1,1,0.7622,0.9207,0.9524,0.9762
v_bees_1_3,viewpoint,1515,1470,9.42,0.1693,0.9703,0.9848,0.9921,1,1,1,0.8307,0.9436,0.9661,0.9831
v_bees_1_4,viewpoint,1408,1368,9.31,0.4008,0.9716,0.9851,0.9936,1,1,1,0.5992,0.8664,0.9198,0.9599
v_bees_1_5,viewpoint,1125,1056,9.01,0.9742,0.9324,0.9600,0.9689,1,1,1,0.0258,0.6753,0.8052,0.9026
v_bees_1_6,viewpoint,1310,1218,9.42,0.6352,0.9176,0.9718,0.9863,1,1,1,0.3648,0.7883,0.8730,0.9365
v_beyus_1_2,viewpoint,511,434,13.46,0.8492,0.8474,0.9041,0.9256,1,1,1,0.1508,0.7169,0.8302,0.9151
v_beyus_1_3,viewpoint,529,383,7.62,2.6420,0.7146,0.8204,0.8526,1,1,1,0.0000,0.1193,0.4716,0.7358
v_beyus_1_4,viewpoint,640,573,7.23,0.4121,0.8922,0.9359,0.9609,1,1,1,0.5879,0.8626,0.9176,0.9588
v_beyus_1_5,viewpoint,456,343,6.53,1.2039,0.7544,0.8289,0.8553,1,1,1,0.0000,0.5987,0.7592,0.8796
v_beyus_1_6,viewpoint,557,462,6.31,1.0290,0.8366,0.8887,0.9156,1,1,1,0.0000,0.6570,0.7942,0.8971
v_bip_1_2,viewpoint,1137,1062,9.46,0.1732,0.9340,0.9560,0.9622,1,1,1,0.8268,0.9423,0.9654,0.9827
v_bip_1_3,viewpoint,1068,974,9.46,0.3038,0.9110,0.9354,0.9466,1,1,1,0.6962,0.8987,0.9392,0.9696
v_bip_1_4,viewpoint,1091,1009,9.51,0.4337,0.9248,0.9533,0.9597,1,1,1,0.5663,0.8554,0.9133,0.9566
v_bip_1_5,viewpoint,464,137,8.67,1.7201,0.2845,0.3448,0.3793,1,1,1,0.0000,0.4266,0.6560,0.8280
v_bip_1_6,viewpoint,392,13,8.71,184.2318,0.0332,0.0536,0.0638,0,0,0,0.0000,0.0000,0.0000,0.0000
v_bird_1_2,viewpoint,1045,991,11.01,76.5539,0.0000,0.0000,0.0000,0,0,0,0.0000,0.0000,0.0000,0.0000
v_bird_1_3,viewpoint,996,911,10.72,84.0781,0.0000,0.0000,0.0000,0,0,0,0.0000,0.0000,0.0000,0.0000
v_bird_1_4,viewpoint,1007,904,10.32,99.3326,0.0000,0.0000,0.0000,0,0,0,0.0000,0.0000,0.0000,0.0000
v_bird_1_5,viewpoint,988,803,10.10,85.9567,0.0000,0.0010,0.0010,0,0,0,0.0000,0.0000,0.0000,0.0000
v_bird_1_6,viewpoint,676,436,9.63,182.2137,0.0000,0.0000,0.0000,0,0,0,0.0000,0.0000,0.0000,0.0000
v_birdwoman_1_2,viewpoint,573,408,9.04,44.0987,0.0000,0.0000,0.0035,0,0,0,0.0000,0.0000,0.0000,0.0000
v_birdwoman_1_3,viewpoint,867,702,9.09,54.5563,0.0000,0.0000,0.0012,0,0,0,0.0000,0.0000,0.0000,0.0000
v_birdwoman_1_4,viewpoint,1009,907,9.58,50.3579,0.0000,0.0000,0.0000,0,0,0,0.0000,0.0000,0.0000,0.0000
v_birdwoman_1_5,viewpoint,1266,1195,9.19,52.7909,0.0000,0.0016,0.0032,0,0,0,0.0000,0.0000,0.0000,0.0000
v_birdwoman_1_6,viewpoint,979,833,9.70,51.2265,0.0000,0.0000,0.0000,0,0,0,0.0000,0.0000,0.0000,0.0000
v_blueprint_1_2,viewpoint,1532,1449,11.14,0.3036,0.9439,0.9791,0.9909,1,1,1,0.6964,0.8988,0.9393,0.9696
v_blueprint_1_3,viewpoint,1351,1242,11.84,0.5086,0.9149,0.9600,0.9822,1,1,1,0.4914,0.8305,0.8983,0.9491
v_blueprint_1_4,viewpoint,1422,1332,12.11,0.4769,0.9388,0.9684,0.9831,1,1,1,0.5231,0.8410,0.9046,0.9523
v_blueprint_1_5,viewpoint,1099,982,9.87,0.6130,0.8917,0.9390,0.9500,1,1,1,0.3870,0.7957,0.8774,0.9387
v_blueprint_1_6,viewpoint,888,740,8.98,0.9724,0.8333,0.8975,0.9212,1,1,1,0.0276,0.6759,0.8055,0.9028
v_boat_1_2,viewpoint,1508,1349,16.15,0.3213,0.8952,0.9536,0.9702,1,1,1,0.6787,0.8929,0.9357,0.9679
v_boat_1_3,viewpoint,1033,736,10.28,0.6714,0.7135,0.8267,0.8645,1,1,1,0.3286,0.7762,0.8657,0.9329
v_boat_1_4,viewpoint,257,8,9.26,648.2602,0.0000,0.0039,0.0039,0,0,0,0.0000,0.0000,0.0000,0.0000
v_boat_1_5,viewpoint,311,7,9.32,345.8456,0.0000,0.0000,0.0032,0,0,0,0.0000,0.0000,0.0000,0.0000
v_boat_1_6,viewpoint,741,503,8.49,0.6116,0.6802,0.7301,0.7503,1,1,1,0.3884,0.7961,0.8777,0.9388
v_bricks_1_2,viewpoint,1662,1582,10.82,33.4056,0.0036,0.0253,0.0560,0,0,0,0.0000,0.0000,0.0000,0.0000
v_bricks_1_3,viewpoint,1634,1521,11.15,32.1010,0.0018,0.0135,0.0435,0,0,0,0.0000,0.0000,0.0000,0.0000
v_bricks_1_4,viewpoint,1425,1311,11.08,30.9630,0.0000,0.0035,0.0232,0,0,0,0.0000,0.0000,0.0000,0.0000
v_bricks_1_5,viewpoint,1301,1172,10.42,27.9977,0.0008,0.0061,0.0315,0,0,0,0.0000,0.0000,0.0000,0.0000
v_bricks_1_6,viewpoint,1034,828,10.09,27.5689,0.0010,0.0010,0.0039,0,0,0,0.0000,0.0000,0.0000,0.0000
v_busstop_1_2,viewpoint,1436,1357,12.03,0.3356,0.9450,0.9673,0.9742,1,1,1,0.6644,0.8881,0.9329,0.9664
v_busstop_1_3,viewpoint,1255,1142,10.81,0.4129,0.9084,0.9410,0.9522,1,1,1,0.5871,0.8624,0.9174,0.9587
v_busstop_1_4,viewpoint,1289,1208,10.16,0.6350,0.9372,0.9628,0.9767,1,1,1,0.3650,0.7883,0.8730,0.9365
v_busstop_1_5,viewpoint,1301,1225,10.27,0.6772,0.9393,0.9646,0.9746,1,1,1,0.3228,0.7743,0.8646,0.9323
v_busstop_1_6,viewpoint,1485,1399,10.27,0.5889,0.9380,0.9616,0.9744,1,1,1,0.4111,0.8037,0.8822,0.9411
v_calder_1_2,viewpoint,894,835,8.22,0.1861,0.9329,0.9597,0.9620,1,1,1,0.8139,0.9380,0.9628,0.9814
v_calder_1_3,viewpoint,985,943,8.82,0.2265,0.9574,0.9716,0.9746,1,1,1,0.7735,0.9245,0.9547,0.9774
v_calder_1_4,viewpoint,736,645,7.94,0.4818,0.8736,0.9049,0.9130,1,1,1,0.5182,0.8394,0.9036,0.9518
v_calder_1_5,viewpoint,672,535,8.11,0.3418,0.7961,0.8289,0.8363,1,1,1,0.6582,0.8861,0.9316,0.9658
v_calder_1_6,viewpoint,568,372,7.45,1.3072,0.6496,0.6901,0.7060,1,1,1,0.0000,0.5643,0.7386,0.8693
v_cartooncity_1_2,viewpoint,1609,1545,9.71,62.0828,0.0000,0.0000,0.0012,0,0,0,0.0000,0.0000,0.0000,0.0000
v_cartooncity_1_3,viewpoint,1114,926,9.43,66.7407,0.0009,0.0018,0.0027,0,0,0,0.0000,0.0000,0.0000,0.0000
v_cartooncity_1_4,viewpoint,1456,1356,9.54,74.3415,0.0000,0.0014,0.0034,0,0,0,0.0000,0.0000,0.0000,0.0000
v_cartooncity_1_5,viewpoint,1109,978,9.02,76.1228,0.0000,0.0000,0.0000,0,0,0,0.0000,0.0000,0.0000,0.0000
v_cartooncity_1_6,viewpoint,1097,890,9.40,69.9825,0.0009,0.0018,0.0027,0,0,0,0.0000,0.0000,0.0000,0.0000
v_charing_1_2,viewpoint,736,549,7.83,2.0846,0.7323,0.8383,0.8505,1,1,1,0.0000,0.3051,0.5831,0.7915
v_charing_1_3,viewpoint,620,409,7.22,23.2760,0.6323,0.7758,0.8274,0,0,0,0.0000,0.0000,0.0000,0.0000
v_charing_1_4,viewpoint,654,505,7.69,7.3600,0.7584,0.8486,0.8685,0,0,0,0.0000,0.0000,0.0000,0.2640
v_charing_1_5,viewpoint,598,496,7.15,56.8785,0.8227,0.9013,0.9147,0,0,0,0.0000,0.0000,0.0000,0.0000
v_charing_1_6,viewpoint,590,472,6.69,160.9270,0.7644,0.8729,0.8983,0,0,0,0.0000,0.0000,0.0000,0.0000
v_churchill_1_2,viewpoint,999,930,7.69,1.3702,0.9279,0.9600,0.9700,1,1,1,0.0000,0.5433,0.7260,0.8630
v_churchill_1_3,viewpoint,951,845,7.70,2.7705,0.8875,0.9401,0.9527,1,1,1,0.0000,0.0765,0.4459,0.7230
v_churchill_1_4,viewpoint,930,836,7.80,0.5352,0.8989,0.9376,0.9538,1,1,1,0.4648,0.8216,0.8930,0.9465
v_churchill_1_5,viewpoint,1105,1073,8.54,0.2626,0.9710,0.9846,0.9900,1,1,1,0.7374,0.9125,0.9475,0.9737
v_churchill_1_6,viewpoint,758,649,7.74,1.4201,0.8615,0.9103,0.9288,1,1,1,0.0000,0.5266,0.7160,0.8580
v_circus_1_2,viewpoint,1178,1053,9.73,0.2530,0.8947,0.9448,0.9559,1,1,1,0.7470,0.9157,0.9494,0.9747
v_circus_1_3,viewpoint,1144,936,9.95,1.0560,0.8164,0.9344,0.9563,1,1,1,0.0000,0.6480,0.7888,0.8944
v_circus_1_4,viewpoint,953,691,8.98,2.1113,0.7198,0.8730,0.9171,1,1,1,0.0000,0.2962,0.5777,0.7889
v_circus_1_5,viewpoint,1228,1068,8.99,0.3788,0.8721,0.9446,0.9568,1,1,1,0.6212,0.8737,0.9242,0.9621
v_circus_1_6,viewpoint,1091,903,8.77,0.8009,0.8194,0.9258,0.9395,1,1,1,0.1991,0.7330,0.8398,0.9199
v_coffeehouse_1_2,viewpoint,858,789,7.34,0.6868,0.9184,0.9406,0.9510,1,1,1,0.3132,0.7711,0.8626,0.9313
v_coffeehouse_1_3,viewpoint,894,822,7.50,0.8096,0.9161,0.9385,0.9508,1,1,1,0.1904,0.7301,0.8381,0.9190
v_coffeehouse_1_4,viewpoint,847,775,7.09,1.2759,0.9138,0.9421,0.9504,1,1,1,0.0000,0.5747,0.7448,0.8724
v_coffeehouse_1_5,viewpoint,794,726,7.41,0.4474,0.9156,0.9358,0.9395,1,1,1,0.5526,0.8509,0.9105,0.9553
v_coffeehouse_1_6,viewpoint,716,637,7.04,1.0092,0.8757,0.9106,0.9274,1,1,1,0.0000,0.6636,0.7982,0.8991
v_colors_1_2,viewpoint,256,164,4.95,0.8926,0.6367,0.8008,0.8594,1,1,1,0.1074,0.7025,0.8215,0.9107
v_colors_1_3,viewpoint,250,148,4.95,0.8207,0.5640,0.7280,0.7640,1,1,1,0.1793,0.7264,0.8359,0.9179
v_colors_1_4,viewpoint,227,60,5.26,5.7933,0.2511,0.3348,0.3700,0,0,1,0.0000,0.0000,0.0000,0.4207
v_colors_1_5,viewpoint,211,33,5.21,11.3292,0.1611,0.2370,0.2701,0,0,0,0.0000,0.0000,0.0000,0.0000
v_colors_1_6,viewpoint,200,28,5.48,17.1286,0.1350,0.1700,0.1850,0,0,0,0.0000,0.0000,0.0000,0.0000
v_courses_1_2,viewpoint,1153,1101,7.89,0.6269,0.9575,0.9757,0.9783,1,1,1,0.3731,0.7910,0.8746,0.9373
v_courses_1_3,viewpoint,1015,948,8.19,0.7324,0.9389,0.9734,0.9793,1,1,1,0.2676,0.7559,0.8535,0.9268
v_courses_1_4,viewpoint,1040,965,8.58,0.6945,0.9288,0.9683,0.9760,1,1,1,0.3055,0.7685,0.8611,0.9305
v_courses_1_5,viewpoint,897,781,8.55,1.7607,0.8540,0.9431,0.9588,1,1,1,0.0000,0.4131,0.6479,0.8239
v_courses_1_6,viewpoint,813,703,7.51,2.7642,0.8413,0.9385,0.9496,1,1,1,0.0000,0.0786,0.4472,0.7236
v_dirtywall_1_2,viewpoint,1260,1180,16.84,0.3900,0.9341,0.9651,0.9770,1,1,1,0.6100,0.8700,0.9220,0.9610
v_dirtywall_1_3,viewpoint,1184,1079,9.59,0.4752,0.9096,0.9561,0.9671,1,1,1,0.5248,0.8416,0.9050,0.9525
v_dirtywall_1_4,viewpoint,1070,927,9.24,0.4553,0.8654,0.9224,0.9467,1,1,1,0.5447,0.8482,0.9089,0.9545
v_dirtywall_1_5,viewpoint,1169,1058,9.33,0.6871,0.9033,0.9453,0.9598,1,1,1,0.3129,0.7710,0.8626,0.9313
v_dirtywall_1_6,viewpoint,910,764,9.34,0.9197,0.8396,0.8802,0.8989,1,1,1,0.0803,0.6934,0.8161,0.9080
v_dogman_1_2,viewpoint,616,567,5.69,1.0918,0.9188,0.9529,0.9627,1,1,1,0.0000,0.6361,0.7816,0.8908
v_dogman_1_3,viewpoint,630,599,5.73,0.4221,0.9508,0.9603,0.9683,1,1,1,0.5779,0.8593,0.9156,0.9578
v_dogman_1_4,viewpoint,480,367,5.78,4.4277,0.7729,0.8646,0.9042,0,1,1,0.0000,0.0000,0.1145,0.5572
v_dogman_1_5,viewpoint,542,471,5.47,1.4238,0.8708,0.9188,0.9391,1,1,1,0.0000,0.5254,0.7152,0.8576
v_dogman_1_6,viewpoint,379,228,5.47,5.1706,0.5963,0.6834,0.7203,0,0,1,0.0000,0.0000,0.0000,0.4829
v_eastsouth_1_2,viewpoint,1550,1483,11.32,0.3432,0.9581,0.9748,0.9819,1,1,1,0.6568,0.8856,0.9314,0.9657
v_eastsouth_1_3,viewpoint,812,411,11.00,1.5026,0.5000,0.5825,0.6330,1,1,1,0.0000,0.4991,0.6995,0.8497
v_eastsouth_1_4,viewpoint,432,8,10.26,523.9615,0.0000,0.0023,0.0023,0,0,0,0.0000,0.0000,0.0000,0.0000
v_eastsouth_1_5,viewpoint,586,53,9.87,9.6309,0.1143,0.1485,0.1724,0,0,0,0.0000,0.0000,0.0000,0.0369
v_eastsouth_1_6,viewpoint,649,215,9.07,1.9091,0.3328,0.3606,0.3806,1,1,1,0.0000,0.3636,0.6182,0.8091
v_feast_1_2,viewpoint,1314,1237,10.05,0.3784,0.9384,0.9749,0.9840,1,1,1,0.6216,0.8739,0.9243,0.9622
v_feast_1_3,viewpoint,1440,1353,10.36,0.6049,0.9340,0.9729,0.9819,1,1,1,0.3951,0.7984,0.8790,0.9395
v_feast_1_4,viewpoint,1108,998,9.58,0.3469,0.9034,0.9458,0.9585,1,1,1,0.6531,0.8844,0.9306,0.9653
v_feast_1_5,viewpoint,1322,1238,10.12,0.5344,0.9342,0.9599,0.9750,1,1,1,0.4656,0.8219,0.8931,0.9466
v_feast_1_6,viewpoint,1183,1067,14.66,1.0450,0.8859,0.9374,0.9544,1,1,1,0.0000,0.6517,0.7910,0.8955
v_fest_1_2,viewpoint,1443,1365,11.04,0.3827,0.9466,0.9667,0.9757,1,1,1,0.6173,0.8724,0.9235,0.9617
v_fest_1_3,viewpoint,1164,1037,13.51,0.7454,0.8857,0.9467,0.9553,1,1,1,0.2546,0.7515,0.8509,0.9255
v_fest_1_4,viewpoint,1170,1085,11.05,0.3984,0.9291,0.9615,0.9675,1,1,1,0.6016,0.8672,0.9203,0.9602
v_fest_1_5,viewpoint,1184,1082,11.24,0.7697,0.9079,0.9578,0.9730,1,1,1,0.2303,0.7434,0.8461,0.9230
v_fest_1_6,viewpoint,1060,891,9.95,2.1962,0.8377,0.9038,0.9255,1,1,1,0.0000,0.2679,0.5608,0.7804
v_gardens_1_2,viewpoint,1235,1138,9.19,0.7094,0.9190,0.9449,0.9571,1,1,1,0.2906,0.7635,0.8581,0.9291
v_gardens_1_3,viewpoint,829,654,9.07,1.7758,0.7744,0.8577,0.8830,1,1,1,0.0000,0.4081,0.6448,0.8224
v_gardens_1_4,viewpoint,1397,1313,9.29,0.5441,0.9363,0.9635,0.9749,1,1,1,0.4559,0.8186,0.8912,0.9456
v_gardens_1_5,viewpoint,975,816,9.03,1.4518,0.8328,0.8779,0.9046,1,1,1,0.0000,0.5161,0.7096,0.8548
v_gardens_1_6,viewpoint,1104,907,8.86,0.6784,0.8125,0.9112,0.9520,1,1,1,0.3216,0.7739,0.8643,0.9322
v_grace_1_2,viewpoint,850,763,6.95,0.3208,0.8976,0.9341,0.9518,1,1,1,0.6792,0.8931,0.9358,0.9679
v_grace_1_3,viewpoint,764,684,7.03,0.4924,0.8953,0.9228,0.9385,1,1,1,0.5076,0.8359,0.9015,0.9508
v_grace_1_4,viewpoint,700,588,6.68,1.0392,0.8371,0.8929,0.9057,1,1,1,0.0000,0.6536,0.7922,0.8961
v_grace_1_5,viewpoint,593,409,6.82,0.6688,0.6880,0.7403,0.7673,1,1,1,0.3312,0.7771,0.8662,0.9331
v_grace_1_6,viewpoint,474,233,6.28,3.8887,0.5021,0.5464,0.5717,0,1,1,0.0000,0.0000,0.2223,0.6111
v_graffiti_1_2,viewpoint,941,779,8.40,0.5236,0.8289,0.8959,0.9182,1,1,1,0.4764,0.8255,0.8953,0.9476
v_graffiti_1_3,viewpoint,902,704,8.79,1.0440,0.7772,0.8659,0.8869,1,1,1,0.0000,0.6520,0.7912,0.8956
v_graffiti_1_4,viewpoint,661,238,8.63,1.3836,0.3570,0.4826,0.5356,1,1,1,0.0000,0.5388,0.7233,0.8616
v_graffiti_1_5,viewpoint,700,497,8.64,1.0436,0.6886,0.7829,0.8114,1,1,1,0.0000,0.6521,0.7913,0.8956
v_graffiti_1_6,viewpoint,483,85,8.93,3.1560,0.1636,0.2112,0.2650,0,1,1,0.0000,0.0000,0.3688,0.6844
v_home_1_2,viewpoint,723,640,7.87,0.6669,0.8728,0.9129,0.9212,1,1,1,0.3331,0.7777,0.8666,0.9333
v_home_1_3,viewpoint,648,522,8.15,1.6149,0.8117,0.8457,0.8580,1,1,1,0.0000,0.4617,0.6770,0.8385
v_home_1_4,viewpoint,726,649,8.14,0.9062,0.8898,0.9174,0.9394,1,1,1,0.0938,0.6979,0.8188,0.9094
v_home_1_5,viewpoint,599,472,7.69,4.3700,0.7696,0.8381,0.8581,0,1,1,0.0000,0.0000,0.1260,0.5630
v_home_1_6,viewpoint,571,360,7.89,1.4905,0.6182,0.7548,0.8091,1,1,1,0.0000,0.5032,0.7019,0.8509
v_laptop_1_2,viewpoint,1045,1008,7.54,0.2248,0.9656,0.9904,0.9952,1,1,1,0.7752,0.9251,0.9550,0.9775
v_laptop_1_3,viewpoint,709,573,7.30,0.5317,0.8025,0.8872,0.9196,1,1,1,0.4683,0.8228,0.8937,0.9468
v_laptop_1_4,viewpoint,328,18,7.08,48.2766,0.0793,0.1250,0.1555,0,0,0,0.0000,0.0000,0.0000,0.0000
v_laptop_1_5,viewpoint,288,9,7.04,333.1686,0.0000,0.0000,0.0000,0,0,0,0.0000,0.0000,0.0000,0.0000
v_laptop_1_6,viewpoint,308,7,7.27,871.5762,0.0000,0.0000,0.0000,0,0,0,0.0000,0.0000,0.0000,0.0000
v_london_1_2,viewpoint,1446,1369,9.27,0.1534,0.9474,0.9779,0.9869,1,1,1,0.8466,0.9489,0.9693,0.9847
v_london_1_3,viewpoint,1215,1146,8.95,0.1965,0.9416,0.9695,0.9835,1,1,1,0.8035,0.9345,0.9607,0.9804
v_london_1_4,viewpoint,1232,1154,8.97,0.7147,0.9399,0.9643,0.9740,1,1,1,0.2853,0.7618,0.8571,0.9285
v_london_1_5,viewpoint,1355,1287,9.12,0.2096,0.9506,0.9793,0.9852,1,1,1,0.7904,0.9301,0.9581,0.9790
v_london_1_6,viewpoint,1461,1398,9.02,0.1736,0.9576,0.9767,0.9884,1,1,1,0.8264,0.9421,0.9653,0.9826
v_machines_1_2,viewpoint,1118,1055,8.92,0.5217,0.9463,0.9750,0.9848,1,1,1,0.4783,0.8261,0.8957,0.9478
v_machines_1_3,viewpoint,866,738,8.52,2.8139,0.8025,0.9284,0.9584,1,1,1,0.0000,0.0620,0.4372,0.7186
v_machines_1_4,viewpoint,973,925,8.51,0.6362,0.9527,0.9743,0.9805,1,1,1,0.3638,0.7879,0.8728,0.9364
v_machines_1_5,viewpoint,784,716,7.71,1.7512,0.8878,0.9541,0.9656,1,1,1,0.0000,0.4163,0.6498,0.8249
v_machines_1_6,viewpoint,932,892,8.42,0.2612,0.9549,0.9732,0.9807,1,1,1,0.7388,0.9129,0.9478,0.9739
v_man_1_2,viewpoint,854,811,7.05,1.9903,0.9473,0.9602,0.9660,1,1,1,0.0000,0.3366,0.6019,0.8010
v_man_1_3,viewpoint,736,640,7.28,3.3610,0.8465,0.9103,0.9239,0,1,1,0.0000,0.0000,0.3278,0.6639
v_man_1_4,viewpoint,714,602,6.82,2.6785,0.7955,0.8894,0.9328,1,1,1,0.0000,0.1072,0.4643,0.7322
v_man_1_5,viewpoint,905,836,7.27,2.0338,0.9138,0.9492,0.9580,1,1,1,0.0000,0.3221,0.5932,0.7966
v_man_1_6,viewpoint,838,750,7.35,2.0476,0.8986,0.9260,0.9391,1,1,1,0.0000,0.3175,0.5905,0.7952
v_maskedman_1_2,viewpoint,711,569,7.07,0.6405,0.8073,0.8847,0.9114,1,1,1,0.3595,0.7865,0.8719,0.9360
v_maskedman_1_3,viewpoint,587,453,7.17,0.7134,0.7717,0.8348,0.8654,1,1,1,0.2866,0.7622,0.8573,0.9287
v_maskedman_1_4,viewpoint,696,629,7.09,1.2008,0.9037,0.9397,0.9483,1,1,1,0.0000,0.5997,0.7598,0.8799
v_maskedman_1_5,viewpoint,724,665,6.80,1.1502,0.9144,0.9406,0.9530,1,1,1,0.0000,0.6166,0.7700,0.8850
v_maskedman_1_6,viewpoint,372,170,6.12,4.5052,0.4516,0.5269,0.5484,0,1,1,0.0000,0.0000,0.0990,0.5495
v_pomegranate_1_2,viewpoint,1510,1376,10.44,0.3373,0.9132,0.9689,0.9808,1,1,1,0.6627,0.8876,0.9325,0.9663
v_pomegranate_1_3,viewpoint,1495,1290,10.08,1.2217,0.8462,0.9298,0.9585,1,1,1,0.0000,0.5928,0.7557,0.8778
v_pomegranate_1_4,viewpoint,1405,1231,9.89,0.5067,0.8740,0.9231,0.9502,1,1,1,0.4933,0.8311,0.8987,0.9493
v_pomegranate_1_5,viewpoint,1369,1251,9.81,0.7092,0.9123,0.9562,0.9715,1,1,1,0.2908,0.7636,0.8582,0.9291
v_pomegranate_1_6,viewpoint,1339,1247,9.53,0.4194,0.9313,0.9731,0.9858,1,1,1,0.5806,0.8602,0.9161,0.9581
v_posters_1_2,viewpoint,1029,921,17.98,115.0263,0.0000,0.0000,0.0000,0,0,0,0.0000,0.0000,0.0000,0.0000
v_posters_1_3,viewpoint,1232,1129,11.24,120.8233,0.0000,0.0000,0.0000,0,0,0,0.0000,0.0000,0.0000,0.0000
v_posters_1_4,viewpoint,1156,1067,10.56,112.5098,0.0000,0.0000,0.0000,0,0,0,0.0000,0.0000,0.0000,0.0000
v_posters_1_5,viewpoint,1039,869,10.57,124.4962,0.0000,0.0000,0.0000,0,0,0,0.0000,0.0000,0.0000,0.0000
v_posters_1_6,viewpoint,1055,887,10.54,147.6086,0.0000,0.0000,0.0000,0,0,0,0.0000,0.0000,0.0000,0.0000
v_samples_1_2,viewpoint,1234,1182,9.72,67.8965,0.0000,0.0000,0.0000,0,0,0,0.0000,0.0000,0.0000,0.0000
v_samples_1_3,viewpoint,1374,1305,10.03,72.6720,0.0000,0.0000,0.0007,0,0,0,0.0000,0.0000,0.0000,0.0000
v_samples_1_4,viewpoint,1135,1027,9.79,71.8611,0.0009,0.0009,0.0062,0,0,0,0.0000,0.0000,0.0000,0.0000
v_samples_1_5,viewpoint,1251,1188,9.85,80.6468,0.0000,0.0000,0.0000,0,0,0,0.0000,0.0000,0.0000,0.0000
v_samples_1_6,viewpoint,1058,957,9.40,67.0396,0.0000,0.0000,0.0085,0,0,0,0.0000,0.0000,0.0000,0.0000
v_soldiers_1_2,viewpoint,1021,941,8.37,0.3482,0.9226,0.9608,0.9726,1,1,1,0.6518,0.8839,0.9304,0.9652
v_soldiers_1_3,viewpoint,792,689,8.21,0.7105,0.8674,0.9192,0.9407,1,1,1,0.2895,0.7632,0.8579,0.9289
v_soldiers_1_4,viewpoint,667,528,8.35,1.4083,0.7916,0.8231,0.8411,1,1,1,0.0000,0.5306,0.7183,0.8592
v_soldiers_1_5,viewpoint,675,410,8.67,0.7971,0.6059,0.6607,0.6726,1,1,1,0.2029,0.7343,0.8406,0.9203
v_soldiers_1_6,viewpoint,898,817,8.33,97.4039,0.0000,0.0000,0.0000,0,0,0,0.0000,0.0000,0.0000,0.0000
v_strand_1_2,viewpoint,1139,1108,7.67,0.1677,0.9728,0.9868,0.9956,1,1,1,0.8323,0.9441,0.9665,0.9832
v_strand_1_3,viewpoint,862,794,7.02,0.6727,0.9049,0.9617,0.9733,1,1,1,0.3273,0.7758,0.8655,0.9327
v_strand_1_4,viewpoint,862,803,7.00,2.3331,0.9176,0.9698,0.9791,1,1,1,0.0000,0.2223,0.5334,0.7667
v_strand_1_5,viewpoint,952,885,7.34,2.2423,0.9013,0.9716,0.9832,1,1,1,0.0000,0.2526,0.5515,0.7758
v_strand_1_6,viewpoint,760,685,7.09,4.1379,0.8145,0.9408,0.9618,0,1,1,0.0000,0.0000,0.1724,0.5862
v_sunseason_1_2,viewpoint,1723,1615,10.58,0.1311,0.9373,0.9571,0.9617,1,1,1,0.8689,0.9563,0.9738,0.9869
v_sunseason_1_3,viewpoint,1560,1446,10.31,0.3289,0.9282,0.9462,0.9481,1,1,1,0.6711,0.8904,0.9342,0.9671
v_sunseason_1_4,viewpoint,1111,880,10.41,0.7146,0.7921,0.8137,0.8182,1,1,1,0.2854,0.7618,0.8571,0.9285
v_sunseason_1_5,viewpoint,1026,765,10.06,0.9681,0.7466,0.7788,0.7914,1,1,1,0.0319,0.6773,0.8064,0.9032
v_sunseason_1_6,viewpoint,883,605,14.17,3.2418,0.6806,0.7078,0.7146,0,1,1,0.0000,0.0000,0.3516,0.6758
v_tabletop_1_2,viewpoint,1302,1181,10.04,0.4030,0.9086,0.9478,0.9539,1,1,1,0.5970,0.8657,0.9194,0.9597
v_tabletop_1_3,viewpoint,1076,864,9.88,0.8448,0.7937,0.8764,0.8950,1,1,1,0.1552,0.7184,0.8310,0.9155
v_tabletop_1_4,viewpoint,1045,862,10.06,1.2937,0.8211,0.8880,0.9062,1,1,1,0.0000,0.5688,0.7413,0.8706
v_tabletop_1_5,viewpoint,1057,909,9.87,0.5912,0.8571,0.9092,0.9243,1,1,1,0.4088,0.8029,0.8818,0.9409
v_tabletop_1_6,viewpoint,1079,902,9.80,0.6390,0.8378,0.8981,0.9147,1,1,1,0.3610,0.7870,0.8722,0.9361
v_tempera_1_2,viewpoint,659,615,6.65,0.3728,0.9347,0.9575,0.9727,1,1,1,0.6272,0.8757,0.9254,0.9627
v_tempera_1_3,viewpoint,613,568,6.67,0.4891,0.9233,0.9543,0.9690,1,1,1,0.5109,0.8370,0.9022,0.9511
v_tempera_1_4,viewpoint,652,603,6.56,0.5519,0.9233,0.9632,0.9770,1,1,1,0.4481,0.8160,0.8896,0.9448
v_tempera_1_5,viewpoint,629,569,6.54,0.5474,0.8967,0.9491,0.9666,1,1,1,0.4526,0.8175,0.8905,0.9453
v_tempera_1_6,viewpoint,417,333,5.94,1.1868,0.7890,0.8561,0.8897,1,1,1,0.0000,0.6044,0.7626,0.8813
v_there_1_2,viewpoint,491,415,5.49,1.0237,0.8432,0.9165,0.9430,1,1,1,0.0000,0.6588,0.7953,0.8976
v_there_1_3,viewpoint,358,120,6.32,1.6983,0.3380,0.3911,0.4106,1,1,1,0.0000,0.4339,0.6603,0.8302
v_there_1_4,viewpoint,332,12,6.43,192.5843,0.0904,0.1175,0.1265,0,0,0,0.0000,0.0000,0.0000,0.0000
v_there_1_5,viewpoint,294,6,6.26,561.3461,0.0204,0.0340,0.0374,0,0,0,0.0000,0.0000,0.0000,0.0000
v_there_1_6,viewpoint,261,6,6.32,323.5086,0.0000,0.0000,0.0000,0,0,0,0.0000,0.0000,0.0000,0.0000
v_underground_1_2,viewpoint,1425,1395,9.10,0.1362,0.9789,0.9902,0.9923,1,1,1,0.8638,0.9546,0.9728,0.9864
v_underground_1_3,viewpoint,1271,1224,8.68,0.5329,0.9630,0.9780,0.9851,1,1,1,0.4671,0.8224,0.8934,0.9467
v_underground_1_4,viewpoint,980,909,8.21,0.3786,0.9306,0.9561,0.9643,1,1,1,0.6214,0.8738,0.9243,0.9621
v_underground_1_5,viewpoint,864,759,8.06,0.3777,0.8738,0.9236,0.9340,1,1,1,0.6223,0.8741,0.9245,0.9622
v_underground_1_6,viewpoint,664,467,7.80,4.7975,0.7003,0.7892,0.8238,0,1,1,0.0000,0.0000,0.0405,0.5203
v_vitro_1_2,viewpoint,1454,1402,9.77,0.1711,0.9635,0.9828,0.9856,1,1,1,0.8289,0.9430,0.9658,0.9829
v_vitro_1_3,viewpoint,1341,1259,9.34,0.3367,0.9359,0.9575,0.9612,1,1,1,0.6633,0.8878,0.9327,0.9663
v_vitro_1_4,viewpoint,1196,1102,9.50,0.5052,0.9189,0.9607,0.9615,1,1,1,0.4948,0.8316,0.8990,0.9495
v_vitro_1_5,viewpoint,1383,1326,9.41,0.6115,0.9581,0.9776,0.9798,1,1,1,0.3885,0.7962,0.8777,0.9389
v_vitro_1_6,viewpoint,1278,1171,9.30,0.7106,0.9116,0.9585,0.9632,1,1,1,0.2894,0.7631,0.8579,0.9289
v_wall_1_2,viewpoint,997,947,7.31,0.4241,0.9498,0.9709,0.9779,1,1,1,0.5759,0.8586,0.9152,0.9576
v_wall_1_3,viewpoint,880,805,7.37,1.4362,0.9159,0.9489,0.9580,1,1,1,0.0000,0.5213,0.7128,0.8564
v_wall_1_4,viewpoint,1025,977,7.57,0.2245,0.9532,0.9766,0.9805,1,1,1,0.7755,0.9252,0.9551,0.9776
v_wall_1_5,viewpoint,914,801,7.45,0.7255,0.8753,0.9322,0.9508,1,1,1,0.2745,0.7582,0.8549,0.9275
v_wall_1_6,viewpoint,811,696,7.48,4.2480,0.8644,0.9211,0.9359,0,1,1,0.0000,0.0000,0.1504,0.5752
v_wapping_1_2,viewpoint,1322,1026,9.97,0.4661,0.7746,0.8714,0.9115,1,1,1,0.5339,0.8446,0.9068,0.9534
v_wapping_1_3,viewpoint,1016,720,10.46,1.3842,0.7175,0.7992,0.8356,1,1,1,0.0000,0.5386,0.7232,0.8616
v_wapping_1_4,viewpoint,1146,811,10.43,1.4278,0.7086,0.8194,0.8665,1,1,1,0.0000,0.5241,0.7144,0.8572
v_wapping_1_5,viewpoint,847,551,10.42,1.5563,0.6494,0.7131,0.7485,1,1,1,0.0000,0.4812,0.6887,0.8444
v_wapping_1_6,viewpoint,657,290,9.15,4.5137,0.4307,0.4932,0.5266,0,1,1,0.0000,0.0000,0.0973,0.5486
v_war_1_2,viewpoint,1076,956,9.13,1.3785,0.8931,0.9638,0.9730,1,1,1,0.0000,0.5405,0.7243,0.8622
v_war_1_3,viewpoint,943,788,8.68,1.4503,0.8208,0.9311,0.9502,1,1,1,0.0000,0.5166,0.7099,0.8550
v_war_1_4,viewpoint,1206,1175,8.86,0.4225,0.9743,0.9876,0.9925,1,1,1,0.5775,0.8592,0.9155,0.9577
v_war_1_5,viewpoint,1214,1156,8.98,0.5653,0.9514,0.9753,0.9860,1,1,1,0.4347,0.8116,0.8869,0.9435
v_war_1_6,viewpoint,902,776,8.10,1.6734,0.8160,0.9346,0.9568,1,1,1,0.0000,0.4422,0.6653,0.8327
v_weapons_1_2,viewpoint,1125,1085,8.85,0.8738,0.9662,0.9858,0.9867,1,1,1,0.1262,0.7087,0.8252,0.9126
v_weapons_1_3,viewpoint,1024,946,9.14,0.7773,0.9238,0.9521,0.9678,1,1,1,0.2227,0.7409,0.8445,0.9223
v_weapons_1_4,viewpoint,1026,956,9.08,0.4446,0.9318,0.9532,0.9630,1,1,1,0.5554,0.8518,0.9111,0.9555
v_weapons_1_5,viewpoint,1144,1091,9.42,0.6440,0.9519,0.9747,0.9825,1,1,1,0.3560,0.7853,0.8712,0.9356
v_weapons_1_6,viewpoint,1031,980,8.19,0.8433,0.9476,0.9709,0.9806,1,1,1,0.1567,0.7189,0.8313,0.9157
v_woman_1_2,viewpoint,617,490,7.66,46.4100,0.0000,0.0000,0.0016,0,0,0,0.0000,0.0000,0.0000,0.0000
v_woman_1_3,viewpoint,739,641,7.73,49.8265,0.0000,0.0000,0.0014,0,0,0,0.0000,0.0000,0.0000,0.0000
v_woman_1_4,viewpoint,653,528,7.14,50.2262,0.0000,0.0000,0.0000,0,0,0,0.0000,0.0000,0.0000,0.0000
v_woman_1_5,viewpoint,530,366,7.57,44.3330,0.0000,0.0000,0.0000,0,0,0,0.0000,0.0000,0.0000,0.0000
v_woman_1_6,viewpoint,595,469,7.20,48.8664,0.0000,0.0000,0.0017,0,0,0,0.0000,0.0000,0.0000,0.0000
v_wormhole_1_2,viewpoint,905,845,8.16,0.6471,0.9315,0.9591,0.9657,1,1,1,0.3529,0.7843,0.8706,0.9353
v_wormhole_1_3,viewpoint,1012,938,7.96,0.6892,0.9219,0.9536,0.9664,1,1,1,0.3108,0.7703,0.8622,0.9311
v_wormhole_1_4,viewpoint,1175,1115,8.90,0.5747,0.9438,0.9685,0.9762,1,1,1,0.4253,0.8084,0.8851,0.9425
v_wormhole_1_5,viewpoint,910,795,8.48,2.5192,0.8758,0.9110,0.9330,1,1,1,0.0000,0.1603,0.4962,0.7481
v_wormhole_1_6,viewpoint,643,433,8.26,3.6614,0.6361,0.7543,0.7978,0,1,1,0.0000,0.0000,0.2677,0.6339
v_wounded_1_2,viewpoint,1016,947,7.55,0.7816,0.9291,0.9656,0.9744,1,1,1,0.2184,0.7395,0.8437,0.9218
v_wounded_1_3,viewpoint,752,591,6.54,2.0499,0.7859,0.8511,0.8644,1,1,1,0.0000,0.3167,0.5900,0.7950
v_wounded_1_4,viewpoint,480,316,6.40,24.0554,0.6500,0.7500,0.7854,0,0,0,0.0000,0.0000,0.0000,0.0000
v_wounded_1_5,viewpoint,690,592,6.74,0.9599,0.8594,0.9101,0.9319,1,1,1,0.0401,0.6800,0.8080,0.9040
v_wounded_1_6,viewpoint,510,364,6.35,5.9897,0.7137,0.8196,0.8588,0,0,1,0.0000,0.0000,0.0000,0.4010
v_yard_1_2,viewpoint,1150,1081,9.50,0.3342,0.9409,0.9713,0.9817,1,1,1,0.6658,0.8886,0.9332,0.9666
v_yard_1_3,viewpoint,755,591,9.20,1.6193,0.7523,0.8450,0.8781,1,1,1,0.0000,0.4602,0.6761,0.8381
v_yard_1_4,viewpoint,1058,977,9.15,0.4584,0.9178,0.9584,0.9745,1,1,1,0.5416,0.8472,0.9083,0.9542
v_yard_1_5,viewpoint,884,749,9.80,0.5607,0.8484,0.9129,0.9344,1,1,1,0.4393,0.8131,0.8879,0.9439
v_yard_1_6,viewpoint,777,551,9.34,1.5488,0.6924,0.8160,0.8507,1,1,1,0.0000,0.4837,0.6902,0.8451
v_yuri_1_2,viewpoint,801,754,6.78,0.3774,0.9401,0.9738,0.9825,1,1,1,0.6226,0.8742,0.9245,0.9623
v_yuri_1_3,viewpoint,681,603,6.40,2.1047,0.8767,0.9398,0.9618,1,1,1,0.0000,0.2984,0.5791,0.7895
v_yuri_1_4,viewpoint,625,492,6.44,56.6564,0.7376,0.8656,0.9104,0,0,0,0.0000,0.0000,0.0000,0.0000
v_yuri_1_5,viewpoint,713,638,6.49,1.3429,0.8948,0.9481,0.9719,1,1,1,0.0000,0.5524,0.7314,0.8657
v_yuri_1_6,viewpoint,635,517,6.55,4.0718,0.7701,0.8929,0.9244,0,1,1,0.0000,0.0000,0.1856,0.5928
