PairName,SeqType,NumMatches,Inliers,TimeMS,H_Error,MMA@3,MMA@5,MMA@7,MHA_Acc@3,MHA_Acc@5,MHA_Acc@7,AUC@1,AUC@3,AUC@5,AUC@10
i_ajuntament_1_2,illumination,2211,1858,327.64,0.3947,0.8372,0.9195,0.9552,1,1,1,0.6053,0.8684,0.9211,0.9605
i_ajuntament_1_3,illumination,1666,1203,34.21,1.0561,0.7125,0.8517,0.9226,1,1,1,0.0000,0.6480,0.7888,0.8944
i_ajuntament_1_4,illumination,1300,640,36.63,1.4977,0.4985,0.6823,0.7831,1,1,1,0.0000,0.5008,0.7005,0.8502
i_ajuntament_1_5,illumination,1263,697,34.02,1.2626,0.5566,0.7055,0.8044,1,1,1,0.0000,0.5791,0.7475,0.8737
i_ajuntament_1_6,illumination,1391,756,33.89,1.0250,0.5399,0.7096,0.8023,1,1,1,0.0000,0.6583,0.7950,0.8975
i_autannes_1_2,illumination,1968,1802,40.74,0.3470,0.9141,0.9685,0.9863,1,1,1,0.6530,0.8843,0.9306,0.9653
i_autannes_1_3,illumination,1831,1593,31.53,0.4563,0.8684,0.9448,0.9672,1,1,1,0.5437,0.8479,0.9087,0.9544
i_autannes_1_4,illumination,1226,717,28.58,1.3576,0.5677,0.7365,0.8254,1,1,1,0.0000,0.5475,0.7285,0.8642
i_autannes_1_5,illumination,1255,775,28.72,1.3272,0.6127,0.7618,0.8502,1,1,1,0.0000,0.5576,0.7346,0.8673
i_autannes_1_6,illumination,1627,1207,30.31,0.6288,0.7406,0.8556,0.9146,1,1,1,0.3712,0.7904,0.8742,0.9371
i_bologna_1_2,illumination,1108,1020,32.23,0.5104,0.9206,0.9567,0.9801,1,1,1,0.4896,0.8299,0.8979,0.9490
i_bologna_1_3,illumination,1028,898,22.22,0.2791,0.8745,0.9358,0.9708,1,1,1,0.7209,0.9070,0.9442,0.9721
i_bologna_1_4,illumination,967,798,21.82,1.2364,0.8201,0.9038,0.9524,1,1,1,0.0000,0.5879,0.7527,0.8764
i_bologna_1_5,illumination,888,695,21.52,1.5869,0.7736,0.8829,0.9471,1,1,1,0.0000,0.4710,0.6826,0.8413
i_bologna_1_6,illumination,857,670,21.03,1.4385,0.7725,0.8810,0.9428,1,1,1,0.0000,0.5205,0.7123,0.8562
i_books_1_2,illumination,1212,966,24.94,0.4100,0.7921,0.8655,0.9018,1,1,1,0.5900,0.8633,0.9180,0.9590
i_books_1_3,illumination,1316,1092,26.18,0.5572,0.8313,0.9073,0.9377,1,1,1,0.4428,0.8143,0.8886,0.9443
i_books_1_4,illumination,1400,1173,30.14,0.4634,0.8393,0.9207,0.9507,1,1,1,0.5366,0.8455,0.9073,0.9537
i_books_1_5,illumination,1439,1247,27.27,0.2351,0.8659,0.9236,0.9465,1,1,1,0.7649,0.9216,0.9530,0.9765
i_books_1_6,illumination,1366,1087,26.05,0.3365,0.7965,0.8675,0.9100,1,1,1,0.6635,0.8878,0.9327,0.9663
i_boutique_1_2,illumination,2182,1961,35.61,0.5860,0.8886,0.9583,0.9840,1,1,1,0.4140,0.8047,0.8828,0.9414
i_boutique_1_3,illumination,2175,1888,35.26,0.6977,0.8621,0.9503,0.9770,1,1,1,0.3023,0.7674,0.8605,0.9302
i_boutique_1_4,illumination,2223,1929,36.10,0.5591,0.8637,0.9456,0.9780,1,1,1,0.4409,0.8136,0.8882,0.9441
i_boutique_1_5,illumination,1571,1021,32.12,0.5914,0.6384,0.7919,0.8689,1,1,1,0.4086,0.8029,0.8817,0.9409
i_boutique_1_6,illumination,1541,992,31.33,0.3386,0.6366,0.7683,0.8475,1,1,1,0.6614,0.8871,0.9323,0.9661
i_bridger_1_2,illumination,2127,1882,47.90,0.4155,0.8806,0.9638,0.9901,1,1,1,0.5845,0.8615,0.9169,0.9585
i_bridger_1_3,illumination,1875,1544,32.74,0.5108,0.8171,0.9168,0.9616,1,1,1,0.4892,0.8297,0.8978,0.9489
i_bridger_1_4,illumination,1927,1612,31.88,0.7307,0.8376,0.9315,0.9761,1,1,1,0.2693,0.7564,0.8539,0.9269
i_bridger_1_5,illumination,1819,1410,31.19,0.9915,0.7702,0.8999,0.9566,1,1,1,0.0085,0.6695,0.8017,0.9009
i_bridger_1_6,illumination,1211,650,27.74,1.0646,0.5483,0.7217,0.8315,1,1,1,0.0000,0.6451,0.7871,0.8935
i_brooklyn_1_2,illumination,1752,1378,31.49,0.4212,0.7871,0.9001,0.9561,1,1,1,0.5788,0.8596,0.9158,0.9579
i_brooklyn_1_3,illumination,1985,1762,31.85,1.0709,0.8771,0.9683,0.9874,1,1,1,0.0000,0.6430,0.7858,0.8929
i_brooklyn_1_4,illumination,1629,1154,31.81,0.6078,0.7084,0.8471,0.9263,1,1,1,0.3922,0.7974,0.8784,0.9392
i_brooklyn_1_5,illumination,2008,1737,34.01,1.1395,0.8456,0.9622,0.9900,1,1,1,0.0000,0.6202,0.7721,0.8861
i_brooklyn_1_6,illumination,1720,1309,31.21,1.0570,0.7453,0.8831,0.9506,1,1,1,0.0000,0.6477,0.7886,0.8943
i_castle_1_2,illumination,1338,775,29.48,1.0663,0.5837,0.7534,0.8572,1,1,1,0.0000,0.6446,0.7867,0.8934
i_castle_1_3,illumination,1544,1153,29.58,0.3832,0.7481,0.8769,0.9385,1,1,1,0.6168,0.8723,0.9234,0.9617
i_castle_1_4,illumination,1455,1054,28.32,1.0850,0.7141,0.8447,0.9120,1,1,1,0.0000,0.6383,0.7830,0.8915
i_castle_1_5,illumination,1114,653,26.61,1.1387,0.5808,0.7415,0.8555,1,1,1,0.0000,0.6204,0.7723,0.8861
i_castle_1_6,illumination,1272,740,30.11,0.6521,0.5802,0.7303,0.8208,1,1,1,0.3479,0.7826,0.8696,0.9348
i_chestnuts_1_2,illumination,1701,1484,28.78,0.3125,0.8730,0.9318,0.9612,1,1,1,0.6875,0.8958,0.9375,0.9687
i_chestnuts_1_3,illumination,1678,1454,28.69,0.3931,0.8665,0.9190,0.9541,1,1,1,0.6069,0.8690,0.9214,0.9607
i_chestnuts_1_4,illumination,1685,1420,28.32,0.4086,0.8415,0.9092,0.9424,1,1,1,0.5914,0.8638,0.9183,0.9591
i_chestnuts_1_5,illumination,1577,1274,27.39,0.6279,0.8072,0.8782,0.9169,1,1,1,0.3721,0.7907,0.8744,0.9372
i_chestnuts_1_6,illumination,1383,1045,28.96,0.8175,0.7520,0.8344,0.8952,1,1,1,0.1825,0.7275,0.8365,0.9183
i_crownday_1_2,illumination,1844,1154,38.47,1.6339,0.6296,0.7766,0.8671,1,1,1,0.0000,0.4554,0.6732,0.8366
i_crownday_1_3,illumination,2196,1627,40.20,0.9610,0.7395,0.8611,0.9226,1,1,1,0.0390,0.6797,0.8078,0.9039
i_crownday_1_4,illumination,2405,1941,39.05,1.1535,0.8029,0.8998,0.9447,1,1,1,0.0000,0.6155,0.7693,0.8846
i_crownday_1_5,illumination,2684,2321,40.62,0.5760,0.8644,0.9359,0.9702,1,1,1,0.4240,0.8080,0.8848,0.9424
i_crownday_1_6,illumination,1714,1097,33.57,1.1271,0.6289,0.7870,0.8903,1,1,1,0.0000,0.6243,0.7746,0.8873
i_dome_1_2,illumination,1886,1761,30.03,0.1093,0.9337,0.9740,0.9846,1,1,1,0.8907,0.9636,0.9781,0.9891
i_dome_1_3,illumination,938,580,24.53,1.6428,0.6098,0.7495,0.8550,1,1,1,0.0000,0.4524,0.6714,0.8357
i_dome_1_4,illumination,915,558,24.25,2.6721,0.6219,0.7585,0.8557,1,1,1,0.0000,0.1093,0.4656,0.7328
i_dome_1_5,illumination,983,607,25.91,1.3132,0.6226,0.7569,0.8515,1,1,1,0.0000,0.5623,0.7374,0.8687
i_dome_1_6,illumination,1567,1228,29.09,0.6220,0.7817,0.8794,0.9266,1,1,1,0.3780,0.7927,0.8756,0.9378
i_duda_1_2,illumination,1027,1015,19.80,0.3339,0.9883,0.9971,0.9981,1,1,1,0.6661,0.8887,0.9332,0.9666
i_duda_1_3,illumination,978,955,19.81,0.3765,0.9765,0.9928,0.9980,1,1,1,0.6235,0.8745,0.9247,0.9623
i_duda_1_4,illumination,947,907,18.90,0.3040,0.9578,0.9926,0.9979,1,1,1,0.6960,0.8987,0.9392,0.9696
i_duda_1_5,illumination,901,838,19.93,0.5945,0.9279,0.9834,0.9967,1,1,1,0.4055,0.8018,0.8811,0.9405
i_duda_1_6,illumination,771,660,19.76,0.8587,0.8547,0.9364,0.9702,1,1,1,0.1413,0.7138,0.8283,0.9141
i_fenis_1_2,illumination,2043,1816,33.00,0.3908,0.8860,0.9506,0.9799,1,1,1,0.6092,0.8697,0.9218,0.9609
i_fenis_1_3,illumination,1679,1275,30.45,0.8009,0.7493,0.8690,0.9327,1,1,1,0.1991,0.7330,0.8398,0.9199
i_fenis_1_4,illumination,971,478,26.36,1.2891,0.4892,0.6498,0.7261,1,1,1,0.0000,0.5703,0.7422,0.8711
i_fenis_1_5,illumination,845,355,27.33,1.6744,0.4249,0.5574,0.6402,1,1,1,0.0000,0.4419,0.6651,0.8326
i_fenis_1_6,illumination,917,441,26.69,2.3210,0.4798,0.6161,0.7034,1,1,1,0.0000,0.2263,0.5358,0.7679
i_fog_1_2,illumination,2408,2182,37.11,0.3018,0.9041,0.9581,0.9884,1,1,1,0.6982,0.8994,0.9396,0.9698
i_fog_1_3,illumination,1937,1596,33.54,0.4627,0.8234,0.9081,0.9587,1,1,1,0.5373,0.8458,0.9075,0.9537
i_fog_1_4,illumination,1966,1561,33.62,0.6349,0.7915,0.8896,0.9440,1,1,1,0.3651,0.7884,0.8730,0.9365
i_fog_1_5,illumination,1270,958,27.96,1.2067,0.7520,0.8173,0.8630,1,1,1,0.0000,0.5978,0.7587,0.8793
i_fog_1_6,illumination,1257,939,27.67,0.5750,0.7454,0.8146,0.8632,1,1,1,0.4250,0.8083,0.8850,0.9425
i_fruits_1_2,illumination,2801,2227,53.25,0.5642,0.7936,0.9054,0.9414,1,1,1,0.4358,0.8119,0.8872,0.9436
i_fruits_1_3,illumination,2646,1998,41.48,0.5231,0.7543,0.8745,0.9327,1,1,1,0.4769,0.8256,0.8954,0.9477
i_fruits_1_4,illumination,2611,1976,42.39,0.5180,0.7537,0.8629,0.9119,1,1,1,0.4820,0.8273,0.8964,0.9482
i_fruits_1_5,illumination,2588,1931,40.99,0.6252,0.7427,0.8563,0.9077,1,1,1,0.3748,0.7916,0.8750,0.9375
i_fruits_1_6,illumination,2632,2001,41.33,0.9649,0.7568,0.8754,0.9179,1,1,1,0.0351,0.6784,0.8070,0.9035
i_gonnenberg_1_2,illumination,1886,1783,28.52,0.8246,0.9443,0.9799,0.9889,1,1,1,0.1754,0.7251,0.8351,0.9175
i_gonnenberg_1_3,illumination,1879,1757,28.95,0.7024,0.9329,0.9713,0.9830,1,1,1,0.2976,0.7659,0.8595,0.9298
i_gonnenberg_1_4,illumination,1774,1601,28.07,0.7791,0.9008,0.9622,0.9831,1,1,1,0.2209,0.7403,0.8442,0.9221
i_gonnenberg_1_5,illumination,1792,1650,27.58,0.6550,0.9224,0.9727,0.9855,1,1,1,0.3450,0.7817,0.8690,0.9345
i_gonnenberg_1_6,illumination,1821,1667,28.23,0.6090,0.9138,0.9621,0.9780,1,1,1,0.3910,0.7970,0.8782,0.9391
i_greenhouse_1_2,illumination,2464,2126,39.78,0.2426,0.8616,0.9367,0.9781,1,1,1,0.7574,0.9191,0.9515,0.9757
i_greenhouse_1_3,illumination,2523,2054,40.38,0.4786,0.8101,0.9124,0.9643,1,1,1,0.5214,0.8405,0.9043,0.9521
i_greenhouse_1_4,illumination,2409,1926,38.48,0.4440,0.7974,0.9029,0.9610,1,1,1,0.5560,0.8520,0.9112,0.9556
i_greenhouse_1_5,illumination,2364,1822,39.07,0.6607,0.7644,0.8786,0.9412,1,1,1,0.3393,0.7798,0.8679,0.9339
i_greenhouse_1_6,illumination,2200,1651,37.67,0.5901,0.7459,0.8700,0.9441,1,1,1,0.4099,0.8033,0.8820,0.9410
i_greentea_1_2,illumination,1493,1245,28.85,0.5817,0.8299,0.8881,0.9169,1,1,1,0.4183,0.8061,0.8837,0.9418
i_greentea_1_3,illumination,1948,1779,32.07,0.3325,0.9112,0.9466,0.9630,1,1,1,0.6675,0.8892,0.9335,0.9668
i_greentea_1_4,illumination,1991,1850,30.78,0.1334,0.9302,0.9593,0.9719,1,1,1,0.8666,0.9555,0.9733,0.9867
i_greentea_1_5,illumination,1995,1830,31.21,0.3179,0.9173,0.9469,0.9639,1,1,1,0.6821,0.8940,0.9364,0.9682
i_greentea_1_6,illumination,1914,1669,30.40,0.3649,0.8715,0.9274,0.9629,1,1,1,0.6351,0.8784,0.9270,0.9635
i_indiana_1_2,illumination,1826,1446,32.86,0.3502,0.7892,0.8921,0.9425,1,1,1,0.6498,0.8833,0.9300,0.9650
i_indiana_1_3,illumination,1766,1306,30.97,0.6913,0.7333,0.8658,0.9315,1,1,1,0.3087,0.7696,0.8617,0.9309
i_indiana_1_4,illumination,1667,1185,30.56,0.7197,0.7085,0.8554,0.9310,1,1,1,0.2803,0.7601,0.8561,0.9280
i_indiana_1_5,illumination,1634,1129,30.42,0.9681,0.6897,0.8372,0.9211,1,1,1,0.0319,0.6773,0.8064,0.9032
i_indiana_1_6,illumination,1568,1052,30.08,0.9816,0.6735,0.8221,0.8992,1,1,1,0.0184,0.6728,0.8037,0.9018
i_kions_1_2,illumination,1325,1049,33.96,1.3737,0.7721,0.8981,0.9540,1,1,1,0.0000,0.5421,0.7253,0.8626
i_kions_1_3,illumination,1093,782,25.00,0.6855,0.7136,0.8362,0.9003,1,1,1,0.3145,0.7715,0.8629,0.9315
i_kions_1_4,illumination,1241,807,25.85,2.5063,0.6342,0.8122,0.8977,1,1,1,0.0000,0.1646,0.4987,0.7494
i_kions_1_5,illumination,1231,827,25.64,2.4941,0.6694,0.8367,0.9147,1,1,1,0.0000,0.1686,0.5012,0.7506
i_kions_1_6,illumination,1013,660,24.00,0.6543,0.6446,0.7759,0.8430,1,1,1,0.3457,0.7819,0.8691,0.9346
i_ktirio_1_2,illumination,2234,2142,35.43,0.1199,0.9588,0.9870,0.9933,1,1,1,0.8801,0.9600,0.9760,0.9880
i_ktirio_1_3,illumination,1802,1498,30.74,0.5375,0.8296,0.9201,0.9556,1,1,1,0.4625,0.8208,0.8925,0.9462
i_ktirio_1_4,illumination,1324,884,27.63,1.9085,0.6579,0.7727,0.8512,1,1,1,0.0000,0.3638,0.6183,0.8091
i_ktirio_1_5,illumination,1591,1266,29.04,0.3897,0.7945,0.8862,0.9315,1,1,1,0.6103,0.8701,0.9221,0.9610
i_ktirio_1_6,illumination,1251,775,27.48,1.2066,0.6107,0.7474,0.8281,1,1,1,0.0000,0.5978,0.7587,0.8793
i_kurhaus_1_2,illumination,2039,1874,31.83,0.1109,0.9201,0.9671,0.9833,1,1,1,0.8891,0.9630,0.9778,0.9889
i_kurhaus_1_3,illumination,1844,1617,28.36,0.2479,0.8753,0.9431,0.9729,1,1,1,0.7521,0.9174,0.9504,0.9752
i_kurhaus_1_4,illumination,1713,1374,28.85,0.4838,0.8009,0.8897,0.9410,1,1,1,0.5162,0.8387,0.9032,0.9516
i_kurhaus_1_5,illumination,1579,1210,28.62,0.4910,0.7612,0.8619,0.9126,1,1,1,0.5090,0.8363,0.9018,0.9509
i_kurhaus_1_6,illumination,1467,1092,27.91,0.5079,0.7410,0.8371,0.8943,1,1,1,0.4921,0.8307,0.8984,0.9492
i_leuven_1_2,illumination,1948,1586,30.52,1.9427,0.7962,0.9004,0.9625,1,1,1,0.0000,0.3524,0.6115,0.8057
i_leuven_1_3,illumination,2120,1811,33.40,1.6696,0.8368,0.9292,0.9670,1,1,1,0.0000,0.4435,0.6661,0.8330
i_leuven_1_4,illumination,1975,1569,32.03,2.4664,0.7787,0.8927,0.9463,1,1,1,0.0000,0.1779,0.5067,0.7534
i_leuven_1_5,illumination,1779,1393,30.77,2.1793,0.7684,0.8865,0.9444,1,1,1,0.0000,0.2736,0.5641,0.7821
i_leuven_1_6,illumination,1598,1225,29.55,7.7756,0.5701,0.7353,0.8242,0,0,0,0.0000,0.0000,0.0000,0.2224
i_lionday_1_2,illumination,1200,749,25.61,1.5471,0.6117,0.7758,0.8758,1,1,1,0.0000,0.4843,0.6906,0.8453
i_lionday_1_3,illumination,1298,884,25.98,1.3477,0.6680,0.8066,0.8775,1,1,1,0.0000,0.5508,0.7305,0.8652
i_lionday_1_4,illumination,926,344,24.81,2.7314,0.3499,0.5184,0.6339,1,1,1,0.0000,0.0895,0.4537,0.7269
i_lionday_1_5,illumination,1087,503,24.15,4.1424,0.4315,0.6063,0.7314,0,1,1,0.0000,0.0000,0.1715,0.5858
i_lionday_1_6,illumination,1288,888,24.96,1.8948,0.6568,0.8152,0.8859,1,1,1,0.0000,0.3684,0.6210,0.8105
i_lionnight_1_2,illumination,1632,1323,30.32,0.5995,0.8119,0.9142,0.9559,1,1,1,0.4005,0.8002,0.8801,0.9401
i_lionnight_1_3,illumination,1157,785,28.38,1.0347,0.6672,0.7727,0.8341,1,1,1,0.0000,0.6551,0.7931,0.8965
i_lionnight_1_4,illumination,1687,1468,32.69,0.6369,0.8625,0.9330,0.9579,1,1,1,0.3631,0.7877,0.8726,0.9363
i_lionnight_1_5,illumination,1639,1398,30.82,1.0432,0.8359,0.9170,0.9396,1,1,1,0.0000,0.6523,0.7914,0.8957
i_lionnight_1_6,illumination,1649,1361,30.93,1.6227,0.8150,0.8933,0.9327,1,1,1,0.0000,0.4591,0.6755,0.8377
i_londonbridge_1_2,illumination,1534,1401,27.90,1.0342,0.9081,0.9694,0.9883,1,1,1,0.0000,0.6553,0.7932,0.8966
i_londonbridge_1_3,illumination,1452,1302,26.95,0.8421,0.8974,0.9676,0.9883,1,1,1,0.1579,0.7193,0.8316,0.9158
i_londonbridge_1_4,illumination,1299,1012,25.94,1.9824,0.7383,0.9076,0.9584,1,1,1,0.0000,0.3392,0.6035,0.8018
i_londonbridge_1_5,illumination,908,401,24.71,3.8015,0.3822,0.6101,0.7654,0,1,1,0.0000,0.0000,0.2397,0.6198
i_londonbridge_1_6,illumination,1307,1087,27.15,0.7341,0.8317,0.9273,0.9748,1,1,1,0.2659,0.7553,0.8532,0.9266
i_melon_1_2,illumination,1498,1281,27.77,0.3679,0.8545,0.9232,0.9513,1,1,1,0.6321,0.8774,0.9264,0.9632
i_melon_1_3,illumination,1285,996,25.43,0.9129,0.7782,0.8661,0.9191,1,1,1,0.0871,0.6957,0.8174,0.9087
i_melon_1_4,illumination,822,431,22.52,1.6812,0.5097,0.6484,0.7470,1,1,1,0.0000,0.4396,0.6638,0.8319
i_melon_1_5,illumination,1287,949,26.29,0.9990,0.7366,0.8547,0.9169,1,1,1,0.0010,0.6670,0.8002,0.9001
i_melon_1_6,illumination,1202,840,25.77,0.8260,0.6889,0.8087,0.8910,1,1,1,0.1740,0.7247,0.8348,0.9174
i_miniature_1_2,illumination,2048,1881,32.94,0.5398,0.9180,0.9590,0.9771,1,1,1,0.4602,0.8201,0.8920,0.9460
i_miniature_1_3,illumination,1834,1553,31.12,0.8986,0.8484,0.9128,0.9466,1,1,1,0.1014,0.7005,0.8203,0.9101
i_miniature_1_4,illumination,1395,946,29.38,1.5014,0.6817,0.8022,0.8760,1,1,1,0.0000,0.4995,0.6997,0.8499
i_miniature_1_5,illumination,992,500,27.08,2.1156,0.5071,0.6411,0.7218,1,1,1,0.0000,0.2948,0.5769,0.7884
i_miniature_1_6,illumination,1783,1503,31.11,0.9934,0.8396,0.9086,0.9405,1,1,1,0.0066,0.6689,0.8013,0.9007
i_nescafe_1_2,illumination,1340,1077,26.66,0.6391,0.8015,0.8701,0.8993,1,1,1,0.3609,0.7870,0.8722,0.9361
i_nescafe_1_3,illumination,1603,1370,28.75,1.1415,0.8409,0.9014,0.9245,1,1,1,0.0000,0.6195,0.7717,0.8858
i_nescafe_1_4,illumination,1672,1441,28.27,0.6636,0.8612,0.9133,0.9528,1,1,1,0.3364,0.7788,0.8673,0.9336
i_nescafe_1_5,illumination,1520,1322,27.74,0.4671,0.8684,0.9217,0.9592,1,1,1,0.5329,0.8443,0.9066,0.9533
i_nescafe_1_6,illumination,1440,1122,27.56,0.5116,0.7785,0.8667,0.9104,1,1,1,0.4884,0.8295,0.8977,0.9488
i_nijmegen_1_2,illumination,2551,2131,40.55,0.7245,0.8193,0.9432,0.9847,1,1,1,0.2755,0.7585,0.8551,0.9276
i_nijmegen_1_3,illumination,2757,2401,41.75,0.5577,0.8604,0.9666,0.9946,1,1,1,0.4423,0.8141,0.8885,0.9442
i_nijmegen_1_4,illumination,1810,1111,37.18,0.9461,0.6061,0.7646,0.8696,1,1,1,0.0539,0.6846,0.8108,0.9054
i_nijmegen_1_5,illumination,2756,2366,43.89,0.6441,0.8469,0.9561,0.9884,1,1,1,0.3559,0.7853,0.8712,0.9356
i_nijmegen_1_6,illumination,2693,2291,43.43,0.5838,0.8440,0.9536,0.9881,1,1,1,0.4162,0.8054,0.8832,0.9416
i_nuts_1_2,illumination,2347,1453,42.95,1.5644,0.6118,0.7409,0.8164,1,1,1,0.0000,0.4785,0.6871,0.8436
i_nuts_1_3,illumination,1410,649,35.70,1.5495,0.4660,0.5745,0.6560,1,1,1,0.0000,0.4835,0.6901,0.8451
i_nuts_1_4,illumination,1069,350,33.21,0.6288,0.3255,0.4247,0.4977,1,1,1,0.3712,0.7904,0.8742,0.9371
i_nuts_1_5,illumination,976,161,33.06,1.1028,0.1650,0.2490,0.3053,1,1,1,0.0000,0.6324,0.7794,0.8897
i_nuts_1_6,illumination,900,95,32.02,2.3993,0.1078,0.1511,0.2178,1,1,1,0.0000,0.2002,0.5201,0.7601
i_objects_1_2,illumination,1730,1450,30.38,0.8553,0.8324,0.9312,0.9757,1,1,1,0.1447,0.7149,0.8289,0.9145
i_objects_1_3,illumination,1591,1204,26.57,1.5046,0.7385,0.8755,0.9441,1,1,1,0.0000,0.4985,0.6991,0.8495
i_objects_1_4,illumination,1380,848,28.16,1.8252,0.5913,0.7594,0.8746,1,1,1,0.0000,0.3916,0.6350,0.8175
i_objects_1_5,illumination,1386,842,28.22,2.1289,0.5924,0.7597,0.8680,1,1,1,0.0000,0.2904,0.5742,0.7871
i_objects_1_6,illumination,1938,1724,30.30,0.2150,0.8901,0.9639,0.9876,1,1,1,0.7850,0.9283,0.9570,0.9785
i_parking_1_2,illumination,2017,1710,32.74,0.3048,0.8468,0.9440,0.9807,1,1,1,0.6952,0.8984,0.9390,0.9695
i_parking_1_3,illumination,1931,1635,31.01,0.4150,0.8493,0.9436,0.9808,1,1,1,0.5850,0.8617,0.9170,0.9585
i_parking_1_4,illumination,1637,1120,29.83,1.2749,0.6555,0.8265,0.9114,1,1,1,0.0000,0.5750,0.7450,0.8725
i_parking_1_5,illumination,1404,814,28.74,1.4139,0.5442,0.7265,0.8348,1,1,1,0.0000,0.5287,0.7172,0.8586
i_parking_1_6,illumination,1624,1137,29.40,1.0712,0.6890,0.8344,0.9150,1,1,1,0.0000,0.6429,0.7858,0.8929
i_partyfood_1_2,illumination,761,751,18.64,0.1440,0.9869,0.9947,0.9961,1,1,1,0.8560,0.9520,0.9712,0.9856
i_partyfood_1_3,illumination,713,691,18.76,1.0618,0.9621,0.9888,0.9902,1,1,1,0.0000,0.6461,0.7876,0.8938
i_partyfood_1_4,illumination,684,646,16.88,1.6648,0.9401,0.9751,0.9912,1,1,1,0.0000,0.4451,0.6670,0.8335
i_partyfood_1_5,illumination,659,617,16.93,1.6886,0.9332,0.9727,0.9863,1,1,1,0.0000,0.4371,0.6623,0.8311
i_partyfood_1_6,illumination,607,542,17.04,2.0402,0.8896,0.9407,0.9687,1,1,1,0.0000,0.3199,0.5920,0.7960
i_pinard_1_2,illumination,1439,1232,24.72,1.3574,0.8527,0.9090,0.9416,1,1,1,0.0000,0.5475,0.7285,0.8643
i_pinard_1_3,illumination,1087,739,21.46,1.5790,0.6753,0.7654,0.8362,1,1,1,0.0000,0.4737,0.6842,0.8421
i_pinard_1_4,illumination,1119,768,23.82,1.4656,0.6854,0.7775,0.8615,1,1,1,0.0000,0.5115,0.7069,0.8534
i_pinard_1_5,illumination,1187,860,23.34,1.5186,0.7178,0.8003,0.8736,1,1,1,0.0000,0.4938,0.6963,0.8481
i_pinard_1_6,illumination,1329,1000,24.65,0.9569,0.7419,0.8548,0.9172,1,1,1,0.0431,0.6810,0.8086,0.9043
i_pool_1_2,illumination,852,424,23.13,1.2459,0.5012,0.6561,0.7606,1,1,1,0.0000,0.5847,0.7508,0.8754
i_pool_1_3,illumination,441,100,22.64,4.1205,0.2268,0.3356,0.4580,0,1,1,0.0000,0.0000,0.1759,0.5879
i_pool_1_4,illumination,444,113,19.97,5.1030,0.2387,0.3468,0.4550,0,0,1,0.0000,0.0000,0.0000,0.4897
i_pool_1_5,illumination,638,236,20.89,2.2818,0.3605,0.5219,0.6379,1,1,1,0.0000,0.2394,0.5436,0.7718
i_pool_1_6,illumination,622,239,21.33,1.2606,0.3682,0.5241,0.6511,1,1,1,0.0000,0.5798,0.7479,0.8739
i_porta_1_2,illumination,2346,1551,40.00,0.4373,0.6569,0.8679,0.9386,1,1,1,0.5627,0.8542,0.9125,0.9563
i_porta_1_3,illumination,2355,1627,38.47,0.2494,0.6896,0.8858,0.9558,1,1,1,0.7506,0.9169,0.9501,0.9751
i_porta_1_4,illumination,1849,1100,34.76,1.2484,0.5928,0.8118,0.9091,1,1,1,0.0000,0.5839,0.7503,0.8752
i_porta_1_5,illumination,1114,686,24.36,1.4379,0.6248,0.8142,0.9057,1,1,1,0.0000,0.5207,0.7124,0.8562
i_porta_1_6,illumination,1120,543,29.07,0.9526,0.4875,0.6679,0.7741,1,1,1,0.0474,0.6825,0.8095,0.9047
i_resort_1_2,illumination,2557,2326,40.57,0.4169,0.9038,0.9746,0.9926,1,1,1,0.5831,0.8610,0.9166,0.9583
i_resort_1_3,illumination,2876,2780,42.88,0.1437,0.9673,0.9941,0.9979,1,1,1,0.8563,0.9521,0.9713,0.9856
i_resort_1_4,illumination,2864,2771,43.21,0.1341,0.9672,0.9906,0.9962,1,1,1,0.8659,0.9553,0.9732,0.9866
i_resort_1_5,illumination,2433,2139,39.08,0.6383,0.8788,0.9614,0.9885,1,1,1,0.3617,0.7872,0.8723,0.9362
i_resort_1_6,illumination,2473,2202,39.17,0.5880,0.8908,0.9689,0.9939,1,1,1,0.4120,0.8040,0.8824,0.9412
i_salon_1_2,illumination,2778,2668,42.53,0.2145,0.9590,0.9856,0.9935,1,1,1,0.7855,0.9285,0.9571,0.9785
i_salon_1_3,illumination,2456,2218,38.92,0.4091,0.9002,0.9621,0.9910,1,1,1,0.5909,0.8636,0.9182,0.9591
i_salon_1_4,illumination,2080,1647,37.29,0.6400,0.7913,0.9077,0.9654,1,1,1,0.3600,0.7867,0.8720,0.9360
i_salon_1_5,illumination,2481,2240,39.01,0.2857,0.9012,0.9657,0.9863,1,1,1,0.7143,0.9048,0.9429,0.9714
i_salon_1_6,illumination,2194,1857,36.09,0.4674,0.8437,0.9294,0.9672,1,1,1,0.5326,0.8442,0.9065,0.9533
i_santuario_1_2,illumination,2013,1641,32.91,1.0876,0.7953,0.9160,0.9617,1,1,1,0.0000,0.6375,0.7825,0.8912
i_santuario_1_3,illumination,2010,1651,32.93,1.1935,0.7995,0.9194,0.9622,1,1,1,0.0000,0.6022,0.7613,0.8807
i_santuario_1_4,illumination,1823,1396,30.97,1.4798,0.7197,0.8678,0.9232,1,1,1,0.0000,0.5067,0.7040,0.8520
i_santuario_1_5,illumination,2046,1711,32.17,0.6072,0.8260,0.9257,0.9648,1,1,1,0.3928,0.7976,0.8786,0.9393
i_santuario_1_6,illumination,1757,1349,30.54,1.1772,0.7484,0.8867,0.9476,1,1,1,0.0000,0.6076,0.7646,0.8823
i_school_1_2,illumination,2372,2143,37.62,0.1806,0.9022,0.9684,0.9878,1,1,1,0.8194,0.9398,0.9639,0.9819
i_school_1_3,illumination,2285,2029,35.92,0.2082,0.8893,0.9571,0.9812,1,1,1,0.7918,0.9306,0.9584,0.9792
i_school_1_4,illumination,1680,1237,30.79,0.5307,0.7304,0.8518,0.9143,1,1,1,0.4693,0.8231,0.8939,0.9469
i_school_1_5,illumination,1980,1534,33.12,0.5399,0.7697,0.8808,0.9328,1,1,1,0.4601,0.8200,0.8920,0.9460
i_school_1_6,illumination,1393,791,30.95,1.4522,0.5520,0.7021,0.7846,1,1,1,0.0000,0.5159,0.7096,0.8548
i_ski_1_2,illumination,2406,2261,35.41,0.2318,0.9426,0.9792,0.9900,1,1,1,0.7682,0.9227,0.9536,0.9768
i_ski_1_3,illumination,2270,2072,34.60,0.3258,0.9110,0.9678,0.9859,1,1,1,0.6742,0.8914,0.9348,0.9674
i_ski_1_4,illumination,2117,1843,32.90,0.5007,0.8668,0.9485,0.9816,1,1,1,0.4993,0.8331,0.8999,0.9499
i_ski_1_5,illumination,2039,1711,30.85,0.4679,0.8333,0.9259,0.9671,1,1,1,0.5321,0.8440,0.9064,0.9532
i_ski_1_6,illumination,1990,1637,32.00,0.6423,0.8191,0.9181,0.9603,1,1,1,0.3577,0.7859,0.8715,0.9358
i_smurf_1_2,illumination,2112,1794,34.33,0.8918,0.8485,0.9029,0.9474,1,1,1,0.1082,0.7027,0.8216,0.9108
i_smurf_1_3,illumination,2121,1824,32.47,0.4363,0.8567,0.9227,0.9529,1,1,1,0.5637,0.8546,0.9127,0.9564
i_smurf_1_4,illumination,1983,1676,31.94,0.4090,0.8472,0.9107,0.9470,1,1,1,0.5910,0.8637,0.9182,0.9591
i_smurf_1_5,illumination,1922,1566,31.00,0.5495,0.8137,0.8809,0.9240,1,1,1,0.4505,0.8168,0.8901,0.9450
i_smurf_1_6,illumination,1654,1187,29.92,0.4961,0.7183,0.8229,0.8869,1,1,1,0.5039,0.8346,0.9008,0.9504
i_steps_1_2,illumination,2064,1918,31.32,0.2720,0.9278,0.9826,0.9956,1,1,1,0.7280,0.9093,0.9456,0.9728
i_steps_1_3,illumination,2055,1885,32.30,0.6388,0.9153,0.9752,0.9917,1,1,1,0.3612,0.7871,0.8722,0.9361
i_steps_1_4,illumination,2079,1920,32.68,0.3910,0.9235,0.9755,0.9942,1,1,1,0.6090,0.8697,0.9218,0.9609
i_steps_1_5,illumination,1524,1242,28.31,0.5474,0.8117,0.8970,0.9429,1,1,1,0.4526,0.8175,0.8905,0.9453
i_steps_1_6,illumination,1798,1547,29.75,0.4552,0.8582,0.9338,0.9727,1,1,1,0.5448,0.8483,0.9090,0.9545
i_table_1_2,illumination,1730,1450,29.60,0.8553,0.8324,0.9312,0.9757,1,1,1,0.1447,0.7149,0.8289,0.9145
i_table_1_3,illumination,1591,1204,26.23,1.5046,0.7385,0.8755,0.9441,1,1,1,0.0000,0.4985,0.6991,0.8495
i_table_1_4,illumination,1380,848,26.47,1.8252,0.5913,0.7594,0.8746,1,1,1,0.0000,0.3916,0.6350,0.8175
i_table_1_5,illumination,1386,842,25.11,2.1289,0.5924,0.7597,0.8680,1,1,1,0.0000,0.2904,0.5742,0.7871
i_table_1_6,illumination,1938,1724,27.91,0.2150,0.8901,0.9639,0.9876,1,1,1,0.7850,0.9283,0.9570,0.9785
i_tools_1_2,illumination,657,237,21.36,4.7880,0.2542,0.4170,0.5921,0,1,1,0.0000,0.0000,0.0424,0.5212
i_tools_1_3,illumination,985,659,23.28,1.5173,0.6406,0.8305,0.9107,1,1,1,0.0000,0.4942,0.6965,0.8483
i_tools_1_4,illumination,713,246,20.23,4.1492,0.3001,0.4783,0.6578,0,1,1,0.0000,0.0000,0.1702,0.5851
i_tools_1_5,illumination,826,494,22.19,2.4379,0.5811,0.7215,0.8184,1,1,1,0.0000,0.1874,0.5124,0.7562
i_tools_1_6,illumination,662,228,22.95,6.4449,0.1601,0.2915,0.4668,0,0,1,0.0000,0.0000,0.0000,0.3555
i_toy_1_2,illumination,3111,2738,46.09,0.2335,0.8788,0.9531,0.9823,1,1,1,0.7665,0.9222,0.9533,0.9767
i_toy_1_3,illumination,2956,2371,45.39,0.3945,0.7991,0.9100,0.9581,1,1,1,0.6055,0.8685,0.9211,0.9605
i_toy_1_4,illumination,2534,1732,41.78,0.6556,0.6800,0.8161,0.9041,1,1,1,0.3444,0.7815,0.8689,0.9344
i_toy_1_5,illumination,1968,1028,35.21,1.0248,0.5198,0.6636,0.7769,1,1,1,0.0000,0.6584,0.7950,0.8975
i_toy_1_6,illumination,1321,412,34.22,2.5565,0.3111,0.4542,0.5662,1,1,1,0.0000,0.1478,0.4887,0.7443
i_troulos_1_2,illumination,949,760,20.91,1.0798,0.7903,0.8978,0.9399,1,1,1,0.0000,0.6401,0.7840,0.8920
i_troulos_1_3,illumination,698,449,18.30,3.5745,0.4155,0.7049,0.8395,0,1,1,0.0000,0.0000,0.2851,0.6426
i_troulos_1_4,illumination,1064,956,20.19,0.9210,0.8929,0.9539,0.9718,1,1,1,0.0790,0.6930,0.8158,0.9079
i_troulos_1_5,illumination,880,663,20.08,1.2622,0.7318,0.8511,0.9216,1,1,1,0.0000,0.5793,0.7476,0.8738
i_troulos_1_6,illumination,781,598,19.51,1.7441,0.7439,0.8886,0.9513,1,1,1,0.0000,0.4186,0.6512,0.8256
i_veggies_1_2,illumination,2004,1895,31.20,0.3213,0.9451,0.9785,0.9905,1,1,1,0.6787,0.8929,0.9357,0.9679
i_veggies_1_3,illumination,1635,1337,28.09,1.0407,0.8122,0.8924,0.9413,1,1,1,0.0000,0.6531,0.7919,0.8959
i_veggies_1_4,illumination,1816,1606,28.44,0.5397,0.8833,0.9361,0.9664,1,1,1,0.4603,0.8201,0.8921,0.9460
i_veggies_1_5,illumination,1348,871,26.11,0.6847,0.6365,0.7648,0.8694,1,1,1,0.3153,0.7718,0.8631,0.9315
i_veggies_1_6,illumination,1242,734,25.85,0.8504,0.5926,0.7206,0.8438,1,1,1,0.1496,0.7165,0.8299,0.9150
i_village_1_2,illumination,2494,1858,50.33,0.9915,0.7422,0.8689,0.9334,1,1,1,0.0085,0.6695,0.8017,0.9008
i_village_1_3,illumination,2430,1776,40.34,0.6198,0.7226,0.8617,0.9416,1,1,1,0.3802,0.7934,0.8760,0.9380
i_village_1_4,illumination,2456,1854,39.31,0.7653,0.7496,0.8791,0.9381,1,1,1,0.2347,0.7449,0.8469,0.9235
i_village_1_5,illumination,3160,2927,46.06,0.3259,0.9263,0.9778,0.9915,1,1,1,0.6741,0.8914,0.9348,0.9674
i_village_1_6,illumination,2227,1600,40.43,0.7232,0.7104,0.8379,0.9048,1,1,1,0.2768,0.7589,0.8554,0.9277
i_yellowtent_1_2,illumination,2129,2043,31.66,0.1519,0.9568,0.9789,0.9868,1,1,1,0.8481,0.9494,0.9696,0.9848
i_yellowtent_1_3,illumination,1936,1755,31.27,0.2846,0.9065,0.9623,0.9804,1,1,1,0.7154,0.9051,0.9431,0.9715
i_yellowtent_1_4,illumination,1628,1319,28.98,0.5227,0.8096,0.9165,0.9521,1,1,1,0.4773,0.8258,0.8955,0.9477
i_yellowtent_1_5,illumination,1632,1317,27.51,0.5700,0.8100,0.8897,0.9295,1,1,1,0.4300,0.8100,0.8860,0.9430
i_yellowtent_1_6,illumination,1447,1029,28.01,0.9915,0.7104,0.8217,0.8777,1,1,1,0.0085,0.6695,0.8017,0.9009
i_zion_1_2,illumination,2665,2393,40.00,0.5499,0.8983,0.9538,0.9719,1,1,1,0.4501,0.8167,0.8900,0.9450
i_zion_1_3,illumination,2001,1445,35.56,0.7358,0.7116,0.8331,0.8986,1,1,1,0.2642,0.7547,0.8528,0.9264
i_zion_1_4,illumination,1207,708,29.89,0.8108,0.5808,0.7051,0.7871,1,1,1,0.1892,0.7297,0.8378,0.9189
i_zion_1_5,illumination,927,442,27.66,1.3728,0.4628,0.5944,0.6904,1,1,1,0.0000,0.5424,0.7254,0.8627
i_zion_1_6,illumination,978,554,26.86,1.3202,0.5644,0.6800,0.7822,1,1,1,0.0000,0.5599,0.7360,0.8680
v_abstract_1_2,viewpoint,2212,1899,37.49,0.4279,0.8540,0.9403,0.9706,1,1,1,0.5721,0.8574,0.9144,0.9572
v_abstract_1_3,viewpoint,2155,1778,36.57,1.1392,0.8200,0.9202,0.9508,1,1,1,0.0000,0.6203,0.7722,0.8861
v_abstract_1_4,viewpoint,1440,944,30.70,2.2617,0.6542,0.8090,0.8736,1,1,1,0.0000,0.2461,0.5477,0.7738
v_abstract_1_5,viewpoint,1663,1268,32.79,0.8759,0.7438,0.8593,0.9176,1,1,1,0.1241,0.7080,0.8248,0.9124
v_abstract_1_6,viewpoint,1187,729,28.60,1.4139,0.5981,0.7372,0.8020,1,1,1,0.0000,0.5287,0.7172,0.8586
v_adam_1_2,viewpoint,1751,1466,32.50,0.8975,0.8355,0.9298,0.9577,1,1,1,0.1025,0.7008,0.8205,0.9103
v_adam_1_3,viewpoint,1467,1150,28.50,1.1462,0.7655,0.9005,0.9530,1,1,1,0.0000,0.6179,0.7708,0.8854
v_adam_1_4,viewpoint,872,541,26.83,1.6037,0.6067,0.7729,0.8383,1,1,1,0.0000,0.4654,0.6793,0.8396
v_adam_1_5,viewpoint,1252,957,28.72,1.3011,0.7596,0.8834,0.9417,1,1,1,0.0000,0.5663,0.7398,0.8699
v_adam_1_6,viewpoint,1222,896,28.46,1.5349,0.7144,0.8552,0.9345,1,1,1,0.0000,0.4884,0.6930,0.8465
v_apprentices_1_2,viewpoint,1883,1605,41.13,0.3025,0.8502,0.9384,0.9655,1,1,1,0.6975,0.8992,0.9395,0.9698
v_apprentices_1_3,viewpoint,1671,1416,30.72,0.6862,0.8450,0.9324,0.9689,1,1,1,0.3138,0.7713,0.8628,0.9314
v_apprentices_1_4,viewpoint,1342,1062,28.23,0.6140,0.7772,0.9039,0.9493,1,1,1,0.3860,0.7953,0.8772,0.9386
v_apprentices_1_5,viewpoint,1068,777,27.01,0.9504,0.7125,0.8633,0.9288,1,1,1,0.0496,0.6832,0.8099,0.9050
v_apprentices_1_6,viewpoint,913,630,26.92,0.9500,0.6911,0.8171,0.8850,1,1,1,0.0500,0.6833,0.8100,0.9050
v_azzola_1_2,viewpoint,1988,1563,45.65,1.2221,0.7802,0.8989,0.9482,1,1,1,0.0000,0.5926,0.7556,0.8778
v_azzola_1_3,viewpoint,1485,1028,31.58,1.9077,0.6640,0.8519,0.9259,1,1,1,0.0000,0.3641,0.6185,0.8092
v_azzola_1_4,viewpoint,1971,1655,35.16,0.5685,0.8361,0.9209,0.9569,1,1,1,0.4315,0.8105,0.8863,0.9431
v_azzola_1_5,viewpoint,1248,852,29.96,1.0119,0.6546,0.8229,0.8910,1,1,1,0.0000,0.6627,0.7976,0.8988
v_azzola_1_6,viewpoint,660,348,24.86,2.0701,0.4833,0.6545,0.7439,1,1,1,0.0000,0.3100,0.5860,0.7930
v_bark_1_2,viewpoint,1335,742,31.07,0.9837,0.5506,0.6704,0.7603,1,1,1,0.0163,0.6721,0.8033,0.9016
v_bark_1_3,viewpoint,553,12,27.21,475.6313,0.0000,0.0000,0.0000,0,0,0,0.0000,0.0000,0.0000,0.0000
v_bark_1_4,viewpoint,569,13,27.27,470.6225,0.0000,0.0000,0.0000,0,0,0,0.0000,0.0000,0.0000,0.0000
v_bark_1_5,viewpoint,515,24,26.45,211.8014,0.0078,0.0117,0.0155,0,0,0,0.0000,0.0000,0.0000,0.0000
v_bark_1_6,viewpoint,521,8,26.82,573.9325,0.0000,0.0019,0.0019,0,0,0,0.0000,0.0000,0.0000,0.0000
v_bees_1_2,viewpoint,2400,2078,42.04,0.4284,0.8642,0.9392,0.9775,1,1,1,0.5716,0.8572,0.9143,0.9572
v_bees_1_3,viewpoint,2515,2163,39.58,0.6181,0.8545,0.9396,0.9750,1,1,1,0.3819,0.7940,0.8764,0.9382
v_bees_1_4,viewpoint,2191,1872,35.93,0.6276,0.8476,0.9370,0.9722,1,1,1,0.3724,0.7908,0.8745,0.9372
v_bees_1_5,viewpoint,1618,1190,31.49,1.4604,0.7268,0.8362,0.8993,1,1,1,0.0000,0.5132,0.7079,0.8540
v_bees_1_6,viewpoint,1685,1359,29.70,1.2278,0.8006,0.9080,0.9531,1,1,1,0.0000,0.5907,0.7544,0.8772
v_beyus_1_2,viewpoint,590,316,29.38,2.6303,0.5051,0.7000,0.8102,1,1,1,0.0000,0.1232,0.4739,0.7370
v_beyus_1_3,viewpoint,677,308,22.41,1.7290,0.4417,0.6100,0.7164,1,1,1,0.0000,0.4237,0.6542,0.8271
v_beyus_1_4,viewpoint,805,541,22.24,1.0091,0.6596,0.8286,0.9118,1,1,1,0.0000,0.6636,0.7982,0.8991
v_beyus_1_5,viewpoint,506,194,20.76,2.6023,0.3794,0.5474,0.6779,1,1,1,0.0000,0.1326,0.4795,0.7398
v_beyus_1_6,viewpoint,790,459,22.90,1.9609,0.5595,0.7595,0.8519,1,1,1,0.0000,0.3464,0.6078,0.8039
v_bip_1_2,viewpoint,1204,914,28.85,0.4315,0.7591,0.8713,0.9061,1,1,1,0.5685,0.8562,0.9137,0.9568
v_bip_1_3,viewpoint,1097,784,27.99,0.7606,0.7174,0.8350,0.8788,1,1,1,0.2394,0.7465,0.8479,0.9239
v_bip_1_4,viewpoint,1135,819,27.13,0.7868,0.7225,0.8405,0.8837,1,1,1,0.2132,0.7377,0.8426,0.9213
v_bip_1_5,viewpoint,495,84,23.64,3.2250,0.1697,0.2687,0.3273,0,1,1,0.0000,0.0000,0.3550,0.6775
v_bip_1_6,viewpoint,366,22,22.76,19.4517,0.0574,0.0956,0.1366,0,0,0,0.0000,0.0000,0.0000,0.0000
v_bird_1_2,viewpoint,1153,840,30.36,77.0543,0.0000,0.0000,0.0000,0,0,0,0.0000,0.0000,0.0000,0.0000
v_bird_1_3,viewpoint,1070,693,29.39,84.8082,0.0000,0.0009,0.0009,0,0,0,0.0000,0.0000,0.0000,0.0000
v_bird_1_4,viewpoint,1190,790,30.86,99.2885,0.0000,0.0000,0.0008,0,0,0,0.0000,0.0000,0.0000,0.0000
v_bird_1_5,viewpoint,1057,582,29.78,86.2672,0.0000,0.0009,0.0019,0,0,0,0.0000,0.0000,0.0000,0.0000
v_bird_1_6,viewpoint,631,156,29.84,177.5132,0.0000,0.0000,0.0000,0,0,0,0.0000,0.0000,0.0000,0.0000
v_birdwoman_1_2,viewpoint,539,87,31.39,42.2159,0.0000,0.0000,0.0019,0,0,0,0.0000,0.0000,0.0000,0.0000
v_birdwoman_1_3,viewpoint,757,341,31.47,53.8499,0.0000,0.0000,0.0000,0,0,0,0.0000,0.0000,0.0000,0.0000
v_birdwoman_1_4,viewpoint,1143,695,32.87,50.2478,0.0000,0.0009,0.0017,0,0,0,0.0000,0.0000,0.0000,0.0000
v_birdwoman_1_5,viewpoint,1937,1454,35.62,52.6072,0.0000,0.0000,0.0000,0,0,0,0.0000,0.0000,0.0000,0.0000
v_birdwoman_1_6,viewpoint,1080,628,32.40,51.5326,0.0000,0.0000,0.0000,0,0,0,0.0000,0.0000,0.0000,0.0000
v_blueprint_1_2,viewpoint,1879,1553,34.23,0.4220,0.8201,0.9340,0.9755,1,1,1,0.5780,0.8593,0.9156,0.9578
v_blueprint_1_3,viewpoint,1399,1022,30.42,1.0127,0.7334,0.8620,0.9285,1,1,1,0.0000,0.6624,0.7975,0.8987
v_blueprint_1_4,viewpoint,1663,1365,32.59,0.5556,0.8076,0.9417,0.9820,1,1,1,0.4444,0.8148,0.8889,0.9444
v_blueprint_1_5,viewpoint,1159,790,29.41,1.4644,0.6411,0.8059,0.8913,1,1,1,0.0000,0.5119,0.7071,0.8536
v_blueprint_1_6,viewpoint,792,388,31.08,1.9054,0.4533,0.5909,0.6831,1,1,1,0.0000,0.3649,0.6189,0.8095
v_boat_1_2,viewpoint,2338,1942,49.81,0.8806,0.8229,0.9333,0.9688,1,1,1,0.1194,0.7065,0.8239,0.9119
v_boat_1_3,viewpoint,1231,622,30.96,1.1884,0.4955,0.7051,0.8270,1,1,1,0.0000,0.6039,0.7623,0.8812
v_boat_1_4,viewpoint,516,10,29.24,264.1234,0.0136,0.0233,0.0388,0,0,0,0.0000,0.0000,0.0000,0.0000
v_boat_1_5,viewpoint,499,13,28.51,3304.8128,0.0000,0.0020,0.0020,0,0,0,0.0000,0.0000,0.0000,0.0000
v_boat_1_6,viewpoint,760,149,29.98,1.5742,0.1803,0.3184,0.3829,1,1,1,0.0000,0.4753,0.6852,0.8426
v_bricks_1_2,viewpoint,2523,2200,40.67,33.0496,0.0016,0.0087,0.0317,0,0,0,0.0000,0.0000,0.0000,0.0000
v_bricks_1_3,viewpoint,2356,1931,39.07,31.6011,0.0013,0.0072,0.0284,0,0,0,0.0000,0.0000,0.0000,0.0000
v_bricks_1_4,viewpoint,1866,1430,35.43,30.0205,0.0005,0.0054,0.0139,0,0,0,0.0000,0.0000,0.0000,0.0000
v_bricks_1_5,viewpoint,1523,1014,33.33,27.1690,0.0000,0.0053,0.0177,0,0,0,0.0000,0.0000,0.0000,0.0000
v_bricks_1_6,viewpoint,946,388,30.30,26.3243,0.0000,0.0000,0.0000,0,0,0,0.0000,0.0000,0.0000,0.0000
v_busstop_1_2,viewpoint,2167,1796,39.85,0.2158,0.8302,0.9239,0.9557,1,1,1,0.7842,0.9281,0.9568,0.9784
v_busstop_1_3,viewpoint,1736,1279,35.67,0.4187,0.7379,0.8422,0.8894,1,1,1,0.5813,0.8604,0.9163,0.9581
v_busstop_1_4,viewpoint,1872,1452,36.09,0.8576,0.7687,0.8761,0.9290,1,1,1,0.1424,0.7141,0.8285,0.9142
v_busstop_1_5,viewpoint,1733,1379,34.95,0.6676,0.7882,0.8938,0.9331,1,1,1,0.3324,0.7775,0.8665,0.9332
v_busstop_1_6,viewpoint,2235,1859,38.41,0.9910,0.8255,0.9195,0.9544,1,1,1,0.0090,0.6697,0.8018,0.9009
v_calder_1_2,viewpoint,1356,967,31.19,1.0597,0.7109,0.8289,0.8931,1,1,1,0.0000,0.6468,0.7881,0.8940
v_calder_1_3,viewpoint,1786,1470,33.69,0.6275,0.8141,0.9177,0.9552,1,1,1,0.3725,0.7908,0.8745,0.9373
v_calder_1_4,viewpoint,892,493,27.51,1.7541,0.5404,0.7130,0.7836,1,1,1,0.0000,0.4153,0.6492,0.8246
v_calder_1_5,viewpoint,657,178,23.61,2.0927,0.2572,0.3729,0.4627,1,1,1,0.0000,0.3024,0.5815,0.7907
v_calder_1_6,viewpoint,437,9,24.38,333.0068,0.0160,0.0503,0.0686,0,0,0,0.0000,0.0000,0.0000,0.0000
v_cartooncity_1_2,viewpoint,1771,1474,34.08,62.1695,0.0000,0.0000,0.0011,0,0,0,0.0000,0.0000,0.0000,0.0000
v_cartooncity_1_3,viewpoint,963,532,38.41,66.0790,0.0000,0.0000,0.0000,0,0,0,0.0000,0.0000,0.0000,0.0000
v_cartooncity_1_4,viewpoint,1611,1276,39.86,74.5336,0.0006,0.0006,0.0019,0,0,0,0.0000,0.0000,0.0000,0.0000
v_cartooncity_1_5,viewpoint,943,530,40.78,75.4823,0.0000,0.0000,0.0000,0,0,0,0.0000,0.0000,0.0000,0.0000
v_cartooncity_1_6,viewpoint,963,505,31.43,69.7661,0.0000,0.0000,0.0000,0,0,0,0.0000,0.0000,0.0000,0.0000
v_charing_1_2,viewpoint,580,223,27.90,7.7272,0.3707,0.5241,0.6328,0,0,0,0.0000,0.0000,0.0000,0.2273
v_charing_1_3,viewpoint,400,103,22.07,90.9023,0.2600,0.3675,0.4675,0,0,0,0.0000,0.0000,0.0000,0.0000
v_charing_1_4,viewpoint,552,261,21.78,8.7543,0.4674,0.6141,0.7101,0,0,0,0.0000,0.0000,0.0000,0.1246
v_charing_1_5,viewpoint,553,250,19.37,109.0172,0.4358,0.5624,0.6293,0,0,0,0.0000,0.0000,0.0000,0.0000
v_charing_1_6,viewpoint,528,184,21.25,17729.4047,0.3447,0.4792,0.5739,0,0,0,0.0000,0.0000,0.0000,0.0000
v_churchill_1_2,viewpoint,1431,998,30.33,2.8202,0.6946,0.8099,0.8812,1,1,1,0.0000,0.0599,0.4360,0.7180
v_churchill_1_3,viewpoint,1224,741,29.02,3.6814,0.5948,0.7377,0.8301,0,1,1,0.0000,0.0000,0.2637,0.6319
v_churchill_1_4,viewpoint,1154,723,28.49,3.0308,0.6291,0.7773,0.8640,0,1,1,0.0000,0.0000,0.3938,0.6969
v_churchill_1_5,viewpoint,1646,1462,30.20,0.5831,0.8858,0.9508,0.9787,1,1,1,0.4169,0.8056,0.8834,0.9417
v_churchill_1_6,viewpoint,817,429,24.80,2.0966,0.5288,0.6805,0.8042,1,1,1,0.0000,0.3011,0.5807,0.7903
v_circus_1_2,viewpoint,923,751,24.06,0.7426,0.8093,0.9198,0.9426,1,1,1,0.2574,0.7525,0.8515,0.9257
v_circus_1_3,viewpoint,742,450,22.56,1.1804,0.6132,0.7520,0.8127,1,1,1,0.0000,0.6065,0.7639,0.8820
v_circus_1_4,viewpoint,674,329,21.91,1.5701,0.4777,0.6380,0.7003,1,1,1,0.0000,0.4766,0.6860,0.8430
v_circus_1_5,viewpoint,904,648,23.28,0.9012,0.7113,0.8485,0.8905,1,1,1,0.0988,0.6996,0.8198,0.9099
v_circus_1_6,viewpoint,728,408,22.33,1.1903,0.5467,0.6964,0.7651,1,1,1,0.0000,0.6032,0.7619,0.8810
v_coffeehouse_1_2,viewpoint,1163,878,27.28,0.8362,0.7541,0.8530,0.9080,1,1,1,0.1638,0.7213,0.8328,0.9164
v_coffeehouse_1_3,viewpoint,1150,837,26.73,0.6082,0.7165,0.8452,0.9070,1,1,1,0.3918,0.7973,0.8784,0.9392
v_coffeehouse_1_4,viewpoint,941,593,25.36,1.2795,0.6227,0.7460,0.8215,1,1,1,0.0000,0.5735,0.7441,0.8720
v_coffeehouse_1_5,viewpoint,1006,728,25.43,0.4793,0.7177,0.8459,0.8907,1,1,1,0.5207,0.8402,0.9041,0.9521
v_coffeehouse_1_6,viewpoint,788,399,24.81,1.3019,0.5178,0.6409,0.7195,1,1,1,0.0000,0.5660,0.7396,0.8698
v_colors_1_2,viewpoint,1015,514,27.25,0.9565,0.5113,0.7015,0.7537,1,1,1,0.0435,0.6812,0.8087,0.9044
v_colors_1_3,viewpoint,955,356,26.66,1.9115,0.3728,0.5728,0.6366,1,1,1,0.0000,0.3628,0.6177,0.8089
v_colors_1_4,viewpoint,614,150,26.19,11.9448,0.2362,0.3404,0.4023,0,0,0,0.0000,0.0000,0.0000,0.0000
v_colors_1_5,viewpoint,506,89,22.48,16.7800,0.1700,0.2510,0.3123,0,0,0,0.0000,0.0000,0.0000,0.0000
v_colors_1_6,viewpoint,393,15,24.45,102721.3183,0.0662,0.1018,0.1272,0,0,0,0.0000,0.0000,0.0000,0.0000
v_courses_1_2,viewpoint,1646,1342,28.30,1.4476,0.8074,0.9283,0.9635,1,1,1,0.0000,0.5175,0.7105,0.8552
v_courses_1_3,viewpoint,1303,927,27.76,1.3840,0.7061,0.8442,0.9163,1,1,1,0.0000,0.5387,0.7232,0.8616
v_courses_1_4,viewpoint,1301,1034,26.25,1.4253,0.7848,0.9116,0.9539,1,1,1,0.0000,0.5249,0.7149,0.8575
v_courses_1_5,viewpoint,983,584,22.34,3.4169,0.5646,0.7528,0.8311,0,1,1,0.0000,0.0000,0.3166,0.6583
v_courses_1_6,viewpoint,848,408,24.04,8.5936,0.4410,0.6167,0.7193,0,0,0,0.0000,0.0000,0.0000,0.1406
v_dirtywall_1_2,viewpoint,1629,1286,38.08,0.6618,0.7888,0.8926,0.9472,1,1,1,0.3382,0.7794,0.8676,0.9338
v_dirtywall_1_3,viewpoint,1477,1091,30.01,0.5563,0.7305,0.8565,0.9303,1,1,1,0.4437,0.8146,0.8887,0.9444
v_dirtywall_1_4,viewpoint,1129,666,27.95,0.9294,0.5872,0.7228,0.8379,1,1,1,0.0706,0.6902,0.8141,0.9071
v_dirtywall_1_5,viewpoint,1309,867,29.31,1.1320,0.6562,0.7899,0.8824,1,1,1,0.0000,0.6227,0.7736,0.8868
v_dirtywall_1_6,viewpoint,805,348,24.28,1.8005,0.4224,0.5801,0.7081,1,1,1,0.0000,0.3998,0.6399,0.8199
v_dogman_1_2,viewpoint,1198,863,25.16,1.3227,0.7270,0.8272,0.8781,1,1,1,0.0000,0.5591,0.7355,0.8677
v_dogman_1_3,viewpoint,1304,986,26.54,1.2009,0.7531,0.8397,0.8781,1,1,1,0.0000,0.5997,0.7598,0.8799
v_dogman_1_4,viewpoint,772,385,23.25,13.6060,0.4935,0.6282,0.7085,0,0,0,0.0000,0.0000,0.0000,0.0000
v_dogman_1_5,viewpoint,1001,662,23.19,3.9629,0.6563,0.7682,0.8332,0,1,1,0.0000,0.0000,0.2074,0.6037
v_dogman_1_6,viewpoint,575,199,21.38,40.3111,0.3478,0.4713,0.5687,0,0,0,0.0000,0.0000,0.0000,0.0000
v_eastsouth_1_2,viewpoint,2380,2058,39.62,0.1225,0.8651,0.9353,0.9584,1,1,1,0.8775,0.9592,0.9755,0.9878
v_eastsouth_1_3,viewpoint,1200,595,30.06,0.8158,0.4975,0.6942,0.8083,1,1,1,0.1842,0.7281,0.8368,0.9184
v_eastsouth_1_4,viewpoint,550,15,29.05,972.1552,0.0127,0.0309,0.0582,0,0,0,0.0000,0.0000,0.0000,0.0000
v_eastsouth_1_5,viewpoint,674,67,27.80,16.9814,0.1231,0.2389,0.3190,0,0,0,0.0000,0.0000,0.0000,0.0000
v_eastsouth_1_6,viewpoint,601,59,29.44,3.8451,0.0882,0.1597,0.2213,0,1,1,0.0000,0.0000,0.2310,0.6155
v_feast_1_2,viewpoint,1411,1029,33.99,0.5195,0.7193,0.8816,0.9277,1,1,1,0.4805,0.8268,0.8961,0.9481
v_feast_1_3,viewpoint,1845,1371,35.36,0.6991,0.7371,0.8889,0.9333,1,1,1,0.3009,0.7670,0.8602,0.9301
v_feast_1_4,viewpoint,1002,535,29.91,1.4136,0.5120,0.6677,0.7156,1,1,1,0.0000,0.5288,0.7173,0.8586
v_feast_1_5,viewpoint,1665,1200,35.29,1.3364,0.6949,0.8426,0.9075,1,1,1,0.0000,0.5545,0.7327,0.8664
v_feast_1_6,viewpoint,1186,776,33.14,1.6109,0.6037,0.7681,0.8381,1,1,1,0.0000,0.4630,0.6778,0.8389
v_fest_1_2,viewpoint,2067,1698,36.35,0.8612,0.8176,0.9023,0.9405,1,1,1,0.1388,0.7129,0.8278,0.9139
v_fest_1_3,viewpoint,1464,930,34.86,1.0147,0.6298,0.7637,0.8402,1,1,1,0.0000,0.6618,0.7971,0.8985
v_fest_1_4,viewpoint,1492,1096,32.10,1.3090,0.7212,0.8224,0.8780,1,1,1,0.0000,0.5637,0.7382,0.8691
v_fest_1_5,viewpoint,1433,915,31.50,1.4713,0.6378,0.7676,0.8472,1,1,1,0.0000,0.5096,0.7057,0.8529
v_fest_1_6,viewpoint,1094,560,30.24,5.5248,0.5046,0.6508,0.7450,0,0,1,0.0000,0.0000,0.0000,0.4475
v_gardens_1_2,viewpoint,1570,1031,34.59,1.8429,0.6503,0.7949,0.8688,1,1,1,0.0000,0.3857,0.6314,0.8157
v_gardens_1_3,viewpoint,790,307,28.70,6.4650,0.3848,0.5076,0.6038,0,0,1,0.0000,0.0000,0.0000,0.3535
v_gardens_1_4,viewpoint,2030,1561,37.02,1.0609,0.7675,0.8911,0.9414,1,1,1,0.0000,0.6464,0.7878,0.8939
v_gardens_1_5,viewpoint,1112,590,30.70,3.5146,0.5072,0.6745,0.7671,0,1,1,0.0000,0.0000,0.2971,0.6485
v_gardens_1_6,viewpoint,1620,1090,33.56,1.7863,0.6685,0.8117,0.8988,1,1,1,0.0000,0.4046,0.6427,0.8214
v_grace_1_2,viewpoint,2027,1449,42.08,1.0501,0.7040,0.8658,0.9319,1,1,1,0.0000,0.6500,0.7900,0.8950
v_grace_1_3,viewpoint,1710,1100,35.98,1.8707,0.6327,0.8094,0.8942,1,1,1,0.0000,0.3764,0.6259,0.8129
v_grace_1_4,viewpoint,1479,829,33.06,3.9331,0.5429,0.7329,0.8418,0,1,1,0.0000,0.0000,0.2134,0.6067
v_grace_1_5,viewpoint,986,444,32.27,3.1493,0.4391,0.6136,0.7160,0,1,1,0.0000,0.0000,0.3701,0.6851
v_grace_1_6,viewpoint,771,156,28.31,10.5985,0.1829,0.2905,0.3684,0,0,0,0.0000,0.0000,0.0000,0.0000
v_graffiti_1_2,viewpoint,1795,1258,35.85,1.7438,0.6936,0.8462,0.9125,1,1,1,0.0000,0.4187,0.6512,0.8256
v_graffiti_1_3,viewpoint,1431,851,32.19,2.5274,0.5793,0.7610,0.8414,1,1,1,0.0000,0.1575,0.4945,0.7473
v_graffiti_1_4,viewpoint,997,265,31.40,2.6141,0.2648,0.4203,0.5206,1,1,1,0.0000,0.1286,0.4772,0.7386
v_graffiti_1_5,viewpoint,969,361,31.64,1.6756,0.3416,0.5181,0.5903,1,1,1,0.0000,0.4415,0.6649,0.8324
v_graffiti_1_6,viewpoint,613,12,29.20,463.3394,0.0424,0.0701,0.0848,0,0,0,0.0000,0.0000,0.0000,0.0000
v_home_1_2,viewpoint,1111,786,29.10,1.3054,0.6958,0.8389,0.8983,1,1,1,0.0000,0.5649,0.7389,0.8695
v_home_1_3,viewpoint,1019,674,28.66,2.1724,0.6497,0.7694,0.8518,1,1,1,0.0000,0.2759,0.5655,0.7828
v_home_1_4,viewpoint,1166,868,28.40,0.7932,0.7247,0.8894,0.9477,1,1,1,0.2068,0.7356,0.8414,0.9207
v_home_1_5,viewpoint,975,531,28.26,5.7712,0.5108,0.6892,0.7979,0,0,1,0.0000,0.0000,0.0000,0.4229
v_home_1_6,viewpoint,723,285,25.60,2.2276,0.3804,0.5892,0.7344,1,1,1,0.0000,0.2575,0.5545,0.7772
v_laptop_1_2,viewpoint,1171,985,24.86,0.6874,0.8437,0.9266,0.9556,1,1,1,0.3126,0.7709,0.8625,0.9313
v_laptop_1_3,viewpoint,654,371,22.56,1.4207,0.5673,0.7569,0.8563,1,1,1,0.0000,0.5264,0.7159,0.8579
v_laptop_1_4,viewpoint,264,23,19.96,7.5361,0.0871,0.1364,0.2045,0,0,0,0.0000,0.0000,0.0000,0.2464
v_laptop_1_5,viewpoint,228,11,20.36,274.1529,0.0000,0.0088,0.0132,0,0,0,0.0000,0.0000,0.0000,0.0000
v_laptop_1_6,viewpoint,255,11,20.26,295.0505,0.0000,0.0157,0.0196,0,0,0,0.0000,0.0000,0.0000,0.0000
v_london_1_2,viewpoint,1891,1532,35.69,0.4184,0.8070,0.8874,0.9371,1,1,1,0.5816,0.8605,0.9163,0.9582
v_london_1_3,viewpoint,1705,1358,32.96,0.6979,0.7912,0.8897,0.9367,1,1,1,0.3021,0.7674,0.8604,0.9302
v_london_1_4,viewpoint,1552,1082,31.81,1.9498,0.6952,0.8299,0.8969,1,1,1,0.0000,0.3501,0.6100,0.8050
v_london_1_5,viewpoint,1869,1503,33.41,0.5787,0.8004,0.8850,0.9342,1,1,1,0.4213,0.8071,0.8843,0.9421
v_london_1_6,viewpoint,1999,1639,35.68,0.9598,0.8214,0.8914,0.9370,1,1,1,0.0402,0.6801,0.8080,0.9040
v_machines_1_2,viewpoint,1423,1128,28.44,1.0050,0.7878,0.9079,0.9712,1,1,1,0.0000,0.6650,0.7990,0.8995
v_machines_1_3,viewpoint,946,610,22.78,1.7083,0.6216,0.7981,0.8784,1,1,1,0.0000,0.4306,0.6583,0.8292
v_machines_1_4,viewpoint,1104,840,24.66,0.9443,0.7482,0.8859,0.9438,1,1,1,0.0557,0.6852,0.8111,0.9056
v_machines_1_5,viewpoint,792,470,20.77,1.1968,0.5922,0.7513,0.8573,1,1,1,0.0000,0.6011,0.7606,0.8803
v_machines_1_6,viewpoint,1013,792,22.24,0.7971,0.7720,0.8973,0.9487,1,1,1,0.2029,0.7343,0.8406,0.9203
v_man_1_2,viewpoint,1711,1210,37.89,1.1433,0.6978,0.8691,0.9310,1,1,1,0.0000,0.6189,0.7713,0.8857
v_man_1_3,viewpoint,1167,712,29.57,5.1078,0.5570,0.7438,0.8149,0,0,1,0.0000,0.0000,0.0000,0.4892
v_man_1_4,viewpoint,1137,622,29.71,2.3978,0.5180,0.7168,0.8391,1,1,1,0.0000,0.2007,0.5204,0.7602
v_man_1_5,viewpoint,1491,1020,30.81,2.8651,0.6680,0.8464,0.9142,1,1,1,0.0000,0.0450,0.4270,0.7135
v_man_1_6,viewpoint,1448,948,30.58,2.3816,0.6471,0.8135,0.8902,1,1,1,0.0000,0.2061,0.5237,0.7618
v_maskedman_1_2,viewpoint,1235,791,29.20,1.5986,0.6405,0.7854,0.8470,1,1,1,0.0000,0.4671,0.6803,0.8401
v_maskedman_1_3,viewpoint,880,516,24.83,1.3761,0.5807,0.7057,0.7841,1,1,1,0.0000,0.5413,0.7248,0.8624
v_maskedman_1_4,viewpoint,1408,947,30.09,2.5376,0.6548,0.7891,0.8757,1,1,1,0.0000,0.1541,0.4925,0.7462
v_maskedman_1_5,viewpoint,1472,1061,30.34,2.4728,0.7031,0.8234,0.8906,1,1,1,0.0000,0.1757,0.5054,0.7527
v_maskedman_1_6,viewpoint,521,172,22.61,6.0118,0.3167,0.4107,0.4607,0,0,1,0.0000,0.0000,0.0000,0.3988
v_pomegranate_1_2,viewpoint,2130,1606,39.23,0.6910,0.7559,0.8925,0.9531,1,1,1,0.3090,0.7697,0.8618,0.9309
v_pomegranate_1_3,viewpoint,1837,1273,35.06,1.0741,0.6881,0.8552,0.9281,1,1,1,0.0000,0.6420,0.7852,0.8926
v_pomegranate_1_4,viewpoint,1632,1165,31.88,0.6522,0.7138,0.8554,0.9314,1,1,1,0.3478,0.7826,0.8696,0.9348
v_pomegranate_1_5,viewpoint,1809,1361,34.59,1.2056,0.7446,0.8789,0.9491,1,1,1,0.0000,0.5981,0.7589,0.8794
v_pomegranate_1_6,viewpoint,1804,1362,33.76,0.6262,0.7467,0.8819,0.9507,1,1,1,0.3738,0.7913,0.8748,0.9374
v_posters_1_2,viewpoint,1391,942,42.29,115.6260,0.0000,0.0000,0.0000,0,0,0,0.0000,0.0000,0.0000,0.0000
v_posters_1_3,viewpoint,1813,1359,36.66,120.9450,0.0000,0.0000,0.0000,0,0,0,0.0000,0.0000,0.0000,0.0000
v_posters_1_4,viewpoint,1578,1147,35.45,112.5905,0.0000,0.0000,0.0000,0,0,0,0.0000,0.0000,0.0000,0.0000
v_posters_1_5,viewpoint,1227,696,33.47,124.7812,0.0000,0.0008,0.0016,0,0,0,0.0000,0.0000,0.0000,0.0000
v_posters_1_6,viewpoint,1346,735,34.00,147.0883,0.0000,0.0000,0.0000,0,0,0,0.0000,0.0000,0.0000,0.0000
v_samples_1_2,viewpoint,1977,1683,37.76,68.5171,0.0000,0.0000,0.0000,0,0,0,0.0000,0.0000,0.0000,0.0000
v_samples_1_3,viewpoint,2069,1756,37.12,72.5459,0.0000,0.0000,0.0010,0,0,0,0.0000,0.0000,0.0000,0.0000
v_samples_1_4,viewpoint,1572,1208,34.44,71.9268,0.0006,0.0057,0.0076,0,0,0,0.0000,0.0000,0.0000,0.0000
v_samples_1_5,viewpoint,1825,1491,35.55,80.8520,0.0000,0.0000,0.0000,0,0,0,0.0000,0.0000,0.0000,0.0000
v_samples_1_6,viewpoint,1379,975,32.32,67.1228,0.0000,0.0029,0.0080,0,0,0,0.0000,0.0000,0.0000,0.0000
v_soldiers_1_2,viewpoint,1741,1245,35.37,2.2913,0.7145,0.8443,0.8983,1,1,1,0.0000,0.2362,0.5417,0.7709
v_soldiers_1_3,viewpoint,1322,771,31.42,1.8381,0.5809,0.7277,0.8162,1,1,1,0.0000,0.3873,0.6324,0.8162
v_soldiers_1_4,viewpoint,883,360,28.12,2.3573,0.3941,0.5040,0.5730,1,1,1,0.0000,0.2142,0.5285,0.7643
v_soldiers_1_5,viewpoint,647,85,27.56,12.5003,0.1159,0.1577,0.1808,0,0,0,0.0000,0.0000,0.0000,0.0000
v_soldiers_1_6,viewpoint,1442,995,31.76,96.1119,0.0000,0.0000,0.0000,0,0,0,0.0000,0.0000,0.0000,0.0000
v_strand_1_2,viewpoint,2003,1718,35.19,0.8281,0.8562,0.9436,0.9750,1,1,1,0.1719,0.7240,0.8344,0.9172
v_strand_1_3,viewpoint,1489,1067,30.10,1.6208,0.6830,0.8711,0.9396,1,1,1,0.0000,0.4597,0.6758,0.8379
v_strand_1_4,viewpoint,1548,1098,30.48,2.7993,0.7028,0.8676,0.9386,1,1,1,0.0000,0.0669,0.4401,0.7201
v_strand_1_5,viewpoint,1553,1059,30.52,3.3146,0.6407,0.8139,0.9099,0,1,1,0.0000,0.0000,0.3371,0.6685
v_strand_1_6,viewpoint,1219,789,27.09,4.2083,0.5906,0.8064,0.9016,0,1,1,0.0000,0.0000,0.1583,0.5792
v_sunseason_1_2,viewpoint,2370,2077,39.94,0.3406,0.8743,0.9658,0.9903,1,1,1,0.6594,0.8865,0.9319,0.9659
v_sunseason_1_3,viewpoint,1993,1623,35.25,0.8575,0.8053,0.9142,0.9503,1,1,1,0.1425,0.7142,0.8285,0.9143
v_sunseason_1_4,viewpoint,1230,741,30.98,2.3007,0.5927,0.7236,0.7724,1,1,1,0.0000,0.2331,0.5399,0.7699
v_sunseason_1_5,viewpoint,1069,558,28.12,4.9294,0.5098,0.6427,0.7035,0,1,1,0.0000,0.0000,0.0141,0.5071
v_sunseason_1_6,viewpoint,922,372,30.32,5.4248,0.3970,0.5336,0.6009,0,0,1,0.0000,0.0000,0.0000,0.4575
v_tabletop_1_2,viewpoint,1364,936,30.90,0.8375,0.6767,0.7874,0.8446,1,1,1,0.1625,0.7208,0.8325,0.9162
v_tabletop_1_3,viewpoint,741,187,26.91,1.8428,0.2510,0.3617,0.4399,1,1,1,0.0000,0.3857,0.6314,0.8157
v_tabletop_1_4,viewpoint,722,191,26.73,3.1082,0.2590,0.3698,0.4418,0,1,1,0.0000,0.0000,0.3784,0.6892
v_tabletop_1_5,viewpoint,750,207,27.06,2.9087,0.2653,0.3733,0.4360,1,1,1,0.0000,0.0304,0.4183,0.7091
v_tabletop_1_6,viewpoint,808,247,27.60,2.8387,0.2908,0.3998,0.4629,1,1,1,0.0000,0.0538,0.4323,0.7161
v_tempera_1_2,viewpoint,1174,970,26.36,0.6698,0.8228,0.9310,0.9634,1,1,1,0.3302,0.7767,0.8660,0.9330
v_tempera_1_3,viewpoint,1186,918,25.35,0.6133,0.7597,0.9039,0.9519,1,1,1,0.3867,0.7956,0.8773,0.9387
v_tempera_1_4,viewpoint,1044,804,24.97,0.7441,0.7672,0.8927,0.9492,1,1,1,0.2559,0.7520,0.8512,0.9256
v_tempera_1_5,viewpoint,1007,754,26.26,1.0088,0.7468,0.8729,0.9335,1,1,1,0.0000,0.6637,0.7982,0.8991
v_tempera_1_6,viewpoint,588,283,22.22,3.2361,0.4592,0.6054,0.6735,0,1,1,0.0000,0.0000,0.3528,0.6764
v_there_1_2,viewpoint,1757,1150,34.89,2.3100,0.6420,0.8395,0.9226,1,1,1,0.0000,0.2300,0.5380,0.7690
v_there_1_3,viewpoint,649,126,30.36,2.0239,0.1787,0.2912,0.3544,1,1,1,0.0000,0.3254,0.5952,0.7976
v_there_1_4,viewpoint,458,9,26.81,159.2021,0.0284,0.0546,0.0721,0,0,0,0.0000,0.0000,0.0000,0.0000
v_there_1_5,viewpoint,440,8,26.93,775.8346,0.0045,0.0068,0.0205,0,0,0,0.0000,0.0000,0.0000,0.0000
v_there_1_6,viewpoint,451,11,26.89,360.2051,0.0000,0.0000,0.0000,0,0,0,0.0000,0.0000,0.0000,0.0000
v_underground_1_2,viewpoint,1618,1253,28.71,0.5561,0.7707,0.8708,0.9234,1,1,1,0.4439,0.8146,0.8888,0.9444
v_underground_1_3,viewpoint,1319,846,28.19,1.2043,0.6399,0.7748,0.8491,1,1,1,0.0000,0.5986,0.7591,0.8796
v_underground_1_4,viewpoint,1020,504,27.94,2.6938,0.4971,0.6078,0.6961,1,1,1,0.0000,0.1021,0.4612,0.7306
v_underground_1_5,viewpoint,788,298,24.02,2.8676,0.3718,0.4987,0.5774,1,1,1,0.0000,0.0441,0.4265,0.7132
v_underground_1_6,viewpoint,579,139,24.75,7.7834,0.2435,0.3610,0.4456,0,0,0,0.0000,0.0000,0.0000,0.2217
v_vitro_1_2,viewpoint,1824,1593,31.03,0.2115,0.8739,0.9666,0.9830,1,1,1,0.7885,0.9295,0.9577,0.9789
v_vitro_1_3,viewpoint,1596,1273,29.22,0.4602,0.7957,0.9048,0.9330,1,1,1,0.5398,0.8466,0.9080,0.9540
v_vitro_1_4,viewpoint,1216,863,26.44,0.9514,0.7113,0.8183,0.8692,1,1,1,0.0486,0.6829,0.8097,0.9049
v_vitro_1_5,viewpoint,1713,1388,28.95,0.5879,0.8056,0.9335,0.9685,1,1,1,0.4121,0.8040,0.8824,0.9412
v_vitro_1_6,viewpoint,1456,1053,29.17,0.5285,0.7191,0.8784,0.9313,1,1,1,0.4715,0.8238,0.8943,0.9472
v_wall_1_2,viewpoint,1901,1498,32.84,0.9050,0.7891,0.8901,0.9285,1,1,1,0.0950,0.6983,0.8190,0.9095
v_wall_1_3,viewpoint,1563,1068,30.53,2.6100,0.6891,0.7985,0.8791,1,1,1,0.0000,0.1300,0.4780,0.7390
v_wall_1_4,viewpoint,1853,1541,31.47,0.5954,0.8332,0.9104,0.9369,1,1,1,0.4046,0.8015,0.8809,0.9405
v_wall_1_5,viewpoint,1442,992,28.04,2.4438,0.6713,0.8024,0.8634,1,1,1,0.0000,0.1854,0.5112,0.7556
v_wall_1_6,viewpoint,1249,786,28.53,4.7999,0.6221,0.7502,0.8239,0,1,1,0.0000,0.0000,0.0400,0.5200
v_wapping_1_2,viewpoint,2091,1353,50.16,1.3823,0.6423,0.8302,0.9039,1,1,1,0.0000,0.5392,0.7235,0.8618
v_wapping_1_3,viewpoint,1218,543,33.92,2.6235,0.4450,0.6256,0.7176,1,1,1,0.0000,0.1255,0.4753,0.7377
v_wapping_1_4,viewpoint,1284,565,33.63,2.1485,0.4315,0.6363,0.7508,1,1,1,0.0000,0.2838,0.5703,0.7852
v_wapping_1_5,viewpoint,892,310,30.40,2.4152,0.3531,0.5011,0.5852,1,1,1,0.0000,0.1949,0.5170,0.7585
v_wapping_1_6,viewpoint,622,112,26.59,6.7611,0.1527,0.2605,0.3264,0,0,1,0.0000,0.0000,0.0000,0.3239
v_war_1_2,viewpoint,1138,772,29.33,0.7049,0.6793,0.8427,0.9156,1,1,1,0.2951,0.7650,0.8590,0.9295
v_war_1_3,viewpoint,908,556,24.86,1.7921,0.6013,0.7665,0.8612,1,1,1,0.0000,0.4026,0.6416,0.8208
v_war_1_4,viewpoint,1514,1271,30.07,0.4083,0.8421,0.9472,0.9756,1,1,1,0.5917,0.8639,0.9183,0.9592
v_war_1_5,viewpoint,1438,1158,29.69,0.5953,0.8018,0.9298,0.9708,1,1,1,0.4047,0.8016,0.8809,0.9405
v_war_1_6,viewpoint,873,494,25.83,2.1873,0.5636,0.7136,0.8030,1,1,1,0.0000,0.2709,0.5625,0.7813
v_weapons_1_2,viewpoint,1284,1096,25.60,0.7380,0.8520,0.9455,0.9813,1,1,1,0.2620,0.7540,0.8524,0.9262
v_weapons_1_3,viewpoint,1084,802,25.75,1.0173,0.7334,0.8478,0.9197,1,1,1,0.0000,0.6609,0.7965,0.8983
v_weapons_1_4,viewpoint,1327,964,27.62,0.8047,0.7189,0.8742,0.9307,1,1,1,0.1953,0.7318,0.8391,0.9195
v_weapons_1_5,viewpoint,1296,1030,25.63,1.5917,0.7894,0.9244,0.9653,1,1,1,0.0000,0.4694,0.6817,0.8408
v_weapons_1_6,viewpoint,1110,840,24.52,1.4549,0.7423,0.8973,0.9559,1,1,1,0.0000,0.5150,0.7090,0.8545
v_woman_1_2,viewpoint,849,528,27.84,46.1515,0.0000,0.0000,0.0000,0,0,0,0.0000,0.0000,0.0000,0.0000
v_woman_1_3,viewpoint,993,633,28.47,49.8640,0.0000,0.0000,0.0000,0,0,0,0.0000,0.0000,0.0000,0.0000
v_woman_1_4,viewpoint,942,518,29.53,51.5628,0.0000,0.0000,0.0000,0,0,0,0.0000,0.0000,0.0000,0.0000
v_woman_1_5,viewpoint,667,325,26.22,44.3705,0.0015,0.0015,0.0015,0,0,0,0.0000,0.0000,0.0000,0.0000
v_woman_1_6,viewpoint,835,421,26.60,47.9226,0.0000,0.0000,0.0000,0,0,0,0.0000,0.0000,0.0000,0.0000
v_wormhole_1_2,viewpoint,1320,1044,28.68,0.5058,0.7871,0.8932,0.9295,1,1,1,0.4942,0.8314,0.8988,0.9494
v_wormhole_1_3,viewpoint,1553,1200,28.68,0.4814,0.7701,0.8925,0.9556,1,1,1,0.5186,0.8395,0.9037,0.9519
v_wormhole_1_4,viewpoint,1669,1355,30.01,0.5185,0.8107,0.9065,0.9563,1,1,1,0.4815,0.8272,0.8963,0.9481
v_wormhole_1_5,viewpoint,1093,678,24.95,3.6511,0.6084,0.7182,0.7960,0,1,1,0.0000,0.0000,0.2698,0.6349
v_wormhole_1_6,viewpoint,741,264,23.39,9.7170,0.3428,0.4912,0.5601,0,0,0,0.0000,0.0000,0.0000,0.0283
v_wounded_1_2,viewpoint,1085,760,24.84,3.0991,0.6912,0.8009,0.8654,0,1,1,0.0000,0.0000,0.3802,0.6901
v_wounded_1_3,viewpoint,732,401,23.40,13.0847,0.5560,0.6735,0.7514,0,0,0,0.0000,0.0000,0.0000,0.0000
v_wounded_1_4,viewpoint,445,178,20.54,32.4718,0.3978,0.5191,0.6427,0,0,0,0.0000,0.0000,0.0000,0.0000
v_wounded_1_5,viewpoint,663,329,20.93,5.8297,0.4872,0.6425,0.7255,0,0,1,0.0000,0.0000,0.0000,0.4170
v_wounded_1_6,viewpoint,463,155,20.12,25.7241,0.3542,0.4968,0.6156,0,0,0,0.0000,0.0000,0.0000,0.0000
v_yard_1_2,viewpoint,1999,1638,35.87,0.5371,0.8144,0.9245,0.9610,1,1,1,0.4629,0.8210,0.8926,0.9463
v_yard_1_3,viewpoint,1056,563,31.18,1.0788,0.5265,0.6610,0.7377,1,1,1,0.0000,0.6404,0.7842,0.8921
v_yard_1_4,viewpoint,1786,1409,33.13,0.5646,0.7900,0.9104,0.9546,1,1,1,0.4354,0.8118,0.8871,0.9435
v_yard_1_5,viewpoint,1381,815,32.04,2.3978,0.5858,0.7487,0.8371,1,1,1,0.0000,0.2007,0.5204,0.7602
v_yard_1_6,viewpoint,834,234,29.00,8.5241,0.2926,0.4065,0.4724,0,0,0,0.0000,0.0000,0.0000,0.1476
v_yuri_1_2,viewpoint,1238,913,27.44,1.2465,0.7294,0.8514,0.9273,1,1,1,0.0000,0.5845,0.7507,0.8754
v_yuri_1_3,viewpoint,860,487,25.58,3.3889,0.5547,0.6860,0.7674,0,1,1,0.0000,0.0000,0.3222,0.6611
v_yuri_1_4,viewpoint,683,307,24.86,15.3007,0.4041,0.5520,0.6442,0,0,0,0.0000,0.0000,0.0000,0.0000
v_yuri_1_5,viewpoint,1020,643,24.90,5.9300,0.6255,0.7618,0.8441,0,0,1,0.0000,0.0000,0.0000,0.4070
v_yuri_1_6,viewpoint,739,365,23.09,14.3085,0.4885,0.6333,0.7524,0,0,0,0.0000,0.0000,0.0000,0.0000
