PairName,SeqType,NumMatches,Inliers,TimeMS,H_Error,MMA@3,MMA@5,MMA@7,MHA_Acc@3,MHA_Acc@5,MHA_Acc@7,AUC@1,AUC@3,AUC@5,AUC@10
i_ajuntament_1_2,illumination,901,837,247.44,0.2836,0.9201,0.9489,0.9734,1,1,1,0.7164,0.9055,0.9433,0.9716
i_ajuntament_1_3,illumination,738,547,4.22,1.2082,0.7127,0.8225,0.8618,1,1,1,0.0000,0.5973,0.7584,0.8792
i_ajuntament_1_4,illumination,575,256,3.67,0.9782,0.4313,0.5443,0.6191,1,1,1,0.0218,0.6739,0.8044,0.9022
i_ajuntament_1_5,illumination,547,244,3.53,0.9584,0.4369,0.5430,0.6289,1,1,1,0.0416,0.6805,0.8083,0.9042
i_ajuntament_1_6,illumination,604,268,3.70,0.9701,0.4156,0.5298,0.6275,1,1,1,0.0299,0.6766,0.8060,0.9030
i_autannes_1_2,illumination,1213,1079,10.53,0.2156,0.8871,0.9398,0.9613,1,1,1,0.7844,0.9281,0.9569,0.9784
i_autannes_1_3,illumination,1082,923,4.08,0.0000,0.8595,0.9214,0.9482,1,1,1,1.0000,1.0000,1.0000,1.0000
i_autannes_1_4,illumination,1137,774,5.03,1.0114,0.6693,0.7740,0.8223,1,1,1,0.0000,0.6629,0.7977,0.8989
i_autannes_1_5,illumination,1123,755,4.50,1.3273,0.6652,0.7587,0.8032,1,1,1,0.0000,0.5576,0.7345,0.8673
i_autannes_1_6,illumination,1246,1009,4.10,0.3801,0.8138,0.8957,0.9318,1,1,1,0.6199,0.8733,0.9240,0.9620
i_bologna_1_2,illumination,611,563,9.67,0.5010,0.9231,0.9624,0.9738,1,1,1,0.4990,0.8330,0.8998,0.9499
i_bologna_1_3,illumination,590,519,3.15,0.9622,0.8814,0.9220,0.9407,1,1,1,0.0378,0.6793,0.8076,0.9038
i_bologna_1_4,illumination,613,525,3.21,0.8416,0.8597,0.8989,0.9217,1,1,1,0.1584,0.7195,0.8317,0.9158
i_bologna_1_5,illumination,603,534,3.25,1.2354,0.8872,0.9287,0.9486,1,1,1,0.0000,0.5882,0.7529,0.8765
i_bologna_1_6,illumination,615,521,3.34,0.0000,0.8472,0.9073,0.9285,1,1,1,1.0000,1.0000,1.0000,1.0000
i_books_1_2,illumination,619,580,3.44,0.1426,0.9354,0.9532,0.9580,1,1,1,0.8574,0.9525,0.9715,0.9857
i_books_1_3,illumination,756,700,3.52,0.1714,0.9220,0.9444,0.9550,1,1,1,0.8286,0.9429,0.9657,0.9829
i_books_1_4,illumination,775,727,3.41,0.0000,0.9406,0.9652,0.9729,1,1,1,1.0000,1.0000,1.0000,1.0000
i_books_1_5,illumination,783,728,3.42,0.0000,0.9349,0.9527,0.9553,1,1,1,1.0000,1.0000,1.0000,1.0000
i_books_1_6,illumination,688,633,3.36,0.0000,0.9201,0.9375,0.9462,1,1,1,1.0000,1.0000,1.0000,1.0000
i_boutique_1_2,illumination,1287,1183,4.09,0.3252,0.9114,0.9534,0.9611,1,1,1,0.6748,0.8916,0.9350,0.9675
i_boutique_1_3,illumination,1367,1173,4.46,0.4010,0.8537,0.9078,0.9393,1,1,1,0.5990,0.8663,0.9198,0.9599
i_boutique_1_4,illumination,1337,1151,5.38,0.4228,0.8519,0.9125,0.9484,1,1,1,0.5772,0.8591,0.9154,0.9577
i_boutique_1_5,illumination,1039,668,4.60,1.1997,0.6458,0.7247,0.7642,1,1,1,0.0000,0.6001,0.7601,0.8800
i_boutique_1_6,illumination,1015,649,4.62,0.6040,0.6246,0.7103,0.7576,1,1,1,0.3960,0.7987,0.8792,0.9396
i_bridger_1_2,illumination,1573,1374,10.97,0.4198,0.8506,0.9383,0.9752,1,1,1,0.5802,0.8601,0.9160,0.9580
i_bridger_1_3,illumination,1438,1185,4.35,0.4013,0.8136,0.9006,0.9395,1,1,1,0.5987,0.8662,0.9197,0.9599
i_bridger_1_4,illumination,1336,1148,4.21,0.3255,0.8548,0.9192,0.9603,1,1,1,0.6745,0.8915,0.9349,0.9675
i_bridger_1_5,illumination,1111,911,4.23,0.4983,0.8191,0.9073,0.9424,1,1,1,0.5017,0.8339,0.9003,0.9502
i_bridger_1_6,illumination,502,287,3.39,0.9043,0.5677,0.6833,0.7590,1,1,1,0.0957,0.6986,0.8191,0.9096
i_brooklyn_1_2,illumination,1513,1260,4.56,0.3221,0.8282,0.9042,0.9379,1,1,1,0.6779,0.8926,0.9356,0.9678
i_brooklyn_1_3,illumination,1609,1435,5.37,1.2764,0.8626,0.9472,0.9739,1,1,1,0.0000,0.5745,0.7447,0.8724
i_brooklyn_1_4,illumination,1348,1008,5.00,1.1254,0.7329,0.8353,0.8858,1,1,1,0.0000,0.6249,0.7749,0.8875
i_brooklyn_1_5,illumination,1643,1424,4.83,1.4987,0.8357,0.9288,0.9610,1,1,1,0.0000,0.5004,0.7003,0.8501
i_brooklyn_1_6,illumination,1541,1247,4.82,1.5811,0.7729,0.8864,0.9247,1,1,1,0.0000,0.4730,0.6838,0.8419
i_castle_1_2,illumination,1331,889,5.85,1.1701,0.6649,0.7498,0.8009,1,1,1,0.0000,0.6100,0.7660,0.8830
i_castle_1_3,illumination,1474,1222,4.72,0.4482,0.8270,0.8867,0.9213,1,1,1,0.5518,0.8506,0.9104,0.9552
i_castle_1_4,illumination,1290,1083,5.34,0.6996,0.8233,0.8899,0.9202,1,1,1,0.3004,0.7668,0.8601,0.9300
i_castle_1_5,illumination,1117,753,4.57,1.1146,0.6607,0.7457,0.7914,1,1,1,0.0000,0.6285,0.7771,0.8885
i_castle_1_6,illumination,1178,724,4.54,0.8204,0.6112,0.6961,0.7428,1,1,1,0.1796,0.7265,0.8359,0.9180
i_chestnuts_1_2,illumination,1164,1047,5.17,0.4135,0.8986,0.9381,0.9613,1,1,1,0.5865,0.8622,0.9173,0.9587
i_chestnuts_1_3,illumination,1147,1031,3.75,0.0000,0.8997,0.9364,0.9590,1,1,1,1.0000,1.0000,1.0000,1.0000
i_chestnuts_1_4,illumination,1122,979,3.97,0.0000,0.8752,0.9207,0.9519,1,1,1,1.0000,1.0000,1.0000,1.0000
i_chestnuts_1_5,illumination,1077,913,3.86,0.3458,0.8459,0.9081,0.9304,1,1,1,0.6542,0.8847,0.9308,0.9654
i_chestnuts_1_6,illumination,975,801,3.97,0.3289,0.8164,0.8872,0.9169,1,1,1,0.6711,0.8904,0.9342,0.9671
i_crownday_1_2,illumination,1206,866,4.65,0.8794,0.7106,0.8317,0.8881,1,1,1,0.1206,0.7069,0.8241,0.9121
i_crownday_1_3,illumination,1314,1028,4.76,0.6933,0.7808,0.8760,0.9292,1,1,1,0.3067,0.7689,0.8613,0.9307
i_crownday_1_4,illumination,1342,1105,4.45,0.0000,0.8264,0.9039,0.9478,1,1,1,1.0000,1.0000,1.0000,1.0000
i_crownday_1_5,illumination,1417,1277,4.40,0.3972,0.8984,0.9464,0.9746,1,1,1,0.6028,0.8676,0.9206,0.9603
i_crownday_1_6,illumination,1175,854,4.63,1.1129,0.7106,0.8204,0.8877,1,1,1,0.0000,0.6290,0.7774,0.8887
i_dome_1_2,illumination,1383,1294,4.83,0.0000,0.9371,0.9581,0.9660,1,1,1,1.0000,1.0000,1.0000,1.0000
i_dome_1_3,illumination,844,598,4.56,1.3063,0.7026,0.7796,0.8306,1,1,1,0.0000,0.5646,0.7387,0.8694
i_dome_1_4,illumination,842,592,3.99,1.1170,0.6960,0.7613,0.8088,1,1,1,0.0000,0.6277,0.7766,0.8883
i_dome_1_5,illumination,855,612,4.08,0.5360,0.7123,0.7778,0.8246,1,1,1,0.4640,0.8213,0.8928,0.9464
i_dome_1_6,illumination,1163,966,4.44,0.0000,0.8315,0.8874,0.9114,1,1,1,1.0000,1.0000,1.0000,1.0000
i_duda_1_2,illumination,697,693,3.85,0.2395,0.9928,0.9986,0.9986,1,1,1,0.7605,0.9202,0.9521,0.9760
i_duda_1_3,illumination,664,645,3.49,0.3548,0.9729,0.9910,0.9940,1,1,1,0.6452,0.8817,0.9290,0.9645
i_duda_1_4,illumination,636,612,3.44,0.3515,0.9623,0.9843,0.9921,1,1,1,0.6485,0.8828,0.9297,0.9649
i_duda_1_5,illumination,600,571,3.39,0.4524,0.9517,0.9850,0.9967,1,1,1,0.5476,0.8492,0.9095,0.9548
i_duda_1_6,illumination,475,435,3.23,0.4241,0.9158,0.9579,0.9747,1,1,1,0.5759,0.8586,0.9152,0.9576
i_fenis_1_2,illumination,1571,1450,4.42,0.3223,0.9211,0.9586,0.9733,1,1,1,0.6777,0.8926,0.9355,0.9678
i_fenis_1_3,illumination,1389,1119,4.55,0.3249,0.8071,0.8762,0.9064,1,1,1,0.6751,0.8917,0.9350,0.9675
i_fenis_1_4,illumination,998,485,4.33,0.8976,0.4719,0.5661,0.6192,1,1,1,0.1024,0.7008,0.8205,0.9102
i_fenis_1_5,illumination,839,378,3.93,1.2501,0.4291,0.5089,0.5447,1,1,1,0.0000,0.5833,0.7500,0.8750
i_fenis_1_6,illumination,942,473,4.42,0.6832,0.4830,0.5775,0.6093,1,1,1,0.3168,0.7723,0.8634,0.9317
i_fog_1_2,illumination,1573,1445,4.47,0.1732,0.9218,0.9644,0.9771,1,1,1,0.8268,0.9423,0.9654,0.9827
i_fog_1_3,illumination,1308,1133,4.45,0.2778,0.8685,0.9067,0.9266,1,1,1,0.7222,0.9074,0.9444,0.9722
i_fog_1_4,illumination,1259,1091,5.29,0.4320,0.8626,0.9261,0.9412,1,1,1,0.5680,0.8560,0.9136,0.9568
i_fog_1_5,illumination,777,639,3.61,0.4221,0.8301,0.8533,0.8713,1,1,1,0.5779,0.8593,0.9156,0.9578
i_fog_1_6,illumination,704,566,4.37,0.4011,0.8125,0.8352,0.8423,1,1,1,0.5989,0.8663,0.9198,0.9599
i_fruits_1_2,illumination,1230,1119,10.89,0.2222,0.9106,0.9602,0.9732,1,1,1,0.7778,0.9259,0.9556,0.9778
i_fruits_1_3,illumination,1240,1076,5.76,0.2471,0.8669,0.9323,0.9565,1,1,1,0.7529,0.9176,0.9506,0.9753
i_fruits_1_4,illumination,1208,1051,4.59,0.3066,0.8692,0.9354,0.9553,1,1,1,0.6934,0.8978,0.9387,0.9693
i_fruits_1_5,illumination,1209,1045,4.66,0.3787,0.8660,0.9322,0.9562,1,1,1,0.6213,0.8738,0.9243,0.9621
i_fruits_1_6,illumination,1216,1064,4.32,0.4776,0.8717,0.9408,0.9613,1,1,1,0.5224,0.8408,0.9045,0.9522
i_gonnenberg_1_2,illumination,1506,1374,4.19,0.0000,0.9137,0.9422,0.9529,1,1,1,1.0000,1.0000,1.0000,1.0000
i_gonnenberg_1_3,illumination,1497,1357,4.38,1.0444,0.9038,0.9372,0.9599,1,1,1,0.0000,0.6519,0.7911,0.8956
i_gonnenberg_1_4,illumination,1423,1282,4.32,0.6030,0.8918,0.9353,0.9473,1,1,1,0.3970,0.7990,0.8794,0.9397
i_gonnenberg_1_5,illumination,1446,1303,8.29,0.3396,0.8983,0.9253,0.9440,1,1,1,0.6604,0.8868,0.9321,0.9660
i_gonnenberg_1_6,illumination,1478,1318,4.42,0.6768,0.8890,0.9249,0.9371,1,1,1,0.3232,0.7744,0.8646,0.9323
i_greenhouse_1_2,illumination,1487,1279,4.89,0.2821,0.8615,0.9045,0.9287,1,1,1,0.7179,0.9060,0.9436,0.9718
i_greenhouse_1_3,illumination,1505,1300,4.77,0.4782,0.8618,0.9063,0.9269,1,1,1,0.5218,0.8406,0.9044,0.9522
i_greenhouse_1_4,illumination,1431,1171,5.37,0.5953,0.8134,0.8658,0.8917,1,1,1,0.4047,0.8016,0.8809,0.9405
i_greenhouse_1_5,illumination,1394,1135,5.28,0.6221,0.8070,0.8644,0.8938,1,1,1,0.3779,0.7926,0.8756,0.9378
i_greenhouse_1_6,illumination,1279,964,4.79,0.7714,0.7435,0.8030,0.8342,1,1,1,0.2286,0.7429,0.8457,0.9229
i_greentea_1_2,illumination,1146,1030,5.82,0.3560,0.8997,0.9206,0.9328,1,1,1,0.6440,0.8813,0.9288,0.9644
i_greentea_1_3,illumination,1370,1300,5.42,0.1585,0.9496,0.9679,0.9781,1,1,1,0.8415,0.9472,0.9683,0.9841
i_greentea_1_4,illumination,1384,1323,4.18,0.2168,0.9559,0.9776,0.9877,1,1,1,0.7832,0.9277,0.9566,0.9783
i_greentea_1_5,illumination,1363,1308,4.04,0.1770,0.9596,0.9729,0.9780,1,1,1,0.8230,0.9410,0.9646,0.9823
i_greentea_1_6,illumination,1191,1119,4.10,0.5154,0.9412,0.9664,0.9773,1,1,1,0.4846,0.8282,0.8969,0.9485
i_indiana_1_2,illumination,1469,1204,4.18,0.5702,0.8080,0.8843,0.9231,1,1,1,0.4298,0.8099,0.8860,0.9430
i_indiana_1_3,illumination,1410,1086,4.41,0.0000,0.7745,0.8596,0.9092,1,1,1,1.0000,1.0000,1.0000,1.0000
i_indiana_1_4,illumination,1332,1000,4.18,0.7637,0.7335,0.8348,0.8806,1,1,1,0.2363,0.7454,0.8473,0.9236
i_indiana_1_5,illumination,1315,927,4.58,0.5151,0.6989,0.7901,0.8433,1,1,1,0.4849,0.8283,0.8970,0.9485
i_indiana_1_6,illumination,1254,844,4.26,0.7383,0.6603,0.7576,0.8278,1,1,1,0.2617,0.7539,0.8523,0.9262
i_kions_1_2,illumination,678,541,9.96,1.0952,0.7581,0.8643,0.8938,1,1,1,0.0000,0.6349,0.7810,0.8905
i_kions_1_3,illumination,682,527,4.12,0.5810,0.7449,0.8402,0.8695,1,1,1,0.4190,0.8063,0.8838,0.9419
i_kions_1_4,illumination,606,441,3.44,1.2448,0.7129,0.8300,0.8581,1,1,1,0.0000,0.5851,0.7510,0.8755
i_kions_1_5,illumination,587,448,3.51,0.6132,0.7325,0.8382,0.8603,1,1,1,0.3868,0.7956,0.8774,0.9387
i_kions_1_6,illumination,655,472,4.97,0.4925,0.7130,0.8031,0.8275,1,1,1,0.5075,0.8358,0.9015,0.9508
i_ktirio_1_2,illumination,1175,1115,3.84,0.2784,0.9472,0.9728,0.9796,1,1,1,0.7216,0.9072,0.9443,0.9722
i_ktirio_1_3,illumination,954,764,5.09,0.7051,0.7904,0.8553,0.8920,1,1,1,0.2949,0.7650,0.8590,0.9295
i_ktirio_1_4,illumination,875,598,3.97,0.8683,0.6651,0.7543,0.7989,1,1,1,0.1317,0.7106,0.8263,0.9132
i_ktirio_1_5,illumination,884,650,3.91,0.7237,0.7330,0.7975,0.8247,1,1,1,0.2763,0.7588,0.8553,0.9276
i_ktirio_1_6,illumination,798,492,3.87,0.0000,0.6228,0.7193,0.7719,1,1,1,1.0000,1.0000,1.0000,1.0000
i_kurhaus_1_2,illumination,1660,1539,4.44,0.2949,0.9271,0.9530,0.9614,1,1,1,0.7051,0.9017,0.9410,0.9705
i_kurhaus_1_3,illumination,1542,1343,4.56,0.3379,0.8709,0.9183,0.9403,1,1,1,0.6621,0.8874,0.9324,0.9662
i_kurhaus_1_4,illumination,1463,1213,4.40,0.0000,0.8312,0.8783,0.9036,1,1,1,1.0000,1.0000,1.0000,1.0000
i_kurhaus_1_5,illumination,1371,1081,4.42,0.4496,0.7914,0.8607,0.8906,1,1,1,0.5504,0.8501,0.9101,0.9550
i_kurhaus_1_6,illumination,1315,981,4.41,0.6731,0.7430,0.8053,0.8327,1,1,1,0.3269,0.7756,0.8654,0.9327
i_leuven_1_2,illumination,1014,972,4.00,0.8224,0.9596,0.9822,0.9882,1,1,1,0.1776,0.7259,0.8355,0.9178
i_leuven_1_3,illumination,1006,958,4.69,0.9535,0.9503,0.9751,0.9841,1,1,1,0.0465,0.6822,0.8093,0.9046
i_leuven_1_4,illumination,985,923,3.68,1.6762,0.9320,0.9645,0.9797,1,1,1,0.0000,0.4413,0.6648,0.8324
i_leuven_1_5,illumination,933,849,3.87,0.9992,0.9057,0.9453,0.9603,1,1,1,0.0008,0.6669,0.8002,0.9001
i_leuven_1_6,illumination,870,763,4.85,6.6303,0.7310,0.8678,0.9184,0,0,1,0.0000,0.0000,0.0000,0.3370
i_lionday_1_2,illumination,1032,733,4.52,1.6770,0.6919,0.7810,0.8343,1,1,1,0.0000,0.4410,0.6646,0.8323
i_lionday_1_3,illumination,1041,770,4.32,1.1631,0.7301,0.8117,0.8588,1,1,1,0.0000,0.6123,0.7674,0.8837
i_lionday_1_4,illumination,868,355,4.80,2.2983,0.3456,0.5035,0.5979,1,1,1,0.0000,0.2339,0.5403,0.7702
i_lionday_1_5,illumination,965,546,4.21,2.6346,0.4870,0.6435,0.7264,1,1,1,0.0000,0.1218,0.4731,0.7365
i_lionday_1_6,illumination,1064,763,4.36,1.4298,0.6945,0.7932,0.8581,1,1,1,0.0000,0.5234,0.7140,0.8570
i_lionnight_1_2,illumination,1269,1106,4.51,0.8596,0.8668,0.8905,0.8960,1,1,1,0.1404,0.7135,0.8281,0.9140
i_lionnight_1_3,illumination,1106,856,4.56,1.0000,0.7658,0.8074,0.8273,1,1,1,0.0000,0.6667,0.8000,0.9000
i_lionnight_1_4,illumination,1422,1346,6.44,0.7954,0.9416,0.9592,0.9641,1,1,1,0.2046,0.7349,0.8409,0.9205
i_lionnight_1_5,illumination,1363,1242,4.60,1.3028,0.9068,0.9230,0.9266,1,1,1,0.0000,0.5657,0.7394,0.8697
i_lionnight_1_6,illumination,1303,1139,4.41,0.9641,0.8649,0.8856,0.8918,1,1,1,0.0359,0.6786,0.8072,0.9036
i_londonbridge_1_2,illumination,1053,992,3.88,1.1528,0.9364,0.9715,0.9858,1,1,1,0.0000,0.6157,0.7694,0.8847
i_londonbridge_1_3,illumination,1051,992,3.76,0.9742,0.9315,0.9676,0.9810,1,1,1,0.0258,0.6753,0.8052,0.9026
i_londonbridge_1_4,illumination,1033,891,3.87,2.2541,0.8103,0.9303,0.9555,1,1,1,0.0000,0.2486,0.5492,0.7746
i_londonbridge_1_5,illumination,852,513,3.93,2.4058,0.5423,0.7019,0.7805,1,1,1,0.0000,0.1981,0.5188,0.7594
i_londonbridge_1_6,illumination,966,851,3.89,0.8175,0.8716,0.9420,0.9586,1,1,1,0.1825,0.7275,0.8365,0.9183
i_melon_1_2,illumination,681,640,3.60,0.0000,0.9413,0.9721,0.9780,1,1,1,1.0000,1.0000,1.0000,1.0000
i_melon_1_3,illumination,628,565,3.63,0.4847,0.8933,0.9411,0.9618,1,1,1,0.5153,0.8384,0.9031,0.9515
i_melon_1_4,illumination,509,328,4.87,1.5773,0.6248,0.7269,0.7957,1,1,1,0.0000,0.4742,0.6845,0.8423
i_melon_1_5,illumination,644,529,3.51,0.0000,0.8230,0.8898,0.9193,1,1,1,1.0000,1.0000,1.0000,1.0000
i_melon_1_6,illumination,615,488,4.10,1.3974,0.7967,0.8650,0.9122,1,1,1,0.0000,0.5342,0.7205,0.8603
i_miniature_1_2,illumination,1586,1505,4.54,0.5204,0.9470,0.9735,0.9855,1,1,1,0.4796,0.8265,0.8959,0.9480
i_miniature_1_3,illumination,1409,1260,4.31,0.5713,0.8758,0.9312,0.9560,1,1,1,0.4287,0.8096,0.8857,0.9429
i_miniature_1_4,illumination,1074,796,4.52,0.9209,0.7263,0.8017,0.8352,1,1,1,0.0791,0.6930,0.8158,0.9079
i_miniature_1_5,illumination,718,400,3.84,1.1214,0.5557,0.6240,0.6671,1,1,1,0.0000,0.6262,0.7757,0.8879
i_miniature_1_6,illumination,1399,1249,4.48,0.7713,0.8835,0.9307,0.9564,1,1,1,0.2287,0.7429,0.8457,0.9229
i_nescafe_1_2,illumination,907,780,3.88,0.1579,0.8611,0.9118,0.9350,1,1,1,0.8421,0.9474,0.9684,0.9842
i_nescafe_1_3,illumination,1014,886,3.76,0.9436,0.8728,0.9034,0.9241,1,1,1,0.0564,0.6855,0.8113,0.9056
i_nescafe_1_4,illumination,1051,919,3.78,0.5940,0.8744,0.9049,0.9248,1,1,1,0.4060,0.8020,0.8812,0.9406
i_nescafe_1_5,illumination,908,778,3.67,0.5557,0.8590,0.8943,0.9229,1,1,1,0.4443,0.8148,0.8889,0.9444
i_nescafe_1_6,illumination,963,791,3.87,0.1401,0.8214,0.8816,0.9190,1,1,1,0.8599,0.9533,0.9720,0.9860
i_nijmegen_1_2,illumination,1570,1242,4.69,0.9170,0.7599,0.8643,0.9089,1,1,1,0.0830,0.6943,0.8166,0.9083
i_nijmegen_1_3,illumination,1605,1293,5.07,0.7223,0.7869,0.8885,0.9271,1,1,1,0.2777,0.7592,0.8555,0.9278
i_nijmegen_1_4,illumination,1107,681,5.01,0.4643,0.6016,0.7118,0.7615,1,1,1,0.5357,0.8452,0.9071,0.9536
i_nijmegen_1_5,illumination,1598,1287,4.59,0.7506,0.7897,0.8849,0.9293,1,1,1,0.2494,0.7498,0.8499,0.9249
i_nijmegen_1_6,illumination,1561,1213,4.69,0.7724,0.7636,0.8661,0.9135,1,1,1,0.2276,0.7425,0.8455,0.9228
i_nuts_1_2,illumination,1260,969,4.67,0.6523,0.7548,0.8516,0.9151,1,1,1,0.3477,0.7826,0.8695,0.9348
i_nuts_1_3,illumination,1044,711,5.09,0.8380,0.6695,0.7807,0.8400,1,1,1,0.1620,0.7207,0.8324,0.9162
i_nuts_1_4,illumination,850,493,4.61,0.8476,0.5576,0.6741,0.7471,1,1,1,0.1524,0.7175,0.8305,0.9152
i_nuts_1_5,illumination,672,301,5.81,0.5700,0.4315,0.5744,0.6443,1,1,1,0.4300,0.8100,0.8860,0.9430
i_nuts_1_6,illumination,605,204,5.04,1.5479,0.3074,0.4281,0.5091,1,1,1,0.0000,0.4840,0.6904,0.8452
i_objects_1_2,illumination,1483,1257,4.35,0.7151,0.8490,0.9278,0.9663,1,1,1,0.2849,0.7616,0.8570,0.9285
i_objects_1_3,illumination,1433,1148,4.56,1.1423,0.7920,0.8946,0.9386,1,1,1,0.0000,0.6192,0.7715,0.8858
i_objects_1_4,illumination,1291,902,5.24,0.9356,0.6956,0.8033,0.8699,1,1,1,0.0644,0.6881,0.8129,0.9064
i_objects_1_5,illumination,1309,867,4.50,1.0810,0.6639,0.7853,0.8663,1,1,1,0.0000,0.6397,0.7838,0.8919
i_objects_1_6,illumination,1604,1443,4.41,0.0975,0.9071,0.9589,0.9825,1,1,1,0.9025,0.9675,0.9805,0.9902
i_parking_1_2,illumination,1023,867,3.70,0.2171,0.8504,0.9169,0.9550,1,1,1,0.7829,0.9276,0.9566,0.9783
i_parking_1_3,illumination,1000,800,3.87,0.4962,0.8070,0.8980,0.9450,1,1,1,0.5038,0.8346,0.9008,0.9504
i_parking_1_4,illumination,926,679,3.63,1.0980,0.7149,0.8326,0.9039,1,1,1,0.0000,0.6340,0.7804,0.8902
i_parking_1_5,illumination,786,501,4.24,1.0124,0.6145,0.7176,0.7888,1,1,1,0.0000,0.6625,0.7975,0.8988
i_parking_1_6,illumination,875,631,4.02,0.7636,0.7120,0.8206,0.8811,1,1,1,0.2364,0.7455,0.8473,0.9236
i_partyfood_1_2,illumination,494,490,3.19,0.0000,0.9919,0.9960,0.9980,1,1,1,1.0000,1.0000,1.0000,1.0000
i_partyfood_1_3,illumination,482,472,3.48,0.1997,0.9793,0.9917,0.9959,1,1,1,0.8003,0.9334,0.9601,0.9800
i_partyfood_1_4,illumination,447,433,3.32,0.3798,0.9687,0.9843,0.9911,1,1,1,0.6202,0.8734,0.9240,0.9620
i_partyfood_1_5,illumination,435,416,3.12,0.2964,0.9586,0.9816,0.9839,1,1,1,0.7036,0.9012,0.9407,0.9704
i_partyfood_1_6,illumination,401,379,3.13,0.8913,0.9377,0.9726,0.9800,1,1,1,0.1087,0.7029,0.8217,0.9109
i_pinard_1_2,illumination,604,570,3.67,0.4896,0.9354,0.9768,0.9818,1,1,1,0.5104,0.8368,0.9021,0.9510
i_pinard_1_3,illumination,590,465,3.62,0.9292,0.7746,0.8356,0.8576,1,1,1,0.0708,0.6903,0.8142,0.9071
i_pinard_1_4,illumination,593,473,3.86,0.8164,0.7858,0.8432,0.8668,1,1,1,0.1836,0.7279,0.8367,0.9184
i_pinard_1_5,illumination,596,500,3.26,0.6782,0.8322,0.8691,0.8977,1,1,1,0.3218,0.7739,0.8644,0.9322
i_pinard_1_6,illumination,591,502,3.33,0.0000,0.8562,0.8934,0.9289,1,1,1,1.0000,1.0000,1.0000,1.0000
i_pool_1_2,illumination,502,316,3.30,0.3483,0.6275,0.6952,0.7430,1,1,1,0.6517,0.8839,0.9303,0.9652
i_pool_1_3,illumination,374,142,3.17,3.4377,0.3743,0.4626,0.5000,0,1,1,0.0000,0.0000,0.3125,0.6562
i_pool_1_4,illumination,383,133,3.36,1.7451,0.3368,0.4230,0.4830,1,1,1,0.0000,0.4183,0.6510,0.8255
i_pool_1_5,illumination,431,215,3.29,1.6628,0.4965,0.5800,0.6288,1,1,1,0.0000,0.4457,0.6674,0.8337
i_pool_1_6,illumination,426,194,3.40,1.5470,0.4507,0.5211,0.5634,1,1,1,0.0000,0.4843,0.6906,0.8453
i_porta_1_2,illumination,1067,591,4.58,0.8957,0.5473,0.7085,0.8107,1,1,1,0.1043,0.7014,0.8209,0.9104
i_porta_1_3,illumination,1071,623,4.35,0.3913,0.5836,0.7404,0.8338,1,1,1,0.6087,0.8696,0.9217,0.9609
i_porta_1_4,illumination,1038,559,4.14,0.7830,0.5337,0.7100,0.8141,1,1,1,0.2170,0.7390,0.8434,0.9217
i_porta_1_5,illumination,512,369,3.29,0.9218,0.7246,0.8281,0.9004,1,1,1,0.0782,0.6927,0.8156,0.9078
i_porta_1_6,illumination,560,313,4.03,0.7457,0.5536,0.6482,0.7000,1,1,1,0.2543,0.7514,0.8509,0.9254
i_resort_1_2,illumination,1596,1405,4.72,0.3486,0.8797,0.9305,0.9530,1,1,1,0.6514,0.8838,0.9303,0.9651
i_resort_1_3,illumination,1778,1688,5.49,0.1398,0.9483,0.9741,0.9865,1,1,1,0.8602,0.9534,0.9720,0.9860
i_resort_1_4,illumination,1766,1679,5.73,0.0853,0.9502,0.9757,0.9847,1,1,1,0.9147,0.9716,0.9829,0.9915
i_resort_1_5,illumination,1573,1323,4.54,0.4817,0.8455,0.9034,0.9383,1,1,1,0.5183,0.8394,0.9037,0.9518
i_resort_1_6,illumination,1606,1405,4.57,0.6387,0.8636,0.9265,0.9614,1,1,1,0.3613,0.7871,0.8723,0.9361
i_salon_1_2,illumination,1684,1607,4.79,0.3088,0.9460,0.9762,0.9881,1,1,1,0.6912,0.8971,0.9382,0.9691
i_salon_1_3,illumination,1416,1247,4.37,0.4865,0.8545,0.9273,0.9562,1,1,1,0.5135,0.8378,0.9027,0.9514
i_salon_1_4,illumination,1214,971,4.19,0.5765,0.7867,0.8624,0.9044,1,1,1,0.4235,0.8078,0.8847,0.9424
i_salon_1_5,illumination,1514,1350,4.33,0.0000,0.8989,0.9399,0.9670,1,1,1,1.0000,1.0000,1.0000,1.0000
i_salon_1_6,illumination,1394,1193,4.38,0.5420,0.8451,0.9182,0.9476,1,1,1,0.4580,0.8193,0.8916,0.9458
i_santuario_1_2,illumination,1557,1330,4.28,1.0792,0.8369,0.9216,0.9576,1,1,1,0.0000,0.6403,0.7842,0.8921
i_santuario_1_3,illumination,1554,1352,4.24,1.2119,0.8443,0.9266,0.9607,1,1,1,0.0000,0.5960,0.7576,0.8788
i_santuario_1_4,illumination,1444,1210,4.22,1.4292,0.7916,0.8920,0.9391,1,1,1,0.0000,0.5236,0.7142,0.8571
i_santuario_1_5,illumination,1522,1290,4.51,0.4657,0.8417,0.9192,0.9534,1,1,1,0.5343,0.8448,0.9069,0.9534
i_santuario_1_6,illumination,1371,1126,4.33,0.8429,0.8089,0.8950,0.9314,1,1,1,0.1571,0.7190,0.8314,0.9157
i_school_1_2,illumination,1201,1121,4.23,0.2552,0.9301,0.9584,0.9742,1,1,1,0.7448,0.9149,0.9490,0.9745
i_school_1_3,illumination,1169,1105,4.80,0.2970,0.9367,0.9666,0.9795,1,1,1,0.7030,0.9010,0.9406,0.9703
i_school_1_4,illumination,1011,803,4.38,0.5421,0.7804,0.8477,0.8853,1,1,1,0.4579,0.8193,0.8916,0.9458
i_school_1_5,illumination,1069,906,3.99,0.7747,0.8382,0.8915,0.9298,1,1,1,0.2253,0.7418,0.8451,0.9225
i_school_1_6,illumination,888,623,4.67,1.3761,0.6836,0.7624,0.8164,1,1,1,0.0000,0.5413,0.7248,0.8624
i_ski_1_2,illumination,1682,1563,4.39,0.3502,0.9281,0.9691,0.9804,1,1,1,0.6498,0.8833,0.9300,0.9650
i_ski_1_3,illumination,1603,1430,4.99,0.3411,0.8865,0.9470,0.9707,1,1,1,0.6589,0.8863,0.9318,0.9659
i_ski_1_4,illumination,1560,1338,4.44,0.6246,0.8468,0.9269,0.9545,1,1,1,0.3754,0.7918,0.8751,0.9375
i_ski_1_5,illumination,1511,1266,4.44,0.5561,0.8220,0.9120,0.9431,1,1,1,0.4439,0.8146,0.8888,0.9444
i_ski_1_6,illumination,1491,1193,4.53,0.6837,0.7834,0.8840,0.9249,1,1,1,0.3163,0.7721,0.8633,0.9316
i_smurf_1_2,illumination,1208,1079,4.31,0.4240,0.8891,0.9305,0.9619,1,1,1,0.5760,0.8587,0.9152,0.9576
i_smurf_1_3,illumination,1193,1040,4.11,0.3719,0.8709,0.9128,0.9430,1,1,1,0.6281,0.8760,0.9256,0.9628
i_smurf_1_4,illumination,1189,1023,3.97,0.2494,0.8579,0.9100,0.9437,1,1,1,0.7506,0.9169,0.9501,0.9751
i_smurf_1_5,illumination,1162,963,3.94,0.5369,0.8244,0.8787,0.9071,1,1,1,0.4631,0.8210,0.8926,0.9463
i_smurf_1_6,illumination,988,700,3.93,0.7677,0.7065,0.7976,0.8573,1,1,1,0.2323,0.7441,0.8465,0.9232
i_steps_1_2,illumination,1064,1003,3.62,0.4436,0.9417,0.9765,0.9887,1,1,1,0.5564,0.8521,0.9113,0.9556
i_steps_1_3,illumination,1174,1081,4.06,1.0733,0.9114,0.9600,0.9787,1,1,1,0.0000,0.6422,0.7853,0.8927
i_steps_1_4,illumination,1207,1139,3.88,0.5315,0.9321,0.9735,0.9867,1,1,1,0.4685,0.8228,0.8937,0.9468
i_steps_1_5,illumination,970,862,3.68,0.6103,0.8773,0.9340,0.9557,1,1,1,0.3897,0.7966,0.8779,0.9390
i_steps_1_6,illumination,1108,1010,4.07,0.5716,0.8989,0.9495,0.9711,1,1,1,0.4284,0.8095,0.8857,0.9428
i_table_1_2,illumination,1483,1257,4.41,0.7151,0.8490,0.9278,0.9663,1,1,1,0.2849,0.7616,0.8570,0.9285
i_table_1_3,illumination,1433,1148,5.68,1.1423,0.7920,0.8946,0.9386,1,1,1,0.0000,0.6192,0.7715,0.8858
i_table_1_4,illumination,1291,902,6.12,0.9356,0.6956,0.8033,0.8699,1,1,1,0.0644,0.6881,0.8129,0.9064
i_table_1_5,illumination,1309,867,4.46,1.0810,0.6639,0.7853,0.8663,1,1,1,0.0000,0.6397,0.7838,0.8919
i_table_1_6,illumination,1604,1443,5.09,0.0975,0.9071,0.9589,0.9825,1,1,1,0.9025,0.9675,0.9805,0.9902
i_tools_1_2,illumination,628,310,3.87,2.7630,0.4475,0.6019,0.7373,1,1,1,0.0000,0.0790,0.4474,0.7237
i_tools_1_3,illumination,742,576,3.94,1.7769,0.7588,0.9057,0.9555,1,1,1,0.0000,0.4077,0.6446,0.8223
i_tools_1_4,illumination,690,368,3.98,2.7149,0.5188,0.6812,0.7957,1,1,1,0.0000,0.0950,0.4570,0.7285
i_tools_1_5,illumination,707,507,3.79,1.8875,0.7157,0.8303,0.8798,1,1,1,0.0000,0.3708,0.6225,0.8113
i_tools_1_6,illumination,632,286,4.38,4.5669,0.2658,0.4051,0.6028,0,1,1,0.0000,0.0000,0.0866,0.5433
i_toy_1_2,illumination,1683,1467,5.45,0.3188,0.8663,0.9257,0.9596,1,1,1,0.6812,0.8937,0.9362,0.9681
i_toy_1_3,illumination,1607,1337,5.36,0.2948,0.8258,0.8948,0.9365,1,1,1,0.7052,0.9017,0.9410,0.9705
i_toy_1_4,illumination,1512,1143,5.56,0.4835,0.7447,0.8366,0.8763,1,1,1,0.5165,0.8388,0.9033,0.9517
i_toy_1_5,illumination,1393,901,5.49,1.0973,0.6375,0.7394,0.8055,1,1,1,0.0000,0.6342,0.7805,0.8903
i_toy_1_6,illumination,1193,586,4.85,2.1883,0.4912,0.5826,0.6588,1,1,1,0.0000,0.2706,0.5623,0.7812
i_troulos_1_2,illumination,563,475,3.54,0.9607,0.8384,0.9325,0.9609,1,1,1,0.0393,0.6798,0.8079,0.9039
i_troulos_1_3,illumination,434,340,3.04,2.6050,0.4608,0.8364,0.9217,1,1,1,0.0000,0.1317,0.4790,0.7395
i_troulos_1_4,illumination,679,614,3.15,0.4993,0.9013,0.9647,0.9794,1,1,1,0.5007,0.8336,0.9001,0.9501
i_troulos_1_5,illumination,610,495,3.26,1.3269,0.7803,0.8951,0.9246,1,1,1,0.0000,0.5577,0.7346,0.8673
i_troulos_1_6,illumination,563,469,3.26,1.1512,0.8117,0.9130,0.9343,1,1,1,0.0000,0.6163,0.7698,0.8849
i_veggies_1_2,illumination,1239,1177,4.09,0.2755,0.9500,0.9726,0.9879,1,1,1,0.7245,0.9082,0.9449,0.9724
i_veggies_1_3,illumination,1059,917,4.31,0.3023,0.8612,0.9273,0.9433,1,1,1,0.6977,0.8992,0.9395,0.9698
i_veggies_1_4,illumination,1198,1063,4.98,0.2167,0.8848,0.9324,0.9624,1,1,1,0.7833,0.9278,0.9567,0.9783
i_veggies_1_5,illumination,940,648,3.80,0.9050,0.6840,0.7702,0.8266,1,1,1,0.0950,0.6983,0.8190,0.9095
i_veggies_1_6,illumination,911,572,4.44,1.1195,0.6257,0.7300,0.7859,1,1,1,0.0000,0.6268,0.7761,0.8880
i_village_1_2,illumination,1394,1114,11.16,0.6166,0.7927,0.8666,0.9082,1,1,1,0.3834,0.7945,0.8767,0.9383
i_village_1_3,illumination,1457,1123,5.73,0.5104,0.7666,0.8469,0.9005,1,1,1,0.4896,0.8299,0.8979,0.9490
i_village_1_4,illumination,1423,1116,5.22,0.6128,0.7829,0.8566,0.8995,1,1,1,0.3872,0.7957,0.8774,0.9387
i_village_1_5,illumination,1648,1496,4.80,0.2814,0.9053,0.9399,0.9636,1,1,1,0.7186,0.9062,0.9437,0.9719
i_village_1_6,illumination,1402,1082,4.94,0.7014,0.7518,0.8288,0.8795,1,1,1,0.2986,0.7662,0.8597,0.9299
i_yellowtent_1_2,illumination,1340,1295,3.95,0.2307,0.9657,0.9821,0.9873,1,1,1,0.7693,0.9231,0.9539,0.9769
i_yellowtent_1_3,illumination,1264,1131,4.09,0.5343,0.8750,0.9446,0.9668,1,1,1,0.4657,0.8219,0.8931,0.9466
i_yellowtent_1_4,illumination,1083,868,4.17,0.6816,0.7950,0.8790,0.9123,1,1,1,0.3184,0.7728,0.8637,0.9318
i_yellowtent_1_5,illumination,1143,958,4.00,0.0000,0.8469,0.9081,0.9335,1,1,1,1.0000,1.0000,1.0000,1.0000
i_yellowtent_1_6,illumination,1037,814,3.94,0.4321,0.7811,0.8438,0.8746,1,1,1,0.5679,0.8560,0.9136,0.9568
i_zion_1_2,illumination,1720,1592,4.57,0.2283,0.9267,0.9634,0.9791,1,1,1,0.7717,0.9239,0.9543,0.9772
i_zion_1_3,illumination,1484,1212,6.19,0.7690,0.8140,0.8814,0.9057,1,1,1,0.2310,0.7437,0.8462,0.9231
i_zion_1_4,illumination,1306,946,4.77,0.8015,0.7129,0.7879,0.8178,1,1,1,0.1985,0.7328,0.8397,0.9199
i_zion_1_5,illumination,988,468,4.64,1.2846,0.4605,0.5314,0.5789,1,1,1,0.0000,0.5718,0.7431,0.8715
i_zion_1_6,illumination,885,486,4.34,0.9209,0.5390,0.6068,0.6373,1,1,1,0.0791,0.6930,0.8158,0.9079
v_abstract_1_2,viewpoint,1617,1512,4.66,0.3263,0.9332,0.9703,0.9759,1,1,1,0.6737,0.8912,0.9347,0.9674
v_abstract_1_3,viewpoint,1552,1434,4.63,0.5576,0.9207,0.9588,0.9704,1,1,1,0.4424,0.8141,0.8885,0.9442
v_abstract_1_4,viewpoint,1226,1010,4.45,0.7345,0.8197,0.8874,0.9095,1,1,1,0.2655,0.7552,0.8531,0.9266
v_abstract_1_5,viewpoint,1295,1141,4.46,0.7330,0.8819,0.9174,0.9282,1,1,1,0.2670,0.7557,0.8534,0.9267
v_abstract_1_6,viewpoint,1110,836,8.40,0.7173,0.7486,0.8027,0.8243,1,1,1,0.2827,0.7609,0.8565,0.9283
v_adam_1_2,viewpoint,1004,937,4.04,0.4374,0.9333,0.9612,0.9781,1,1,1,0.5626,0.8542,0.9125,0.9563
v_adam_1_3,viewpoint,902,832,4.00,0.9208,0.9169,0.9701,0.9867,1,1,1,0.0792,0.6931,0.8158,0.9079
v_adam_1_4,viewpoint,607,484,3.68,0.8272,0.8007,0.8764,0.8979,1,1,1,0.1728,0.7243,0.8346,0.9173
v_adam_1_5,viewpoint,814,715,3.88,0.6922,0.8857,0.9263,0.9459,1,1,1,0.3078,0.7693,0.8616,0.9308
v_adam_1_6,viewpoint,772,690,3.52,0.8018,0.8821,0.9521,0.9702,1,1,1,0.1982,0.7327,0.8396,0.9198
v_apprentices_1_2,viewpoint,1729,1665,11.27,0.0946,0.9618,0.9809,0.9844,1,1,1,0.9054,0.9685,0.9811,0.9905
v_apprentices_1_3,viewpoint,1528,1445,5.81,0.4944,0.9450,0.9699,0.9791,1,1,1,0.5056,0.8352,0.9011,0.9506
v_apprentices_1_4,viewpoint,1413,1288,5.96,0.7932,0.9080,0.9462,0.9582,1,1,1,0.2068,0.7356,0.8414,0.9207
v_apprentices_1_5,viewpoint,1231,1106,4.58,0.8200,0.8993,0.9326,0.9448,1,1,1,0.1800,0.7267,0.8360,0.9180
v_apprentices_1_6,viewpoint,1070,928,4.34,0.8101,0.8607,0.9121,0.9271,1,1,1,0.1899,0.7300,0.8380,0.9190
v_azzola_1_2,viewpoint,1498,1377,10.98,0.7155,0.9099,0.9573,0.9666,1,1,1,0.2845,0.7615,0.8569,0.9285
v_azzola_1_3,viewpoint,1349,1099,4.81,1.1728,0.7910,0.9192,0.9429,1,1,1,0.0000,0.6091,0.7654,0.8827
v_azzola_1_4,viewpoint,1487,1410,4.77,0.5457,0.9428,0.9677,0.9751,1,1,1,0.4543,0.8181,0.8909,0.9454
v_azzola_1_5,viewpoint,1175,925,4.49,0.8418,0.7600,0.8783,0.9098,1,1,1,0.1582,0.7194,0.8316,0.9158
v_azzola_1_6,viewpoint,854,486,4.26,1.5582,0.5504,0.6276,0.6511,1,1,1,0.0000,0.4806,0.6884,0.8442
v_bark_1_2,viewpoint,939,458,4.87,1.0261,0.4771,0.5612,0.6230,1,1,1,0.0000,0.6580,0.7948,0.8974
v_bark_1_3,viewpoint,687,7,4.94,269.4218,0.0000,0.0000,0.0000,0,0,0,0.0000,0.0000,0.0000,0.0000
v_bark_1_4,viewpoint,642,8,4.77,429.6628,0.0000,0.0000,0.0000,0,0,0,0.0000,0.0000,0.0000,0.0000
v_bark_1_5,viewpoint,760,12,5.17,63.3393,0.0276,0.0421,0.0513,0,0,0,0.0000,0.0000,0.0000,0.0000
v_bark_1_6,viewpoint,664,8,4.66,313.9755,0.0000,0.0000,0.0000,0,0,0,0.0000,0.0000,0.0000,0.0000
v_bees_1_2,viewpoint,1681,1627,4.97,0.2375,0.9685,0.9839,0.9917,1,1,1,0.7625,0.9208,0.9525,0.9762
v_bees_1_3,viewpoint,1690,1621,5.17,0.2420,0.9592,0.9817,0.9882,1,1,1,0.7580,0.9193,0.9516,0.9758
v_bees_1_4,viewpoint,1622,1570,5.61,0.4945,0.9673,0.9821,0.9877,1,1,1,0.5055,0.8352,0.9011,0.9505
v_bees_1_5,viewpoint,1238,1110,5.01,0.6521,0.8942,0.9362,0.9515,1,1,1,0.3479,0.7826,0.8696,0.9348
v_bees_1_6,viewpoint,1447,1320,4.78,0.5214,0.9053,0.9509,0.9696,1,1,1,0.4786,0.8262,0.8957,0.9479
v_beyus_1_2,viewpoint,469,361,10.07,0.6986,0.7719,0.8678,0.9232,1,1,1,0.3014,0.7671,0.8603,0.9301
v_beyus_1_3,viewpoint,509,317,3.86,4.2569,0.6090,0.7210,0.7721,0,1,1,0.0000,0.0000,0.1486,0.5743
v_beyus_1_4,viewpoint,655,557,3.76,0.5950,0.8443,0.9130,0.9435,1,1,1,0.4050,0.8017,0.8810,0.9405
v_beyus_1_5,viewpoint,417,291,3.53,2.2101,0.7074,0.8106,0.8561,1,1,1,0.0000,0.2633,0.5580,0.7790
v_beyus_1_6,viewpoint,559,445,3.54,1.7269,0.7818,0.8640,0.8909,1,1,1,0.0000,0.4244,0.6546,0.8273
v_bip_1_2,viewpoint,1231,1115,4.32,0.2279,0.9058,0.9196,0.9310,1,1,1,0.7721,0.9240,0.9544,0.9772
v_bip_1_3,viewpoint,1160,1030,4.49,0.4143,0.8905,0.9164,0.9276,1,1,1,0.5857,0.8619,0.9171,0.9586
v_bip_1_4,viewpoint,1166,1050,4.42,0.4641,0.8997,0.9220,0.9383,1,1,1,0.5359,0.8453,0.9072,0.9536
v_bip_1_5,viewpoint,716,326,4.07,1.1614,0.4483,0.5084,0.5391,1,1,1,0.0000,0.6129,0.7677,0.8839
v_bip_1_6,viewpoint,595,100,3.93,1.0432,0.1697,0.2050,0.2370,1,1,1,0.0000,0.6523,0.7914,0.8957
v_bird_1_2,viewpoint,1089,986,4.96,76.7439,0.0000,0.0000,0.0000,0,0,0,0.0000,0.0000,0.0000,0.0000
v_bird_1_3,viewpoint,1004,864,5.47,84.1054,0.0000,0.0010,0.0010,0,0,0,0.0000,0.0000,0.0000,0.0000
v_bird_1_4,viewpoint,1004,828,5.81,98.8762,0.0000,0.0000,0.0000,0,0,0,0.0000,0.0000,0.0000,0.0000
v_bird_1_5,viewpoint,973,678,5.92,84.9423,0.0000,0.0021,0.0021,0,0,0,0.0000,0.0000,0.0000,0.0000
v_bird_1_6,viewpoint,705,306,4.58,179.7252,0.0000,0.0000,0.0000,0,0,0,0.0000,0.0000,0.0000,0.0000
v_birdwoman_1_2,viewpoint,725,380,4.27,44.0204,0.0000,0.0000,0.0000,0,0,0,0.0000,0.0000,0.0000,0.0000
v_birdwoman_1_3,viewpoint,925,629,4.48,54.2668,0.0000,0.0000,0.0000,0,0,0,0.0000,0.0000,0.0000,0.0000
v_birdwoman_1_4,viewpoint,1088,865,4.42,50.1239,0.0000,0.0000,0.0018,0,0,0,0.0000,0.0000,0.0000,0.0000
v_birdwoman_1_5,viewpoint,1415,1266,4.40,52.6306,0.0000,0.0000,0.0007,0,0,0,0.0000,0.0000,0.0000,0.0000
v_birdwoman_1_6,viewpoint,1087,864,4.47,51.2176,0.0000,0.0000,0.0000,0,0,0,0.0000,0.0000,0.0000,0.0000
v_blueprint_1_2,viewpoint,1484,1360,4.53,0.4233,0.9124,0.9528,0.9656,1,1,1,0.5767,0.8589,0.9153,0.9577
v_blueprint_1_3,viewpoint,1336,1170,4.73,0.5995,0.8668,0.9244,0.9401,1,1,1,0.4005,0.8002,0.8801,0.9401
v_blueprint_1_4,viewpoint,1441,1309,4.47,0.5266,0.9084,0.9486,0.9660,1,1,1,0.4734,0.8245,0.8947,0.9473
v_blueprint_1_5,viewpoint,1214,1010,4.60,0.3983,0.8320,0.8740,0.9020,1,1,1,0.6017,0.8672,0.9203,0.9602
v_blueprint_1_6,viewpoint,958,628,4.21,1.3213,0.6555,0.7213,0.7526,1,1,1,0.0000,0.5596,0.7357,0.8679
v_boat_1_2,viewpoint,1536,1353,12.41,0.4083,0.8789,0.9245,0.9479,1,1,1,0.5917,0.8639,0.9183,0.9592
v_boat_1_3,viewpoint,782,210,5.71,1.6528,0.2775,0.3542,0.4041,1,1,1,0.0000,0.4491,0.6694,0.8347
v_boat_1_4,viewpoint,598,9,5.29,1056.9052,0.0100,0.0217,0.0334,0,0,0,0.0000,0.0000,0.0000,0.0000
v_boat_1_5,viewpoint,587,11,5.92,370.0785,0.0000,0.0000,0.0000,0,0,0,0.0000,0.0000,0.0000,0.0000
v_boat_1_6,viewpoint,808,320,4.37,0.5217,0.3899,0.4691,0.4950,1,1,1,0.4783,0.8261,0.8957,0.9478
v_bricks_1_2,viewpoint,1659,1586,4.56,33.4524,0.0018,0.0151,0.0452,0,0,0,0.0000,0.0000,0.0000,0.0000
v_bricks_1_3,viewpoint,1605,1510,4.51,32.2407,0.0000,0.0081,0.0355,0,0,0,0.0000,0.0000,0.0000,0.0000
v_bricks_1_4,viewpoint,1398,1268,4.33,31.1364,0.0000,0.0014,0.0150,0,0,0,0.0000,0.0000,0.0000,0.0000
v_bricks_1_5,viewpoint,1261,1062,4.32,28.0541,0.0008,0.0032,0.0285,0,0,0,0.0000,0.0000,0.0000,0.0000
v_bricks_1_6,viewpoint,1021,620,4.23,27.8942,0.0010,0.0010,0.0029,0,0,0,0.0000,0.0000,0.0000,0.0000
v_busstop_1_2,viewpoint,1433,1336,4.51,0.3416,0.9309,0.9539,0.9644,1,1,1,0.6584,0.8861,0.9317,0.9658
v_busstop_1_3,viewpoint,1261,1088,4.34,0.6369,0.8636,0.9056,0.9175,1,1,1,0.3631,0.7877,0.8726,0.9363
v_busstop_1_4,viewpoint,1287,1173,4.73,0.7930,0.9083,0.9340,0.9386,1,1,1,0.2070,0.7357,0.8414,0.9207
v_busstop_1_5,viewpoint,1305,1190,4.54,0.5404,0.9119,0.9287,0.9310,1,1,1,0.4596,0.8199,0.8919,0.9460
v_busstop_1_6,viewpoint,1490,1366,4.96,0.5058,0.9168,0.9477,0.9550,1,1,1,0.4942,0.8314,0.8988,0.9494
v_calder_1_2,viewpoint,1069,977,4.30,0.2425,0.9139,0.9476,0.9523,1,1,1,0.7575,0.9192,0.9515,0.9757
v_calder_1_3,viewpoint,1321,1247,5.44,0.2509,0.9447,0.9727,0.9803,1,1,1,0.7491,0.9164,0.9498,0.9749
v_calder_1_4,viewpoint,839,664,5.14,0.7227,0.7914,0.8379,0.8605,1,1,1,0.2773,0.7591,0.8555,0.9277
v_calder_1_5,viewpoint,836,584,4.80,0.3496,0.6998,0.7428,0.7667,1,1,1,0.6504,0.8835,0.9301,0.9650
v_calder_1_6,viewpoint,660,284,4.07,1.9097,0.4242,0.4652,0.4909,1,1,1,0.0000,0.3634,0.6181,0.8090
v_cartooncity_1_2,viewpoint,1622,1530,4.43,62.1130,0.0000,0.0000,0.0006,0,0,0,0.0000,0.0000,0.0000,0.0000
v_cartooncity_1_3,viewpoint,1160,840,4.36,66.3874,0.0017,0.0026,0.0034,0,0,0,0.0000,0.0000,0.0000,0.0000
v_cartooncity_1_4,viewpoint,1493,1357,4.49,74.4119,0.0000,0.0007,0.0027,0,0,0,0.0000,0.0000,0.0000,0.0000
v_cartooncity_1_5,viewpoint,1179,937,4.53,75.9917,0.0000,0.0008,0.0008,0,0,0,0.0000,0.0000,0.0000,0.0000
v_cartooncity_1_6,viewpoint,1144,830,4.47,69.8748,0.0000,0.0009,0.0026,0,0,0,0.0000,0.0000,0.0000,0.0000
v_charing_1_2,viewpoint,727,469,4.30,4.8994,0.6341,0.7290,0.7510,0,1,1,0.0000,0.0000,0.0201,0.5101
v_charing_1_3,viewpoint,596,305,4.18,35.1067,0.5034,0.6191,0.6745,0,0,0,0.0000,0.0000,0.0000,0.0000
v_charing_1_4,viewpoint,619,414,3.96,5.0660,0.6543,0.7399,0.7851,0,0,1,0.0000,0.0000,0.0000,0.4934
v_charing_1_5,viewpoint,575,392,3.79,67.4407,0.6783,0.7843,0.8191,0,0,0,0.0000,0.0000,0.0000,0.0000
v_charing_1_6,viewpoint,568,371,3.79,133.4279,0.6180,0.7588,0.7835,0,0,0,0.0000,0.0000,0.0000,0.0000
v_churchill_1_2,viewpoint,1097,1000,4.53,0.4633,0.9125,0.9508,0.9663,1,1,1,0.5367,0.8456,0.9073,0.9537
v_churchill_1_3,viewpoint,1027,876,4.42,2.1228,0.8549,0.9085,0.9289,1,1,1,0.0000,0.2924,0.5754,0.7877
v_churchill_1_4,viewpoint,993,859,4.33,0.6225,0.8600,0.9063,0.9295,1,1,1,0.3775,0.7925,0.8755,0.9378
v_churchill_1_5,viewpoint,1248,1207,4.10,0.2604,0.9671,0.9816,0.9872,1,1,1,0.7396,0.9132,0.9479,0.9740
v_churchill_1_6,viewpoint,818,629,4.31,1.3278,0.7641,0.8423,0.8863,1,1,1,0.0000,0.5574,0.7344,0.8672
v_circus_1_2,viewpoint,1298,1175,4.47,0.3161,0.9006,0.9515,0.9692,1,1,1,0.6839,0.8946,0.9368,0.9684
v_circus_1_3,viewpoint,1224,967,4.59,0.8992,0.7827,0.9077,0.9371,1,1,1,0.1008,0.7003,0.8202,0.9101
v_circus_1_4,viewpoint,969,644,4.34,2.2731,0.6698,0.8297,0.8834,1,1,1,0.0000,0.2423,0.5454,0.7727
v_circus_1_5,viewpoint,1272,1090,4.61,0.6831,0.8522,0.9410,0.9568,1,1,1,0.3169,0.7723,0.8634,0.9317
v_circus_1_6,viewpoint,1076,834,4.49,0.8709,0.7639,0.8913,0.9275,1,1,1,0.1291,0.7097,0.8258,0.9129
v_coffeehouse_1_2,viewpoint,1017,921,4.18,0.7861,0.8977,0.9331,0.9449,1,1,1,0.2139,0.7380,0.8428,0.9214
v_coffeehouse_1_3,viewpoint,1030,928,4.24,0.5316,0.9019,0.9301,0.9417,1,1,1,0.4684,0.8228,0.8937,0.9468
v_coffeehouse_1_4,viewpoint,961,841,3.93,1.1257,0.8720,0.9126,0.9261,1,1,1,0.0000,0.6248,0.7749,0.8874
v_coffeehouse_1_5,viewpoint,943,844,3.93,0.4103,0.8982,0.9194,0.9290,1,1,1,0.5897,0.8632,0.9179,0.9590
v_coffeehouse_1_6,viewpoint,839,672,3.86,0.7083,0.8057,0.8498,0.8641,1,1,1,0.2917,0.7639,0.8583,0.9292
v_colors_1_2,viewpoint,368,248,3.78,1.5740,0.6576,0.7717,0.8098,1,1,1,0.0000,0.4753,0.6852,0.8426
v_colors_1_3,viewpoint,357,187,3.66,3.3206,0.5210,0.6667,0.7087,0,1,1,0.0000,0.0000,0.3359,0.6679
v_colors_1_4,viewpoint,249,75,3.57,11.8042,0.3012,0.4297,0.4618,0,0,0,0.0000,0.0000,0.0000,0.0000
v_colors_1_5,viewpoint,208,39,3.63,23.9021,0.1635,0.2500,0.3029,0,0,0,0.0000,0.0000,0.0000,0.0000
v_colors_1_6,viewpoint,207,28,3.47,48.3668,0.1546,0.1884,0.2319,0,0,0,0.0000,0.0000,0.0000,0.0000
v_courses_1_2,viewpoint,1253,1194,4.18,1.0242,0.9537,0.9800,0.9856,1,1,1,0.0000,0.6586,0.7952,0.8976
v_courses_1_3,viewpoint,1146,1020,4.34,1.0591,0.8953,0.9590,0.9747,1,1,1,0.0000,0.6470,0.7882,0.8941
v_courses_1_4,viewpoint,1116,1037,5.17,0.5988,0.9274,0.9686,0.9785,1,1,1,0.4012,0.8004,0.8802,0.9401
v_courses_1_5,viewpoint,951,809,4.20,1.5629,0.8244,0.9369,0.9464,1,1,1,0.0000,0.4790,0.6874,0.8437
v_courses_1_6,viewpoint,849,649,4.88,2.3209,0.7385,0.8598,0.8963,1,1,1,0.0000,0.2264,0.5358,0.7679
v_dirtywall_1_2,viewpoint,1469,1371,12.36,0.3360,0.9346,0.9605,0.9700,1,1,1,0.6640,0.8880,0.9328,0.9664
v_dirtywall_1_3,viewpoint,1389,1241,4.63,0.3304,0.8913,0.9201,0.9366,1,1,1,0.6696,0.8899,0.9339,0.9670
v_dirtywall_1_4,viewpoint,1230,1008,4.58,0.4418,0.8203,0.8715,0.8935,1,1,1,0.5582,0.8527,0.9116,0.9558
v_dirtywall_1_5,viewpoint,1305,1132,4.33,0.7206,0.8659,0.8981,0.9119,1,1,1,0.2794,0.7598,0.8559,0.9279
v_dirtywall_1_6,viewpoint,978,713,4.44,0.7387,0.7219,0.7679,0.7843,1,1,1,0.2613,0.7538,0.8523,0.9261
v_dogman_1_2,viewpoint,710,631,3.48,0.7548,0.8930,0.9338,0.9451,1,1,1,0.2452,0.7484,0.8490,0.9245
v_dogman_1_3,viewpoint,723,674,3.72,0.4028,0.9322,0.9488,0.9627,1,1,1,0.5972,0.8657,0.9194,0.9597
v_dogman_1_4,viewpoint,565,389,3.67,1.7224,0.6867,0.7788,0.8301,1,1,1,0.0000,0.4259,0.6555,0.8278
v_dogman_1_5,viewpoint,615,524,3.42,0.9962,0.8537,0.9057,0.9301,1,1,1,0.0038,0.6679,0.8008,0.9004
v_dogman_1_6,viewpoint,450,221,3.76,24.1255,0.5022,0.5800,0.6289,0,0,0,0.0000,0.0000,0.0000,0.0000
v_eastsouth_1_2,viewpoint,1535,1437,4.61,0.2644,0.9368,0.9557,0.9655,1,1,1,0.7356,0.9119,0.9471,0.9736
v_eastsouth_1_3,viewpoint,877,201,5.04,1.6953,0.2372,0.2942,0.3375,1,1,1,0.0000,0.4349,0.6609,0.8305
v_eastsouth_1_4,viewpoint,649,9,4.76,290.1108,0.0031,0.0031,0.0092,0,0,0,0.0000,0.0000,0.0000,0.0000
v_eastsouth_1_5,viewpoint,764,43,4.80,5.4733,0.0563,0.0785,0.1021,0,0,1,0.0000,0.0000,0.0000,0.4527
v_eastsouth_1_6,viewpoint,764,120,4.38,1.0799,0.1558,0.1911,0.2134,1,1,1,0.0000,0.6400,0.7840,0.8920
v_feast_1_2,viewpoint,1346,1212,4.49,0.3463,0.8990,0.9339,0.9465,1,1,1,0.6537,0.8846,0.9307,0.9654
v_feast_1_3,viewpoint,1428,1301,4.85,0.4938,0.9111,0.9503,0.9587,1,1,1,0.5062,0.8354,0.9012,0.9506
v_feast_1_4,viewpoint,1120,897,4.30,0.5526,0.7955,0.8482,0.8589,1,1,1,0.4474,0.8158,0.8895,0.9447
v_feast_1_5,viewpoint,1256,1122,4.29,0.3272,0.8925,0.9283,0.9395,1,1,1,0.6728,0.8909,0.9346,0.9673
v_feast_1_6,viewpoint,1143,967,4.74,1.0056,0.8381,0.8880,0.9046,1,1,1,0.0000,0.6648,0.7989,0.8994
v_fest_1_2,viewpoint,1469,1373,4.88,0.4349,0.9319,0.9598,0.9680,1,1,1,0.5651,0.8550,0.9130,0.9565
v_fest_1_3,viewpoint,1193,996,5.16,1.2061,0.8357,0.8902,0.8994,1,1,1,0.0000,0.5980,0.7588,0.8794
v_fest_1_4,viewpoint,1181,1075,5.42,0.5132,0.9094,0.9306,0.9399,1,1,1,0.4868,0.8289,0.8974,0.9487
v_fest_1_5,viewpoint,1194,1041,4.92,0.9410,0.8610,0.9280,0.9489,1,1,1,0.0590,0.6863,0.8118,0.9059
v_fest_1_6,viewpoint,1074,798,4.57,1.9991,0.7318,0.8091,0.8343,1,1,1,0.0000,0.3336,0.6002,0.8001
v_gardens_1_2,viewpoint,1407,1258,4.57,1.0707,0.8920,0.9268,0.9439,1,1,1,0.0000,0.6431,0.7859,0.8929
v_gardens_1_3,viewpoint,937,596,5.25,4.9577,0.6286,0.6980,0.7204,0,1,1,0.0000,0.0000,0.0085,0.5042
v_gardens_1_4,viewpoint,1572,1451,4.95,0.6319,0.9211,0.9561,0.9663,1,1,1,0.3681,0.7894,0.8736,0.9368
v_gardens_1_5,viewpoint,1066,803,4.31,1.3400,0.7458,0.8086,0.8293,1,1,1,0.0000,0.5533,0.7320,0.8660
v_gardens_1_6,viewpoint,1336,1044,4.77,0.8272,0.7852,0.8832,0.9237,1,1,1,0.1728,0.7243,0.8346,0.9173
v_grace_1_2,viewpoint,1040,929,3.94,0.6033,0.8923,0.9519,0.9683,1,1,1,0.3967,0.7989,0.8793,0.9397
v_grace_1_3,viewpoint,936,812,3.96,0.8526,0.8622,0.9038,0.9359,1,1,1,0.1474,0.7158,0.8295,0.9147
v_grace_1_4,viewpoint,828,676,3.75,2.1211,0.8140,0.8780,0.8998,1,1,1,0.0000,0.2930,0.5758,0.7879
v_grace_1_5,viewpoint,671,410,4.04,1.5254,0.6125,0.6751,0.7139,1,1,1,0.0000,0.4915,0.6949,0.8475
v_grace_1_6,viewpoint,559,234,3.70,1.9027,0.4114,0.4580,0.4812,1,1,1,0.0000,0.3658,0.6195,0.8097
v_graffiti_1_2,viewpoint,1133,868,4.48,0.4695,0.7705,0.8570,0.8923,1,1,1,0.5305,0.8435,0.9061,0.9530
v_graffiti_1_3,viewpoint,1067,799,4.87,1.3785,0.7404,0.8266,0.8557,1,1,1,0.0000,0.5405,0.7243,0.8621
v_graffiti_1_4,viewpoint,807,158,4.75,1.8405,0.1945,0.2788,0.3284,1,1,1,0.0000,0.3865,0.6319,0.8159
v_graffiti_1_5,viewpoint,808,440,4.29,0.6741,0.5483,0.6498,0.6856,1,1,1,0.3259,0.7753,0.8652,0.9326
v_graffiti_1_6,viewpoint,637,9,4.80,199.8047,0.0487,0.0659,0.0942,0,0,0,0.0000,0.0000,0.0000,0.0000
v_home_1_2,viewpoint,959,821,4.19,0.5694,0.8530,0.8926,0.9155,1,1,1,0.4306,0.8102,0.8861,0.9431
v_home_1_3,viewpoint,886,674,4.22,1.3937,0.7528,0.8093,0.8352,1,1,1,0.0000,0.5354,0.7213,0.8606
v_home_1_4,viewpoint,947,814,4.23,1.2862,0.8596,0.8933,0.9050,1,1,1,0.0000,0.5713,0.7428,0.8714
v_home_1_5,viewpoint,858,632,4.31,3.2947,0.7203,0.7949,0.8170,0,1,1,0.0000,0.0000,0.3411,0.6705
v_home_1_6,viewpoint,671,176,4.36,1.4495,0.2668,0.3785,0.4382,1,1,1,0.0000,0.5168,0.7101,0.8551
v_laptop_1_2,viewpoint,1153,1109,3.96,0.2288,0.9610,0.9835,0.9896,1,1,1,0.7712,0.9237,0.9542,0.9771
v_laptop_1_3,viewpoint,703,445,3.87,1.6556,0.6259,0.7368,0.7838,1,1,1,0.0000,0.4481,0.6689,0.8344
v_laptop_1_4,viewpoint,464,25,4.18,9.4387,0.0690,0.1056,0.1379,0,0,0,0.0000,0.0000,0.0000,0.0561
v_laptop_1_5,viewpoint,417,13,3.71,200.2422,0.0024,0.0072,0.0072,0,0,0,0.0000,0.0000,0.0000,0.0000
v_laptop_1_6,viewpoint,417,8,4.09,280.0563,0.0000,0.0096,0.0096,0,0,0,0.0000,0.0000,0.0000,0.0000
v_london_1_2,viewpoint,1560,1447,4.87,0.1875,0.9301,0.9558,0.9712,1,1,1,0.8125,0.9375,0.9625,0.9813
v_london_1_3,viewpoint,1398,1300,5.08,0.4426,0.9292,0.9528,0.9635,1,1,1,0.5574,0.8525,0.9115,0.9557
v_london_1_4,viewpoint,1438,1298,5.06,0.7578,0.9006,0.9312,0.9471,1,1,1,0.2422,0.7474,0.8484,0.9242
v_london_1_5,viewpoint,1553,1471,4.57,0.2877,0.9440,0.9672,0.9730,1,1,1,0.7123,0.9041,0.9425,0.9712
v_london_1_6,viewpoint,1657,1575,4.55,0.2325,0.9511,0.9698,0.9795,1,1,1,0.7675,0.9225,0.9535,0.9768
v_machines_1_2,viewpoint,1270,1155,4.84,0.7057,0.9079,0.9504,0.9693,1,1,1,0.2943,0.7648,0.8589,0.9294
v_machines_1_3,viewpoint,939,755,4.14,3.0704,0.7827,0.8946,0.9286,0,1,1,0.0000,0.0000,0.3859,0.6930
v_machines_1_4,viewpoint,1069,1004,4.17,0.6385,0.9392,0.9719,0.9841,1,1,1,0.3615,0.7872,0.8723,0.9361
v_machines_1_5,viewpoint,804,715,3.93,1.5375,0.8657,0.9366,0.9527,1,1,1,0.0000,0.4875,0.6925,0.8462
v_machines_1_6,viewpoint,1041,979,3.91,0.3232,0.9376,0.9616,0.9760,1,1,1,0.6768,0.8923,0.9354,0.9677
v_man_1_2,viewpoint,1122,1033,4.23,2.4207,0.9171,0.9510,0.9554,1,1,1,0.0000,0.1931,0.5159,0.7579
v_man_1_3,viewpoint,925,751,4.39,3.1657,0.7838,0.8595,0.8800,0,1,1,0.0000,0.0000,0.3669,0.6834
v_man_1_4,viewpoint,876,723,3.96,2.1251,0.7888,0.8870,0.9167,1,1,1,0.0000,0.2916,0.5750,0.7875
v_man_1_5,viewpoint,1032,937,4.25,1.9488,0.8992,0.9554,0.9612,1,1,1,0.0000,0.3504,0.6102,0.8051
v_man_1_6,viewpoint,1075,960,4.19,1.6901,0.8902,0.9247,0.9349,1,1,1,0.0000,0.4366,0.6620,0.8310
v_maskedman_1_2,viewpoint,865,688,3.75,0.8501,0.7988,0.8613,0.8890,1,1,1,0.1499,0.7166,0.8300,0.9150
v_maskedman_1_3,viewpoint,739,551,4.33,0.9654,0.7442,0.8078,0.8281,1,1,1,0.0346,0.6782,0.8069,0.9035
v_maskedman_1_4,viewpoint,899,777,3.98,2.4479,0.8687,0.9232,0.9377,1,1,1,0.0000,0.1840,0.5104,0.7552
v_maskedman_1_5,viewpoint,916,823,3.92,1.5594,0.8963,0.9356,0.9476,1,1,1,0.0000,0.4802,0.6881,0.8441
v_maskedman_1_6,viewpoint,533,221,3.79,3.6821,0.4071,0.4578,0.4803,0,1,1,0.0000,0.0000,0.2636,0.6318
v_pomegranate_1_2,viewpoint,1510,1355,5.30,0.4684,0.8974,0.9543,0.9675,1,1,1,0.5316,0.8439,0.9063,0.9532
v_pomegranate_1_3,viewpoint,1423,1221,5.31,0.9635,0.8391,0.9248,0.9487,1,1,1,0.0365,0.6788,0.8073,0.9037
v_pomegranate_1_4,viewpoint,1422,1234,4.95,0.3067,0.8636,0.9212,0.9494,1,1,1,0.6933,0.8978,0.9387,0.9693
v_pomegranate_1_5,viewpoint,1402,1283,4.92,0.8014,0.9144,0.9579,0.9793,1,1,1,0.1986,0.7329,0.8397,0.9199
v_pomegranate_1_6,viewpoint,1357,1259,4.57,0.3928,0.9256,0.9683,0.9779,1,1,1,0.6072,0.8691,0.9214,0.9607
v_posters_1_2,viewpoint,1071,848,11.28,115.0566,0.0000,0.0000,0.0000,0,0,0,0.0000,0.0000,0.0000,0.0000
v_posters_1_3,viewpoint,1243,1093,4.95,120.8343,0.0000,0.0000,0.0000,0,0,0,0.0000,0.0000,0.0000,0.0000
v_posters_1_4,viewpoint,1184,1026,4.67,112.3993,0.0000,0.0000,0.0000,0,0,0,0.0000,0.0000,0.0000,0.0000
v_posters_1_5,viewpoint,1053,772,4.82,124.5389,0.0000,0.0000,0.0000,0,0,0,0.0000,0.0000,0.0000,0.0000
v_posters_1_6,viewpoint,1060,745,4.84,147.4627,0.0000,0.0000,0.0000,0,0,0,0.0000,0.0000,0.0000,0.0000
v_samples_1_2,viewpoint,1453,1366,5.45,67.9373,0.0000,0.0000,0.0000,0,0,0,0.0000,0.0000,0.0000,0.0000
v_samples_1_3,viewpoint,1554,1451,5.18,72.7073,0.0006,0.0006,0.0013,0,0,0,0.0000,0.0000,0.0000,0.0000
v_samples_1_4,viewpoint,1394,1241,5.53,71.7272,0.0000,0.0000,0.0057,0,0,0,0.0000,0.0000,0.0000,0.0000
v_samples_1_5,viewpoint,1405,1297,4.97,80.6270,0.0000,0.0007,0.0007,0,0,0,0.0000,0.0000,0.0000,0.0000
v_samples_1_6,viewpoint,1365,1195,4.97,66.9730,0.0000,0.0007,0.0073,0,0,0,0.0000,0.0000,0.0000,0.0000
v_soldiers_1_2,viewpoint,1268,1154,4.41,0.3202,0.9085,0.9550,0.9677,1,1,1,0.6798,0.8933,0.9360,0.9680
v_soldiers_1_3,viewpoint,955,816,4.31,0.9423,0.8534,0.9204,0.9435,1,1,1,0.0577,0.6859,0.8115,0.9058
v_soldiers_1_4,viewpoint,802,593,4.00,0.4622,0.7382,0.7980,0.8229,1,1,1,0.5378,0.8459,0.9076,0.9538
v_soldiers_1_5,viewpoint,758,408,4.29,2.3175,0.5409,0.5950,0.6187,1,1,1,0.0000,0.2275,0.5365,0.7682
v_soldiers_1_6,viewpoint,1123,1010,4.44,97.2483,0.0000,0.0000,0.0000,0,0,0,0.0000,0.0000,0.0000,0.0000
v_strand_1_2,viewpoint,1429,1369,4.36,0.2007,0.9587,0.9825,0.9881,1,1,1,0.7993,0.9331,0.9599,0.9799
v_strand_1_3,viewpoint,1080,976,4.17,0.6854,0.8907,0.9648,0.9759,1,1,1,0.3146,0.7715,0.8629,0.9315
v_strand_1_4,viewpoint,1027,930,4.19,2.5047,0.8968,0.9445,0.9581,1,1,1,0.0000,0.1651,0.4991,0.7495
v_strand_1_5,viewpoint,1117,1013,4.34,2.3350,0.8765,0.9534,0.9794,1,1,1,0.0000,0.2217,0.5330,0.7665
v_strand_1_6,viewpoint,890,778,3.95,4.0118,0.8034,0.9404,0.9674,0,1,1,0.0000,0.0000,0.1976,0.5988
v_sunseason_1_2,viewpoint,1719,1595,6.89,0.1869,0.9273,0.9575,0.9657,1,1,1,0.8131,0.9377,0.9626,0.9813
v_sunseason_1_3,viewpoint,1542,1414,5.90,0.2203,0.9170,0.9351,0.9377,1,1,1,0.7797,0.9266,0.9559,0.9780
v_sunseason_1_4,viewpoint,1146,857,8.54,0.7825,0.7426,0.7696,0.7801,1,1,1,0.2175,0.7392,0.8435,0.9217
v_sunseason_1_5,viewpoint,1048,704,4.76,1.0004,0.6698,0.7013,0.7137,1,1,1,0.0000,0.6665,0.7999,0.9000
v_sunseason_1_6,viewpoint,883,488,4.71,0.8322,0.5515,0.5934,0.6161,1,1,1,0.1678,0.7226,0.8336,0.9168
v_tabletop_1_2,viewpoint,1300,1142,4.75,0.5171,0.8762,0.9123,0.9223,1,1,1,0.4829,0.8276,0.8966,0.9483
v_tabletop_1_3,viewpoint,1028,516,4.58,1.1256,0.5058,0.5545,0.5827,1,1,1,0.0000,0.6248,0.7749,0.8874
v_tabletop_1_4,viewpoint,1047,707,4.67,1.0361,0.6724,0.7173,0.7354,1,1,1,0.0000,0.6546,0.7928,0.8964
v_tabletop_1_5,viewpoint,1049,763,4.24,0.8458,0.7274,0.7703,0.7807,1,1,1,0.1542,0.7181,0.8308,0.9154
v_tabletop_1_6,viewpoint,1055,769,4.21,0.6887,0.7270,0.7687,0.7829,1,1,1,0.3113,0.7704,0.8623,0.9311
v_tempera_1_2,viewpoint,751,714,4.11,0.4844,0.9481,0.9760,0.9880,1,1,1,0.5156,0.8385,0.9031,0.9516
v_tempera_1_3,viewpoint,707,655,3.79,0.5421,0.9250,0.9590,0.9760,1,1,1,0.4579,0.8193,0.8916,0.9458
v_tempera_1_4,viewpoint,723,672,4.22,0.4759,0.9253,0.9516,0.9682,1,1,1,0.5241,0.8414,0.9048,0.9524
v_tempera_1_5,viewpoint,711,624,5.11,1.0208,0.8734,0.9156,0.9325,1,1,1,0.0000,0.6597,0.7958,0.8979
v_tempera_1_6,viewpoint,446,284,4.84,2.1055,0.6435,0.6973,0.7265,1,1,1,0.0000,0.2982,0.5789,0.7895
v_there_1_2,viewpoint,535,445,3.71,0.9757,0.8206,0.9308,0.9551,1,1,1,0.0243,0.6748,0.8049,0.9024
v_there_1_3,viewpoint,364,116,3.55,2.1472,0.3022,0.3846,0.4341,1,1,1,0.0000,0.2843,0.5706,0.7853
v_there_1_4,viewpoint,356,10,3.92,263.5477,0.0730,0.0871,0.1096,0,0,0,0.0000,0.0000,0.0000,0.0000
v_there_1_5,viewpoint,312,7,3.70,275.8094,0.0160,0.0353,0.0449,0,0,0,0.0000,0.0000,0.0000,0.0000
v_there_1_6,viewpoint,312,6,3.74,521.4031,0.0000,0.0000,0.0000,0,0,0,0.0000,0.0000,0.0000,0.0000
v_underground_1_2,viewpoint,1620,1560,4.93,0.1269,0.9636,0.9784,0.9809,1,1,1,0.8731,0.9577,0.9746,0.9873
v_underground_1_3,viewpoint,1447,1342,4.76,0.2967,0.9274,0.9627,0.9675,1,1,1,0.7033,0.9011,0.9407,0.9703
v_underground_1_4,viewpoint,1128,994,4.60,0.7611,0.8821,0.9238,0.9353,1,1,1,0.2389,0.7463,0.8478,0.9239
v_underground_1_5,viewpoint,953,737,4.16,0.9576,0.7681,0.8227,0.8489,1,1,1,0.0424,0.6808,0.8085,0.9042
v_underground_1_6,viewpoint,730,465,3.98,2.1264,0.6425,0.7205,0.7644,1,1,1,0.0000,0.2912,0.5747,0.7874
v_vitro_1_2,viewpoint,1649,1569,5.12,0.2231,0.9503,0.9703,0.9739,1,1,1,0.7769,0.9256,0.9554,0.9777
v_vitro_1_3,viewpoint,1534,1413,5.38,0.3147,0.9179,0.9452,0.9498,1,1,1,0.6853,0.8951,0.9371,0.9685
v_vitro_1_4,viewpoint,1312,1189,4.83,0.4495,0.9055,0.9375,0.9428,1,1,1,0.5505,0.8502,0.9101,0.9551
v_vitro_1_5,viewpoint,1579,1499,5.35,0.4303,0.9500,0.9721,0.9778,1,1,1,0.5697,0.8566,0.9139,0.9570
v_vitro_1_6,viewpoint,1427,1306,4.63,0.4271,0.9152,0.9566,0.9622,1,1,1,0.5729,0.8576,0.9146,0.9573
v_wall_1_2,viewpoint,1288,1217,4.29,0.5652,0.9441,0.9666,0.9720,1,1,1,0.4348,0.8116,0.8870,0.9435
v_wall_1_3,viewpoint,1127,999,4.20,1.6211,0.8855,0.9317,0.9459,1,1,1,0.0000,0.4596,0.6758,0.8379
v_wall_1_4,viewpoint,1354,1282,4.18,0.4606,0.9461,0.9734,0.9808,1,1,1,0.5394,0.8465,0.9079,0.9539
v_wall_1_5,viewpoint,1198,1035,4.29,1.0570,0.8589,0.9149,0.9341,1,1,1,0.0000,0.6477,0.7886,0.8943
v_wall_1_6,viewpoint,1026,846,4.14,3.3260,0.8226,0.8801,0.9025,0,1,1,0.0000,0.0000,0.3348,0.6674
v_wapping_1_2,viewpoint,1314,948,5.54,0.3240,0.7192,0.8075,0.8516,1,1,1,0.6760,0.8920,0.9352,0.9676
v_wapping_1_3,viewpoint,1065,644,5.51,1.4468,0.6066,0.6948,0.7446,1,1,1,0.0000,0.5177,0.7106,0.8553
v_wapping_1_4,viewpoint,1035,602,4.82,2.2865,0.5816,0.6908,0.7420,1,1,1,0.0000,0.2378,0.5427,0.7714
v_wapping_1_5,viewpoint,876,435,4.28,1.2501,0.4920,0.5696,0.6016,1,1,1,0.0000,0.5833,0.7500,0.8750
v_wapping_1_6,viewpoint,822,252,4.28,3.2061,0.3054,0.3577,0.3917,0,1,1,0.0000,0.0000,0.3588,0.6794
v_war_1_2,viewpoint,1177,991,5.02,1.2892,0.8377,0.9159,0.9346,1,1,1,0.0000,0.5703,0.7422,0.8711
v_war_1_3,viewpoint,932,712,4.72,1.7430,0.7575,0.8691,0.9013,1,1,1,0.0000,0.4190,0.6514,0.8257
v_war_1_4,viewpoint,1414,1360,4.93,0.3617,0.9597,0.9781,0.9844,1,1,1,0.6383,0.8794,0.9277,0.9638
v_war_1_5,viewpoint,1382,1287,5.14,0.5606,0.9291,0.9653,0.9754,1,1,1,0.4394,0.8131,0.8879,0.9439
v_war_1_6,viewpoint,925,704,4.37,1.8592,0.7416,0.8638,0.8886,1,1,1,0.0000,0.3803,0.6282,0.8141
v_weapons_1_2,viewpoint,1265,1211,4.60,0.7769,0.9557,0.9794,0.9850,1,1,1,0.2231,0.7410,0.8446,0.9223
v_weapons_1_3,viewpoint,1112,1021,4.30,0.5349,0.9200,0.9559,0.9667,1,1,1,0.4651,0.8217,0.8930,0.9465
v_weapons_1_4,viewpoint,1196,1067,4.18,0.8093,0.8913,0.9473,0.9590,1,1,1,0.1907,0.7302,0.8381,0.9191
v_weapons_1_5,viewpoint,1230,1170,4.15,0.8692,0.9472,0.9740,0.9789,1,1,1,0.1308,0.7103,0.8262,0.9131
v_weapons_1_6,viewpoint,1133,1062,4.07,1.1292,0.9356,0.9647,0.9718,1,1,1,0.0000,0.6236,0.7742,0.8871
v_woman_1_2,viewpoint,708,543,3.92,46.5339,0.0000,0.0000,0.0042,0,0,0,0.0000,0.0000,0.0000,0.0000
v_woman_1_3,viewpoint,786,651,3.98,49.7975,0.0000,0.0000,0.0000,0,0,0,0.0000,0.0000,0.0000,0.0000
v_woman_1_4,viewpoint,731,538,3.99,50.3531,0.0014,0.0014,0.0014,0,0,0,0.0000,0.0000,0.0000,0.0000
v_woman_1_5,viewpoint,648,385,3.94,44.0927,0.0000,0.0015,0.0062,0,0,0,0.0000,0.0000,0.0000,0.0000
v_woman_1_6,viewpoint,659,455,4.09,49.0630,0.0000,0.0000,0.0000,0,0,0,0.0000,0.0000,0.0000,0.0000
v_wormhole_1_2,viewpoint,1153,1011,4.56,0.4690,0.8751,0.9107,0.9237,1,1,1,0.5310,0.8437,0.9062,0.9531
v_wormhole_1_3,viewpoint,1298,1180,4.95,0.4862,0.9122,0.9507,0.9607,1,1,1,0.5138,0.8379,0.9028,0.9514
v_wormhole_1_4,viewpoint,1390,1309,5.23,0.5616,0.9403,0.9727,0.9806,1,1,1,0.4384,0.8128,0.8877,0.9438
v_wormhole_1_5,viewpoint,1080,877,4.34,5.1219,0.8000,0.8769,0.8944,0,0,1,0.0000,0.0000,0.0000,0.4878
v_wormhole_1_6,viewpoint,823,437,4.54,4.5748,0.5067,0.6367,0.6817,0,1,1,0.0000,0.0000,0.0850,0.5425
v_wounded_1_2,viewpoint,1025,939,4.15,0.7035,0.9151,0.9434,0.9541,1,1,1,0.2965,0.7655,0.8593,0.9296
v_wounded_1_3,viewpoint,798,588,4.10,4.3186,0.7331,0.7857,0.8033,0,1,1,0.0000,0.0000,0.1363,0.5681
v_wounded_1_4,viewpoint,496,315,3.81,27.1291,0.6069,0.7218,0.7883,0,0,0,0.0000,0.0000,0.0000,0.0000
v_wounded_1_5,viewpoint,675,502,3.83,2.5657,0.7378,0.8015,0.8267,1,1,1,0.0000,0.1448,0.4869,0.7434
v_wounded_1_6,viewpoint,475,292,3.69,8.3422,0.6295,0.7347,0.7895,0,0,0,0.0000,0.0000,0.0000,0.1658
v_yard_1_2,viewpoint,1387,1299,4.56,0.3959,0.9373,0.9668,0.9762,1,1,1,0.6041,0.8680,0.9208,0.9604
v_yard_1_3,viewpoint,1013,711,4.40,1.6430,0.6910,0.7789,0.8115,1,1,1,0.0000,0.4523,0.6714,0.8357
v_yard_1_4,viewpoint,1321,1202,4.55,0.5510,0.9076,0.9410,0.9576,1,1,1,0.4490,0.8163,0.8898,0.9449
v_yard_1_5,viewpoint,1140,895,4.56,0.8091,0.7789,0.8526,0.8737,1,1,1,0.1909,0.7303,0.8382,0.9191
v_yard_1_6,viewpoint,984,556,4.31,1.5537,0.5579,0.6565,0.6870,1,1,1,0.0000,0.4821,0.6893,0.8446
v_yuri_1_2,viewpoint,692,623,4.11,0.4808,0.8974,0.9566,0.9740,1,1,1,0.5192,0.8397,0.9038,0.9519
v_yuri_1_3,viewpoint,567,481,3.83,1.3509,0.8377,0.9136,0.9400,1,1,1,0.0000,0.5497,0.7298,0.8649
v_yuri_1_4,viewpoint,513,363,3.74,30.7796,0.6589,0.8070,0.8499,0,0,0,0.0000,0.0000,0.0000,0.0000
v_yuri_1_5,viewpoint,628,541,3.82,1.8674,0.8631,0.9268,0.9554,1,1,1,0.0000,0.3775,0.6265,0.8133
v_yuri_1_6,viewpoint,538,403,3.78,3.8964,0.7249,0.8717,0.9126,0,1,1,0.0000,0.0000,0.2207,0.6104
