PairName,SeqType,NumMatches,Inliers,TimeMS,H_Error,MMA@3,MMA@5,MMA@7,MHA_Acc@3,MHA_Acc@5,MHA_Acc@7,AUC@1,AUC@3,AUC@5,AUC@10
i_ajuntament_1_2,illumination,993,928,246.32,0.3675,0.9245,0.9607,0.9809,1,1,1,0.6325,0.8775,0.9265,0.9633
i_ajuntament_1_3,illumination,779,606,4.58,1.2948,0.7522,0.8639,0.9012,1,1,1,0.0000,0.5684,0.7410,0.8705
i_ajuntament_1_4,illumination,507,221,3.94,1.8302,0.4142,0.5325,0.5996,1,1,1,0.0000,0.3899,0.6340,0.8170
i_ajuntament_1_5,illumination,512,259,3.62,1.1298,0.5020,0.5996,0.6582,1,1,1,0.0000,0.6234,0.7740,0.8870
i_ajuntament_1_6,illumination,537,246,4.06,1.3656,0.4507,0.5717,0.6480,1,1,1,0.0000,0.5448,0.7269,0.8634
i_autannes_1_2,illumination,883,767,10.35,0.4866,0.8698,0.9241,0.9456,1,1,1,0.5134,0.8378,0.9027,0.9513
i_autannes_1_3,illumination,812,669,4.14,0.4171,0.8202,0.8805,0.9200,1,1,1,0.5829,0.8610,0.9166,0.9583
i_autannes_1_4,illumination,896,628,4.41,1.0912,0.6730,0.7902,0.8382,1,1,1,0.0000,0.6363,0.7818,0.8909
i_autannes_1_5,illumination,897,640,4.12,1.0343,0.7046,0.8060,0.8540,1,1,1,0.0000,0.6552,0.7931,0.8966
i_autannes_1_6,illumination,898,739,3.98,0.3890,0.8163,0.8931,0.9220,1,1,1,0.6110,0.8703,0.9222,0.9611
i_bologna_1_2,illumination,686,629,9.70,0.5285,0.9169,0.9504,0.9694,1,1,1,0.4715,0.8238,0.8943,0.9472
i_bologna_1_3,illumination,643,575,3.31,0.2631,0.8958,0.9300,0.9409,1,1,1,0.7369,0.9123,0.9474,0.9737
i_bologna_1_4,illumination,664,595,3.34,0.9698,0.8946,0.9262,0.9458,1,1,1,0.0302,0.6767,0.8060,0.9030
i_bologna_1_5,illumination,673,598,3.43,0.6476,0.8960,0.9316,0.9480,1,1,1,0.3524,0.7841,0.8705,0.9352
i_bologna_1_6,illumination,665,583,3.38,0.8709,0.8722,0.9248,0.9398,1,1,1,0.1291,0.7097,0.8258,0.9129
i_books_1_2,illumination,614,579,3.45,0.0000,0.9446,0.9625,0.9674,1,1,1,1.0000,1.0000,1.0000,1.0000
i_books_1_3,illumination,769,710,3.64,0.0000,0.9233,0.9480,0.9610,1,1,1,1.0000,1.0000,1.0000,1.0000
i_books_1_4,illumination,770,716,3.62,0.2854,0.9286,0.9545,0.9714,1,1,1,0.7146,0.9049,0.9429,0.9715
i_books_1_5,illumination,771,715,3.67,0.1383,0.9274,0.9533,0.9663,1,1,1,0.8617,0.9539,0.9723,0.9862
i_books_1_6,illumination,680,626,3.55,0.2006,0.9221,0.9412,0.9485,1,1,1,0.7994,0.9331,0.9599,0.9799
i_boutique_1_2,illumination,1216,1091,4.19,0.0000,0.9013,0.9433,0.9622,1,1,1,1.0000,1.0000,1.0000,1.0000
i_boutique_1_3,illumination,1232,1065,4.92,0.4350,0.8531,0.9148,0.9416,1,1,1,0.5650,0.8550,0.9130,0.9565
i_boutique_1_4,illumination,1243,1067,5.86,0.4772,0.8479,0.9187,0.9445,1,1,1,0.5228,0.8409,0.9046,0.9523
i_boutique_1_5,illumination,1003,667,5.51,0.5738,0.6600,0.7488,0.7986,1,1,1,0.4262,0.8087,0.8852,0.9426
i_boutique_1_6,illumination,974,648,4.65,0.5303,0.6581,0.7536,0.7967,1,1,1,0.4697,0.8232,0.8939,0.9470
i_bridger_1_2,illumination,1343,1174,13.25,0.4974,0.8407,0.9412,0.9724,1,1,1,0.5026,0.8342,0.9005,0.9503
i_bridger_1_3,illumination,1288,1087,5.74,0.4282,0.8307,0.9138,0.9519,1,1,1,0.5718,0.8573,0.9144,0.9572
i_bridger_1_4,illumination,1172,1021,4.97,0.3502,0.8592,0.9275,0.9531,1,1,1,0.6498,0.8833,0.9300,0.9650
i_bridger_1_5,illumination,987,789,4.74,0.5230,0.7893,0.8835,0.9382,1,1,1,0.4770,0.8257,0.8954,0.9477
i_bridger_1_6,illumination,433,253,3.92,1.3757,0.5751,0.6813,0.7460,1,1,1,0.0000,0.5414,0.7249,0.8624
i_brooklyn_1_2,illumination,1503,1279,5.36,0.4192,0.8463,0.9175,0.9434,1,1,1,0.5808,0.8603,0.9162,0.9581
i_brooklyn_1_3,illumination,1564,1403,5.39,1.2047,0.8734,0.9533,0.9783,1,1,1,0.0000,0.5984,0.7591,0.8795
i_brooklyn_1_4,illumination,1338,1013,4.86,1.1036,0.7362,0.8430,0.9006,1,1,1,0.0000,0.6321,0.7793,0.8896
i_brooklyn_1_5,illumination,1578,1394,5.05,1.4442,0.8536,0.9423,0.9708,1,1,1,0.0000,0.5186,0.7112,0.8556
i_brooklyn_1_6,illumination,1505,1259,4.93,1.4656,0.7967,0.9017,0.9442,1,1,1,0.0000,0.5115,0.7069,0.8534
i_castle_1_2,illumination,1313,901,5.58,0.6464,0.6832,0.7753,0.8233,1,1,1,0.3536,0.7845,0.8707,0.9354
i_castle_1_3,illumination,1380,1179,5.61,0.3679,0.8428,0.9072,0.9341,1,1,1,0.6321,0.8774,0.9264,0.9632
i_castle_1_4,illumination,1215,1025,5.40,0.7288,0.8288,0.9012,0.9259,1,1,1,0.2712,0.7571,0.8542,0.9271
i_castle_1_5,illumination,1059,739,4.72,0.7764,0.6941,0.7743,0.8225,1,1,1,0.2236,0.7412,0.8447,0.9224
i_castle_1_6,illumination,1076,688,4.48,0.4776,0.6348,0.7240,0.7723,1,1,1,0.5224,0.8408,0.9045,0.9522
i_chestnuts_1_2,illumination,1189,1069,4.36,0.1353,0.8982,0.9428,0.9697,1,1,1,0.8647,0.9549,0.9729,0.9865
i_chestnuts_1_3,illumination,1196,1052,4.11,0.0000,0.8829,0.9239,0.9624,1,1,1,1.0000,1.0000,1.0000,1.0000
i_chestnuts_1_4,illumination,1138,1013,4.38,0.3581,0.8840,0.9262,0.9605,1,1,1,0.6419,0.8806,0.9284,0.9642
i_chestnuts_1_5,illumination,1066,921,4.01,0.4479,0.8499,0.9165,0.9493,1,1,1,0.5521,0.8507,0.9104,0.9552
i_chestnuts_1_6,illumination,969,800,4.03,0.0000,0.8287,0.8875,0.9236,1,1,1,1.0000,1.0000,1.0000,1.0000
i_crownday_1_2,illumination,1060,766,4.58,0.5518,0.7236,0.8151,0.8660,1,1,1,0.4482,0.8161,0.8896,0.9448
i_crownday_1_3,illumination,1207,966,4.71,0.4867,0.7978,0.8865,0.9287,1,1,1,0.5133,0.8378,0.9027,0.9513
i_crownday_1_4,illumination,1260,1061,4.62,0.5679,0.8429,0.9111,0.9500,1,1,1,0.4321,0.8107,0.8864,0.9432
i_crownday_1_5,illumination,1326,1169,4.66,0.2935,0.8816,0.9344,0.9608,1,1,1,0.7065,0.9022,0.9413,0.9707
i_crownday_1_6,illumination,1072,768,4.56,0.6693,0.7108,0.8078,0.8750,1,1,1,0.3307,0.7769,0.8661,0.9331
i_dome_1_2,illumination,1441,1343,4.97,0.0000,0.9348,0.9660,0.9722,1,1,1,1.0000,1.0000,1.0000,1.0000
i_dome_1_3,illumination,829,572,4.13,0.6040,0.6924,0.7744,0.8287,1,1,1,0.3960,0.7987,0.8792,0.9396
i_dome_1_4,illumination,838,582,4.45,0.8751,0.6933,0.7721,0.8294,1,1,1,0.1249,0.7083,0.8250,0.9125
i_dome_1_5,illumination,845,593,4.54,0.9357,0.7018,0.7811,0.8367,1,1,1,0.0643,0.6881,0.8129,0.9064
i_dome_1_6,illumination,1168,964,4.39,0.3630,0.8236,0.8870,0.9144,1,1,1,0.6370,0.8790,0.9274,0.9637
i_duda_1_2,illumination,686,680,3.44,0.3537,0.9883,0.9971,0.9985,1,1,1,0.6463,0.8821,0.9293,0.9646
i_duda_1_3,illumination,643,626,3.33,0.3761,0.9736,0.9907,0.9969,1,1,1,0.6239,0.8746,0.9248,0.9624
i_duda_1_4,illumination,623,600,3.30,0.4743,0.9567,0.9872,0.9920,1,1,1,0.5257,0.8419,0.9051,0.9526
i_duda_1_5,illumination,586,557,3.29,0.6584,0.9386,0.9829,0.9949,1,1,1,0.3416,0.7805,0.8683,0.9342
i_duda_1_6,illumination,491,451,3.34,0.2769,0.9287,0.9695,0.9776,1,1,1,0.7231,0.9077,0.9446,0.9723
i_fenis_1_2,illumination,1439,1338,4.46,0.2728,0.9249,0.9694,0.9840,1,1,1,0.7272,0.9091,0.9454,0.9727
i_fenis_1_3,illumination,1277,1026,4.63,0.4962,0.8011,0.8700,0.9107,1,1,1,0.5038,0.8346,0.9008,0.9504
i_fenis_1_4,illumination,958,497,4.26,0.7930,0.5094,0.6023,0.6482,1,1,1,0.2070,0.7357,0.8414,0.9207
i_fenis_1_5,illumination,876,369,4.20,0.9652,0.4053,0.4806,0.5308,1,1,1,0.0348,0.6783,0.8070,0.9035
i_fenis_1_6,illumination,921,482,4.67,1.2900,0.5016,0.5907,0.6471,1,1,1,0.0000,0.5700,0.7420,0.8710
i_fog_1_2,illumination,1210,1105,4.97,0.2075,0.9149,0.9603,0.9694,1,1,1,0.7925,0.9308,0.9585,0.9793
i_fog_1_3,illumination,987,840,3.93,0.2947,0.8521,0.9078,0.9240,1,1,1,0.7053,0.9018,0.9411,0.9705
i_fog_1_4,illumination,895,754,3.79,0.3632,0.8436,0.8950,0.9184,1,1,1,0.6368,0.8789,0.9274,0.9637
i_fog_1_5,illumination,637,513,3.77,0.4158,0.8022,0.8273,0.8383,1,1,1,0.5842,0.8614,0.9168,0.9584
i_fog_1_6,illumination,531,408,3.55,0.4362,0.7665,0.7966,0.8117,1,1,1,0.5638,0.8546,0.9128,0.9564
i_fruits_1_2,illumination,1227,1121,10.82,0.1343,0.9136,0.9544,0.9731,1,1,1,0.8657,0.9552,0.9731,0.9866
i_fruits_1_3,illumination,1220,1065,5.74,0.2705,0.8705,0.9418,0.9664,1,1,1,0.7295,0.9098,0.9459,0.9729
i_fruits_1_4,illumination,1196,1055,4.57,0.3867,0.8813,0.9398,0.9632,1,1,1,0.6133,0.8711,0.9227,0.9613
i_fruits_1_5,illumination,1191,1033,4.64,0.4452,0.8665,0.9412,0.9656,1,1,1,0.5548,0.8516,0.9110,0.9555
i_fruits_1_6,illumination,1220,1080,4.60,0.4154,0.8811,0.9541,0.9738,1,1,1,0.5846,0.8615,0.9169,0.9585
i_gonnenberg_1_2,illumination,1398,1258,4.23,0.0000,0.9027,0.9278,0.9371,1,1,1,1.0000,1.0000,1.0000,1.0000
i_gonnenberg_1_3,illumination,1409,1258,4.30,0.9544,0.8921,0.9326,0.9503,1,1,1,0.0456,0.6819,0.8091,0.9046
i_gonnenberg_1_4,illumination,1327,1164,4.50,0.5541,0.8651,0.9103,0.9307,1,1,1,0.4459,0.8153,0.8892,0.9446
i_gonnenberg_1_5,illumination,1344,1213,4.29,0.4894,0.9033,0.9293,0.9479,1,1,1,0.5106,0.8369,0.9021,0.9511
i_gonnenberg_1_6,illumination,1357,1213,4.16,0.6144,0.8924,0.9241,0.9396,1,1,1,0.3856,0.7952,0.8771,0.9386
i_greenhouse_1_2,illumination,1542,1324,4.92,0.3034,0.8593,0.9079,0.9436,1,1,1,0.6966,0.8989,0.9393,0.9697
i_greenhouse_1_3,illumination,1512,1297,4.79,0.5462,0.8585,0.9074,0.9292,1,1,1,0.4538,0.8179,0.8908,0.9454
i_greenhouse_1_4,illumination,1424,1174,5.06,0.4695,0.8202,0.8820,0.9115,1,1,1,0.5305,0.8435,0.9061,0.9530
i_greenhouse_1_5,illumination,1427,1145,5.05,0.5713,0.8052,0.8690,0.8984,1,1,1,0.4287,0.8096,0.8857,0.9429
i_greenhouse_1_6,illumination,1300,967,5.00,0.7361,0.7392,0.8131,0.8431,1,1,1,0.2639,0.7546,0.8528,0.9264
i_greentea_1_2,illumination,1137,1013,4.08,0.0000,0.8936,0.9173,0.9358,1,1,1,1.0000,1.0000,1.0000,1.0000
i_greentea_1_3,illumination,1333,1259,4.97,0.2003,0.9445,0.9662,0.9782,1,1,1,0.7997,0.9332,0.9599,0.9800
i_greentea_1_4,illumination,1345,1278,4.63,0.1662,0.9509,0.9710,0.9807,1,1,1,0.8338,0.9446,0.9668,0.9834
i_greentea_1_5,illumination,1301,1245,4.68,0.0966,0.9562,0.9708,0.9777,1,1,1,0.9034,0.9678,0.9807,0.9903
i_greentea_1_6,illumination,1143,1050,4.73,0.3416,0.9195,0.9501,0.9668,1,1,1,0.6584,0.8861,0.9317,0.9658
i_indiana_1_2,illumination,1361,1106,4.77,0.4439,0.8016,0.8861,0.9265,1,1,1,0.5561,0.8520,0.9112,0.9556
i_indiana_1_3,illumination,1319,1022,4.57,0.4872,0.7710,0.8628,0.9105,1,1,1,0.5128,0.8376,0.9026,0.9513
i_indiana_1_4,illumination,1282,957,4.84,0.6275,0.7332,0.8354,0.8869,1,1,1,0.3725,0.7908,0.8745,0.9373
i_indiana_1_5,illumination,1238,882,5.02,0.8616,0.7027,0.7989,0.8498,1,1,1,0.1384,0.7128,0.8277,0.9138
i_indiana_1_6,illumination,1204,850,4.78,0.7085,0.6860,0.7907,0.8439,1,1,1,0.2915,0.7638,0.8583,0.9292
i_kions_1_2,illumination,676,552,10.60,0.9254,0.7959,0.8876,0.9142,1,1,1,0.0746,0.6915,0.8149,0.9075
i_kions_1_3,illumination,717,551,3.44,0.3904,0.7448,0.8424,0.8842,1,1,1,0.6096,0.8699,0.9219,0.9610
i_kions_1_4,illumination,613,457,3.41,0.7726,0.7276,0.8662,0.9070,1,1,1,0.2274,0.7425,0.8455,0.9227
i_kions_1_5,illumination,613,471,3.50,0.7227,0.7439,0.8695,0.9021,1,1,1,0.2773,0.7591,0.8555,0.9277
i_kions_1_6,illumination,676,478,3.66,0.5272,0.6982,0.7811,0.8210,1,1,1,0.4728,0.8243,0.8946,0.9473
i_ktirio_1_2,illumination,988,947,3.93,0.1797,0.9585,0.9787,0.9868,1,1,1,0.8203,0.9401,0.9641,0.9820
i_ktirio_1_3,illumination,850,705,4.28,0.6539,0.8188,0.8835,0.9118,1,1,1,0.3461,0.7820,0.8692,0.9346
i_ktirio_1_4,illumination,797,581,4.53,1.5457,0.7189,0.7967,0.8545,1,1,1,0.0000,0.4848,0.6909,0.8454
i_ktirio_1_5,illumination,804,609,4.11,0.8741,0.7550,0.8184,0.8545,1,1,1,0.1259,0.7086,0.8252,0.9126
i_ktirio_1_6,illumination,728,494,4.97,1.1770,0.6676,0.7582,0.8324,1,1,1,0.0000,0.6077,0.7646,0.8823
i_kurhaus_1_2,illumination,1511,1396,5.53,0.1449,0.9246,0.9576,0.9669,1,1,1,0.8551,0.9517,0.9710,0.9855
i_kurhaus_1_3,illumination,1409,1241,5.07,0.1899,0.8815,0.9255,0.9482,1,1,1,0.8101,0.9367,0.9620,0.9810
i_kurhaus_1_4,illumination,1319,1104,4.45,0.2490,0.8400,0.8817,0.9067,1,1,1,0.7510,0.9170,0.9502,0.9751
i_kurhaus_1_5,illumination,1281,1024,4.53,0.4885,0.7970,0.8618,0.8821,1,1,1,0.5115,0.8372,0.9023,0.9512
i_kurhaus_1_6,illumination,1238,924,4.78,0.6894,0.7439,0.8231,0.8489,1,1,1,0.3106,0.7702,0.8621,0.9311
i_leuven_1_2,illumination,981,936,3.85,0.8794,0.9551,0.9847,0.9918,1,1,1,0.1206,0.7069,0.8241,0.9121
i_leuven_1_3,illumination,985,938,3.75,1.0859,0.9503,0.9797,0.9858,1,1,1,0.0000,0.6380,0.7828,0.8914
i_leuven_1_4,illumination,968,902,3.79,1.8067,0.9256,0.9669,0.9783,1,1,1,0.0000,0.3978,0.6387,0.8193
i_leuven_1_5,illumination,917,837,3.82,1.2936,0.9084,0.9520,0.9662,1,1,1,0.0000,0.5688,0.7413,0.8706
i_leuven_1_6,illumination,877,765,4.62,7.2013,0.7104,0.8597,0.9145,0,0,0,0.0000,0.0000,0.0000,0.2799
i_lionday_1_2,illumination,965,648,4.15,1.1227,0.6632,0.7523,0.8083,1,1,1,0.0000,0.6258,0.7755,0.8877
i_lionday_1_3,illumination,1010,724,4.25,1.3158,0.7139,0.7842,0.8198,1,1,1,0.0000,0.5614,0.7368,0.8684
i_lionday_1_4,illumination,828,353,5.80,3.0396,0.3551,0.5121,0.5930,0,1,1,0.0000,0.0000,0.3921,0.6960
i_lionday_1_5,illumination,944,510,4.90,3.0294,0.4693,0.6250,0.6960,0,1,1,0.0000,0.0000,0.3941,0.6971
i_lionday_1_6,illumination,1030,700,4.42,1.6680,0.6602,0.7602,0.8087,1,1,1,0.0000,0.4440,0.6664,0.8332
i_lionnight_1_2,illumination,1305,1189,5.14,0.7946,0.9065,0.9364,0.9433,1,1,1,0.2054,0.7351,0.8411,0.9205
i_lionnight_1_3,illumination,1089,897,4.50,1.0908,0.8118,0.8549,0.8705,1,1,1,0.0000,0.6364,0.7818,0.8909
i_lionnight_1_4,illumination,1432,1345,4.74,0.7970,0.9330,0.9567,0.9623,1,1,1,0.2030,0.7343,0.8406,0.9203
i_lionnight_1_5,illumination,1389,1285,4.54,1.3978,0.9186,0.9381,0.9453,1,1,1,0.0000,0.5341,0.7204,0.8602
i_lionnight_1_6,illumination,1296,1185,4.36,1.0510,0.9082,0.9329,0.9360,1,1,1,0.0000,0.6497,0.7898,0.8949
i_londonbridge_1_2,illumination,958,896,3.88,1.1996,0.9259,0.9687,0.9791,1,1,1,0.0000,0.6001,0.7601,0.8800
i_londonbridge_1_3,illumination,951,884,4.01,1.0563,0.9138,0.9653,0.9832,1,1,1,0.0000,0.6479,0.7887,0.8944
i_londonbridge_1_4,illumination,937,807,3.92,2.4031,0.8164,0.9413,0.9669,1,1,1,0.0000,0.1990,0.5194,0.7597
i_londonbridge_1_5,illumination,789,473,4.13,1.7763,0.5463,0.6933,0.7833,1,1,1,0.0000,0.4079,0.6447,0.8224
i_londonbridge_1_6,illumination,908,811,3.80,0.6671,0.8733,0.9515,0.9703,1,1,1,0.3329,0.7776,0.8666,0.9333
i_melon_1_2,illumination,664,629,3.67,0.2601,0.9503,0.9819,0.9849,1,1,1,0.7399,0.9133,0.9480,0.9740
i_melon_1_3,illumination,620,557,3.60,0.3975,0.8903,0.9419,0.9677,1,1,1,0.6025,0.8675,0.9205,0.9603
i_melon_1_4,illumination,481,310,4.40,0.0000,0.6445,0.7422,0.8025,1,1,1,1.0000,1.0000,1.0000,1.0000
i_melon_1_5,illumination,610,509,3.33,0.7218,0.8295,0.9049,0.9393,1,1,1,0.2782,0.7594,0.8556,0.9278
i_melon_1_6,illumination,590,472,3.91,0.5097,0.7898,0.8932,0.9373,1,1,1,0.4903,0.8301,0.8981,0.9490
i_miniature_1_2,illumination,1454,1396,5.00,0.5111,0.9532,0.9794,0.9917,1,1,1,0.4889,0.8296,0.8978,0.9489
i_miniature_1_3,illumination,1306,1172,4.34,0.4259,0.8806,0.9403,0.9625,1,1,1,0.5741,0.8580,0.9148,0.9574
i_miniature_1_4,illumination,1028,771,5.08,0.8681,0.7354,0.8161,0.8609,1,1,1,0.1319,0.7106,0.8264,0.9132
i_miniature_1_5,illumination,696,371,3.88,0.9599,0.5345,0.6394,0.6839,1,1,1,0.0401,0.6800,0.8080,0.9040
i_miniature_1_6,illumination,1302,1151,4.45,0.6166,0.8740,0.9178,0.9493,1,1,1,0.3834,0.7945,0.8767,0.9383
i_nescafe_1_2,illumination,904,762,3.98,0.2704,0.8462,0.8993,0.9204,1,1,1,0.7296,0.9099,0.9459,0.9730
i_nescafe_1_3,illumination,1007,900,4.09,1.3770,0.8918,0.9275,0.9513,1,1,1,0.0000,0.5410,0.7246,0.8623
i_nescafe_1_4,illumination,1032,923,3.79,0.0000,0.8992,0.9264,0.9438,1,1,1,1.0000,1.0000,1.0000,1.0000
i_nescafe_1_5,illumination,934,794,3.85,0.0000,0.8555,0.9004,0.9422,1,1,1,1.0000,1.0000,1.0000,1.0000
i_nescafe_1_6,illumination,972,815,4.21,0.3181,0.8374,0.8858,0.9177,1,1,1,0.6819,0.8940,0.9364,0.9682
i_nijmegen_1_2,illumination,1462,1149,4.78,1.0000,0.7750,0.8659,0.9124,1,1,1,0.0000,0.6667,0.8000,0.9000
i_nijmegen_1_3,illumination,1573,1304,5.00,0.7224,0.8010,0.9002,0.9415,1,1,1,0.2776,0.7592,0.8555,0.9278
i_nijmegen_1_4,illumination,1013,641,4.69,0.6239,0.6130,0.7167,0.7720,1,1,1,0.3761,0.7920,0.8752,0.9376
i_nijmegen_1_5,illumination,1472,1210,4.74,0.7972,0.8010,0.8893,0.9327,1,1,1,0.2028,0.7343,0.8406,0.9203
i_nijmegen_1_6,illumination,1410,1132,4.90,0.6843,0.7787,0.8787,0.9255,1,1,1,0.3157,0.7719,0.8631,0.9316
i_nuts_1_2,illumination,1270,991,5.10,0.5640,0.7780,0.8701,0.9323,1,1,1,0.4360,0.8120,0.8872,0.9436
i_nuts_1_3,illumination,1049,731,6.01,0.5396,0.6969,0.8055,0.8627,1,1,1,0.4604,0.8201,0.8921,0.9460
i_nuts_1_4,illumination,771,468,5.56,1.0061,0.6018,0.7237,0.8067,1,1,1,0.0000,0.6646,0.7988,0.8994
i_nuts_1_5,illumination,609,273,4.90,0.8109,0.4154,0.5665,0.6601,1,1,1,0.1891,0.7297,0.8378,0.9189
i_nuts_1_6,illumination,465,153,5.11,1.7561,0.3054,0.4215,0.5247,1,1,1,0.0000,0.4146,0.6488,0.8244
i_objects_1_2,illumination,1469,1260,4.97,0.5889,0.8530,0.9367,0.9694,1,1,1,0.4111,0.8037,0.8822,0.9411
i_objects_1_3,illumination,1409,1137,4.70,1.1057,0.7999,0.9035,0.9503,1,1,1,0.0000,0.6314,0.7789,0.8894
i_objects_1_4,illumination,1268,912,4.80,0.6257,0.7137,0.8202,0.8927,1,1,1,0.3743,0.7914,0.8749,0.9374
i_objects_1_5,illumination,1289,894,4.80,1.4156,0.6811,0.7998,0.8782,1,1,1,0.0000,0.5281,0.7169,0.8584
i_objects_1_6,illumination,1549,1408,5.10,0.1305,0.9122,0.9587,0.9845,1,1,1,0.8695,0.9565,0.9739,0.9870
i_parking_1_2,illumination,924,795,3.94,0.3021,0.8647,0.9297,0.9621,1,1,1,0.6979,0.8993,0.9396,0.9698
i_parking_1_3,illumination,938,767,3.94,0.6951,0.8156,0.9083,0.9424,1,1,1,0.3049,0.7683,0.8610,0.9305
i_parking_1_4,illumination,856,623,4.31,1.1397,0.7068,0.8236,0.9019,1,1,1,0.0000,0.6201,0.7721,0.8860
i_parking_1_5,illumination,731,469,3.65,1.5149,0.6252,0.7209,0.7934,1,1,1,0.0000,0.4950,0.6970,0.8485
i_parking_1_6,illumination,825,588,3.83,0.8096,0.7042,0.8145,0.8558,1,1,1,0.1904,0.7301,0.8381,0.9190
i_partyfood_1_2,illumination,501,499,3.20,0.3104,0.9960,0.9980,1.0000,1,1,1,0.6896,0.8965,0.9379,0.9690
i_partyfood_1_3,illumination,473,467,3.46,0.4492,0.9915,0.9979,0.9979,1,1,1,0.5508,0.8503,0.9102,0.9551
i_partyfood_1_4,illumination,455,440,3.24,0.7423,0.9648,0.9912,0.9934,1,1,1,0.2577,0.7526,0.8515,0.9258
i_partyfood_1_5,illumination,441,423,3.28,1.4420,0.9592,0.9864,0.9932,1,1,1,0.0000,0.5193,0.7116,0.8558
i_partyfood_1_6,illumination,422,401,3.76,1.7366,0.9384,0.9834,0.9953,1,1,1,0.0000,0.4211,0.6527,0.8263
i_pinard_1_2,illumination,594,557,3.61,0.4901,0.9411,0.9731,0.9865,1,1,1,0.5099,0.8366,0.9020,0.9510
i_pinard_1_3,illumination,588,445,4.17,1.6409,0.7568,0.8214,0.8537,1,1,1,0.0000,0.4530,0.6718,0.8359
i_pinard_1_4,illumination,582,462,3.42,1.0894,0.7869,0.8522,0.8814,1,1,1,0.0000,0.6369,0.7821,0.8911
i_pinard_1_5,illumination,594,486,4.35,1.6258,0.8081,0.8603,0.9007,1,1,1,0.0000,0.4581,0.6748,0.8374
i_pinard_1_6,illumination,572,495,3.38,1.1634,0.8566,0.9003,0.9353,1,1,1,0.0000,0.6122,0.7673,0.8837
i_pool_1_2,illumination,489,287,3.38,1.5453,0.5808,0.6503,0.7219,1,1,1,0.0000,0.4849,0.6909,0.8455
i_pool_1_3,illumination,374,133,3.55,2.7240,0.3583,0.4358,0.4813,1,1,1,0.0000,0.0920,0.4552,0.7276
i_pool_1_4,illumination,387,137,3.36,2.7890,0.3514,0.4289,0.4780,1,1,1,0.0000,0.0703,0.4422,0.7211
i_pool_1_5,illumination,437,207,3.29,1.1472,0.4691,0.5469,0.5973,1,1,1,0.0000,0.6176,0.7706,0.8853
i_pool_1_6,illumination,423,203,3.27,1.7163,0.4728,0.5414,0.5721,1,1,1,0.0000,0.4279,0.6567,0.8284
i_porta_1_2,illumination,943,557,4.40,1.3236,0.5917,0.7264,0.8218,1,1,1,0.0000,0.5588,0.7353,0.8676
i_porta_1_3,illumination,949,564,4.22,0.6176,0.6038,0.7165,0.8061,1,1,1,0.3824,0.7941,0.8765,0.9382
i_porta_1_4,illumination,929,519,4.54,0.7505,0.5554,0.7147,0.7912,1,1,1,0.2495,0.7498,0.8499,0.9249
i_porta_1_5,illumination,560,410,3.93,0.6637,0.7304,0.8607,0.9125,1,1,1,0.3363,0.7788,0.8673,0.9336
i_porta_1_6,illumination,595,320,3.78,0.6456,0.5361,0.6420,0.7042,1,1,1,0.3544,0.7848,0.8709,0.9354
i_resort_1_2,illumination,1503,1331,4.73,0.4190,0.8842,0.9428,0.9634,1,1,1,0.5810,0.8603,0.9162,0.9581
i_resort_1_3,illumination,1595,1513,5.16,0.1284,0.9473,0.9762,0.9856,1,1,1,0.8716,0.9572,0.9743,0.9872
i_resort_1_4,illumination,1608,1529,4.87,0.0000,0.9540,0.9751,0.9857,1,1,1,1.0000,1.0000,1.0000,1.0000
i_resort_1_5,illumination,1482,1250,4.91,0.3855,0.8414,0.9170,0.9501,1,1,1,0.6145,0.8715,0.9229,0.9614
i_resort_1_6,illumination,1401,1204,4.98,0.7471,0.8394,0.9179,0.9486,1,1,1,0.2529,0.7510,0.8506,0.9253
i_salon_1_2,illumination,1566,1483,4.74,0.3267,0.9336,0.9738,0.9904,1,1,1,0.6733,0.8911,0.9347,0.9673
i_salon_1_3,illumination,1339,1201,4.75,0.5081,0.8641,0.9350,0.9649,1,1,1,0.4919,0.8306,0.8984,0.9492
i_salon_1_4,illumination,1179,943,4.25,0.5371,0.7812,0.8668,0.9075,1,1,1,0.4629,0.8210,0.8926,0.9463
i_salon_1_5,illumination,1431,1289,4.63,0.3435,0.8959,0.9476,0.9748,1,1,1,0.6565,0.8855,0.9313,0.9656
i_salon_1_6,illumination,1316,1115,4.55,0.4589,0.8298,0.9119,0.9506,1,1,1,0.5411,0.8470,0.9082,0.9541
i_santuario_1_2,illumination,1528,1308,4.72,1.0329,0.8384,0.9267,0.9548,1,1,1,0.0000,0.6557,0.7934,0.8967
i_santuario_1_3,illumination,1535,1323,4.64,1.1907,0.8332,0.9283,0.9648,1,1,1,0.0000,0.6031,0.7619,0.8809
i_santuario_1_4,illumination,1399,1140,4.43,1.3501,0.7684,0.8885,0.9299,1,1,1,0.0000,0.5500,0.7300,0.8650
i_santuario_1_5,illumination,1519,1296,4.51,0.4391,0.8578,0.9171,0.9519,1,1,1,0.5609,0.8536,0.9122,0.9561
i_santuario_1_6,illumination,1323,1065,4.81,0.8435,0.7944,0.8851,0.9244,1,1,1,0.1565,0.7188,0.8313,0.9157
i_school_1_2,illumination,1187,1094,4.14,0.1985,0.9225,0.9680,0.9815,1,1,1,0.8015,0.9338,0.9603,0.9802
i_school_1_3,illumination,1170,1074,4.74,0.0000,0.9197,0.9598,0.9803,1,1,1,1.0000,1.0000,1.0000,1.0000
i_school_1_4,illumination,1024,833,4.24,0.6255,0.7988,0.8623,0.8916,1,1,1,0.3745,0.7915,0.8749,0.9375
i_school_1_5,illumination,1104,934,4.38,0.7951,0.8361,0.8967,0.9348,1,1,1,0.2049,0.7350,0.8410,0.9205
i_school_1_6,illumination,880,606,5.58,1.0513,0.6841,0.7795,0.8227,1,1,1,0.0000,0.6496,0.7897,0.8949
i_ski_1_2,illumination,1532,1433,4.66,0.2718,0.9328,0.9700,0.9791,1,1,1,0.7282,0.9094,0.9456,0.9728
i_ski_1_3,illumination,1475,1306,4.68,0.6766,0.8814,0.9464,0.9729,1,1,1,0.3234,0.7745,0.8647,0.9323
i_ski_1_4,illumination,1389,1187,4.86,0.8541,0.8445,0.9273,0.9582,1,1,1,0.1459,0.7153,0.8292,0.9146
i_ski_1_5,illumination,1370,1132,4.70,0.8988,0.8051,0.9117,0.9518,1,1,1,0.1012,0.7004,0.8202,0.9101
i_ski_1_6,illumination,1353,1080,4.73,1.1973,0.7820,0.8914,0.9335,1,1,1,0.0000,0.6009,0.7605,0.8803
i_smurf_1_2,illumination,1177,1045,4.22,0.5926,0.8887,0.9312,0.9558,1,1,1,0.4074,0.8025,0.8815,0.9407
i_smurf_1_3,illumination,1151,1003,4.35,0.2582,0.8714,0.9088,0.9340,1,1,1,0.7418,0.9139,0.9484,0.9742
i_smurf_1_4,illumination,1152,982,4.27,0.2437,0.8524,0.8993,0.9323,1,1,1,0.7563,0.9188,0.9513,0.9756
i_smurf_1_5,illumination,1097,913,4.23,0.2598,0.8314,0.8879,0.9216,1,1,1,0.7402,0.9134,0.9480,0.9740
i_smurf_1_6,illumination,943,677,4.43,0.7101,0.7190,0.7943,0.8452,1,1,1,0.2899,0.7633,0.8580,0.9290
i_steps_1_2,illumination,887,839,3.55,0.6438,0.9402,0.9786,0.9899,1,1,1,0.3562,0.7854,0.8712,0.9356
i_steps_1_3,illumination,981,908,3.68,0.5272,0.9123,0.9551,0.9684,1,1,1,0.4728,0.8243,0.8946,0.9473
i_steps_1_4,illumination,1049,983,3.87,0.6737,0.9304,0.9724,0.9857,1,1,1,0.3263,0.7754,0.8653,0.9326
i_steps_1_5,illumination,895,773,3.82,1.0134,0.8525,0.9196,0.9397,1,1,1,0.0000,0.6622,0.7973,0.8987
i_steps_1_6,illumination,994,906,3.97,0.6781,0.8984,0.9477,0.9618,1,1,1,0.3219,0.7740,0.8644,0.9322
i_table_1_2,illumination,1469,1260,5.00,0.5889,0.8530,0.9367,0.9694,1,1,1,0.4111,0.8037,0.8822,0.9411
i_table_1_3,illumination,1409,1137,4.98,1.1057,0.7999,0.9035,0.9503,1,1,1,0.0000,0.6314,0.7789,0.8894
i_table_1_4,illumination,1268,912,5.04,0.6257,0.7137,0.8202,0.8927,1,1,1,0.3743,0.7914,0.8749,0.9374
i_table_1_5,illumination,1289,894,4.99,1.4156,0.6811,0.7998,0.8782,1,1,1,0.0000,0.5281,0.7169,0.8584
i_table_1_6,illumination,1549,1408,4.74,0.1305,0.9122,0.9587,0.9845,1,1,1,0.8695,0.9565,0.9739,0.9870
i_tools_1_2,illumination,637,306,4.03,4.6575,0.4490,0.5950,0.7159,0,1,1,0.0000,0.0000,0.0685,0.5343
i_tools_1_3,illumination,678,523,3.79,1.8989,0.7743,0.9027,0.9543,1,1,1,0.0000,0.3670,0.6202,0.8101
i_tools_1_4,illumination,660,342,4.24,3.2155,0.5091,0.6682,0.8061,0,1,1,0.0000,0.0000,0.3569,0.6784
i_tools_1_5,illumination,661,473,3.75,1.9595,0.7156,0.8290,0.8759,1,1,1,0.0000,0.3468,0.6081,0.8041
i_tools_1_6,illumination,626,290,4.03,5.3524,0.2859,0.4313,0.6182,0,0,1,0.0000,0.0000,0.0000,0.4648
i_toy_1_2,illumination,1666,1461,5.47,0.3066,0.8697,0.9280,0.9586,1,1,1,0.6934,0.8978,0.9387,0.9693
i_toy_1_3,illumination,1602,1318,5.31,0.3061,0.8190,0.8920,0.9326,1,1,1,0.6939,0.8980,0.9388,0.9694
i_toy_1_4,illumination,1533,1117,5.78,0.6426,0.7156,0.8095,0.8669,1,1,1,0.3574,0.7858,0.8715,0.9357
i_toy_1_5,illumination,1393,880,5.56,1.0637,0.6238,0.7294,0.8119,1,1,1,0.0000,0.6454,0.7873,0.8936
i_toy_1_6,illumination,1215,596,5.74,1.8043,0.4691,0.6049,0.6848,1,1,1,0.0000,0.3986,0.6391,0.8196
i_troulos_1_2,illumination,583,511,3.29,0.8404,0.8576,0.9365,0.9674,1,1,1,0.1596,0.7199,0.8319,0.9160
i_troulos_1_3,illumination,503,398,3.73,2.6020,0.4692,0.8628,0.9264,1,1,1,0.0000,0.1327,0.4796,0.7398
i_troulos_1_4,illumination,708,652,3.22,0.3152,0.9195,0.9619,0.9831,1,1,1,0.6848,0.8949,0.9370,0.9685
i_troulos_1_5,illumination,644,526,3.72,1.3251,0.7888,0.9037,0.9425,1,1,1,0.0000,0.5583,0.7350,0.8675
i_troulos_1_6,illumination,604,508,3.22,1.2808,0.8129,0.9123,0.9454,1,1,1,0.0000,0.5731,0.7438,0.8719
i_veggies_1_2,illumination,1169,1117,4.44,0.0000,0.9564,0.9778,0.9897,1,1,1,1.0000,1.0000,1.0000,1.0000
i_veggies_1_3,illumination,1019,853,4.52,0.0000,0.8381,0.9097,0.9333,1,1,1,1.0000,1.0000,1.0000,1.0000
i_veggies_1_4,illumination,1142,1014,4.39,0.2756,0.8853,0.9483,0.9737,1,1,1,0.7244,0.9081,0.9449,0.9724
i_veggies_1_5,illumination,919,623,5.18,0.7121,0.6616,0.7704,0.8400,1,1,1,0.2879,0.7626,0.8576,0.9288
i_veggies_1_6,illumination,857,558,4.21,0.9712,0.6476,0.7433,0.8028,1,1,1,0.0288,0.6763,0.8058,0.9029
i_village_1_2,illumination,1414,1098,11.22,0.3137,0.7737,0.8529,0.9052,1,1,1,0.6863,0.8954,0.9373,0.9686
i_village_1_3,illumination,1483,1150,5.11,0.4495,0.7687,0.8591,0.9110,1,1,1,0.5505,0.8502,0.9101,0.9550
i_village_1_4,illumination,1439,1138,5.04,0.8438,0.7874,0.8728,0.9062,1,1,1,0.1562,0.7187,0.8312,0.9156
i_village_1_5,illumination,1652,1504,5.18,0.3199,0.9104,0.9492,0.9631,1,1,1,0.6801,0.8934,0.9360,0.9680
i_village_1_6,illumination,1426,1082,5.18,0.6944,0.7433,0.8296,0.8752,1,1,1,0.3056,0.7685,0.8611,0.9306
i_yellowtent_1_2,illumination,1242,1193,4.15,0.2257,0.9573,0.9807,0.9847,1,1,1,0.7743,0.9248,0.9549,0.9774
i_yellowtent_1_3,illumination,1138,1023,4.06,0.4653,0.8840,0.9499,0.9701,1,1,1,0.5347,0.8449,0.9069,0.9535
i_yellowtent_1_4,illumination,1019,811,4.30,0.8142,0.7851,0.8763,0.9117,1,1,1,0.1858,0.7286,0.8372,0.9186
i_yellowtent_1_5,illumination,1053,885,4.11,0.4233,0.8395,0.8965,0.9278,1,1,1,0.5767,0.8589,0.9153,0.9577
i_yellowtent_1_6,illumination,983,786,4.06,0.5083,0.7915,0.8545,0.8932,1,1,1,0.4917,0.8306,0.8983,0.9492
i_zion_1_2,illumination,1704,1572,4.95,0.2072,0.9266,0.9642,0.9800,1,1,1,0.7928,0.9309,0.9586,0.9793
i_zion_1_3,illumination,1503,1241,5.22,0.5857,0.8157,0.8842,0.9195,1,1,1,0.4143,0.8048,0.8829,0.9414
i_zion_1_4,illumination,1245,884,5.14,0.8483,0.7004,0.7719,0.8000,1,1,1,0.1517,0.7172,0.8303,0.9152
i_zion_1_5,illumination,930,479,4.88,1.2045,0.4935,0.5849,0.6226,1,1,1,0.0000,0.5985,0.7591,0.8795
i_zion_1_6,illumination,694,367,5.17,0.8640,0.5173,0.5922,0.6297,1,1,1,0.1360,0.7120,0.8272,0.9136
v_abstract_1_2,viewpoint,1539,1455,4.95,0.4095,0.9435,0.9740,0.9844,1,1,1,0.5905,0.8635,0.9181,0.9590
v_abstract_1_3,viewpoint,1469,1361,4.85,0.5086,0.9231,0.9632,0.9755,1,1,1,0.4914,0.8305,0.8983,0.9491
v_abstract_1_4,viewpoint,1150,978,4.62,1.0022,0.8470,0.9113,0.9287,1,1,1,0.0000,0.6659,0.7996,0.8998
v_abstract_1_5,viewpoint,1258,1116,5.61,0.6938,0.8839,0.9293,0.9428,1,1,1,0.3062,0.7687,0.8612,0.9306
v_abstract_1_6,viewpoint,1051,838,4.93,0.9840,0.7926,0.8487,0.8668,1,1,1,0.0160,0.6720,0.8032,0.9016
v_adam_1_2,viewpoint,933,865,4.41,0.4844,0.9228,0.9646,0.9775,1,1,1,0.5156,0.8385,0.9031,0.9516
v_adam_1_3,viewpoint,861,800,3.82,0.6926,0.9257,0.9570,0.9768,1,1,1,0.3074,0.7691,0.8615,0.9307
v_adam_1_4,viewpoint,602,492,3.96,0.8001,0.8123,0.8837,0.9153,1,1,1,0.1999,0.7333,0.8400,0.9200
v_adam_1_5,viewpoint,769,661,3.67,0.5574,0.8661,0.9402,0.9623,1,1,1,0.4426,0.8142,0.8885,0.9443
v_adam_1_6,viewpoint,748,662,3.61,0.7720,0.8837,0.9439,0.9599,1,1,1,0.2280,0.7427,0.8456,0.9228
v_apprentices_1_2,viewpoint,1719,1660,11.57,0.1858,0.9657,0.9849,0.9907,1,1,1,0.8142,0.9381,0.9628,0.9814
v_apprentices_1_3,viewpoint,1531,1458,4.88,0.5108,0.9504,0.9791,0.9850,1,1,1,0.4892,0.8297,0.8978,0.9489
v_apprentices_1_4,viewpoint,1398,1274,5.44,0.8097,0.9099,0.9542,0.9628,1,1,1,0.1903,0.7301,0.8381,0.9190
v_apprentices_1_5,viewpoint,1219,1091,5.03,1.0646,0.8942,0.9352,0.9467,1,1,1,0.0000,0.6451,0.7871,0.8935
v_apprentices_1_6,viewpoint,1036,926,4.28,0.6615,0.8822,0.9305,0.9450,1,1,1,0.3385,0.7795,0.8677,0.9339
v_azzola_1_2,viewpoint,1500,1371,11.37,0.6674,0.9047,0.9567,0.9680,1,1,1,0.3326,0.7775,0.8665,0.9333
v_azzola_1_3,viewpoint,1334,1085,4.72,0.8788,0.8028,0.9265,0.9475,1,1,1,0.1212,0.7071,0.8242,0.9121
v_azzola_1_4,viewpoint,1475,1407,4.78,0.6082,0.9505,0.9722,0.9803,1,1,1,0.3918,0.7973,0.8784,0.9392
v_azzola_1_5,viewpoint,1165,924,4.72,1.0840,0.7691,0.8833,0.9124,1,1,1,0.0000,0.6387,0.7832,0.8916
v_azzola_1_6,viewpoint,835,483,4.24,1.5481,0.5617,0.6635,0.6970,1,1,1,0.0000,0.4840,0.6904,0.8452
v_bark_1_2,viewpoint,950,469,4.71,0.7254,0.4979,0.6011,0.6737,1,1,1,0.2746,0.7582,0.8549,0.9275
v_bark_1_3,viewpoint,650,11,5.07,408.6430,0.0000,0.0000,0.0000,0,0,0,0.0000,0.0000,0.0000,0.0000
v_bark_1_4,viewpoint,584,7,4.90,461.8013,0.0000,0.0000,0.0000,0,0,0,0.0000,0.0000,0.0000,0.0000
v_bark_1_5,viewpoint,692,13,5.13,714.3327,0.0434,0.0549,0.0723,0,0,0,0.0000,0.0000,0.0000,0.0000
v_bark_1_6,viewpoint,660,8,5.06,767.0181,0.0000,0.0000,0.0015,0,0,0,0.0000,0.0000,0.0000,0.0000
v_bees_1_2,viewpoint,1674,1622,5.37,0.2929,0.9683,0.9797,0.9863,1,1,1,0.7071,0.9024,0.9414,0.9707
v_bees_1_3,viewpoint,1688,1614,5.20,0.2624,0.9573,0.9781,0.9846,1,1,1,0.7376,0.9125,0.9475,0.9738
v_bees_1_4,viewpoint,1601,1534,5.16,0.5336,0.9582,0.9738,0.9831,1,1,1,0.4664,0.8221,0.8933,0.9466
v_bees_1_5,viewpoint,1253,1144,4.73,0.7576,0.9114,0.9513,0.9633,1,1,1,0.2424,0.7475,0.8485,0.9242
v_bees_1_6,viewpoint,1404,1272,5.02,0.4939,0.9010,0.9516,0.9644,1,1,1,0.5061,0.8354,0.9012,0.9506
v_beyus_1_2,viewpoint,523,419,9.81,1.5189,0.7916,0.8738,0.9082,1,1,1,0.0000,0.4937,0.6962,0.8481
v_beyus_1_3,viewpoint,535,352,3.63,3.5943,0.6430,0.7607,0.8093,0,1,1,0.0000,0.0000,0.2811,0.6406
v_beyus_1_4,viewpoint,643,555,3.52,0.4713,0.8631,0.9176,0.9502,1,1,1,0.5287,0.8429,0.9057,0.9529
v_beyus_1_5,viewpoint,414,282,7.99,1.8223,0.6836,0.7802,0.8213,1,1,1,0.0000,0.3926,0.6355,0.8178
v_beyus_1_6,viewpoint,568,442,3.68,1.7005,0.7658,0.8662,0.9067,1,1,1,0.0000,0.4332,0.6599,0.8299
v_bip_1_2,viewpoint,1229,1133,4.55,0.1697,0.9211,0.9414,0.9487,1,1,1,0.8303,0.9434,0.9661,0.9830
v_bip_1_3,viewpoint,1162,1044,5.83,0.1995,0.8967,0.9303,0.9380,1,1,1,0.8005,0.9335,0.9601,0.9800
v_bip_1_4,viewpoint,1158,1064,4.49,0.3212,0.9188,0.9447,0.9560,1,1,1,0.6788,0.8929,0.9358,0.9679
v_bip_1_5,viewpoint,716,355,4.15,1.3298,0.4930,0.5489,0.5838,1,1,1,0.0000,0.5567,0.7340,0.8670
v_bip_1_6,viewpoint,598,114,4.38,0.8599,0.1990,0.2425,0.2625,1,1,1,0.1401,0.7134,0.8280,0.9140
v_bird_1_2,viewpoint,1066,987,5.23,76.6666,0.0000,0.0000,0.0000,0,0,0,0.0000,0.0000,0.0000,0.0000
v_bird_1_3,viewpoint,1014,876,6.20,84.2442,0.0010,0.0020,0.0020,0,0,0,0.0000,0.0000,0.0000,0.0000
v_bird_1_4,viewpoint,1055,875,5.17,99.3887,0.0000,0.0000,0.0000,0,0,0,0.0000,0.0000,0.0000,0.0000
v_bird_1_5,viewpoint,1017,742,5.03,85.5491,0.0000,0.0000,0.0010,0,0,0,0.0000,0.0000,0.0000,0.0000
v_bird_1_6,viewpoint,717,342,5.77,185.0814,0.0000,0.0000,0.0000,0,0,0,0.0000,0.0000,0.0000,0.0000
v_birdwoman_1_2,viewpoint,678,319,4.60,43.9748,0.0015,0.0015,0.0044,0,0,0,0.0000,0.0000,0.0000,0.0000
v_birdwoman_1_3,viewpoint,918,645,4.61,54.7440,0.0000,0.0000,0.0000,0,0,0,0.0000,0.0000,0.0000,0.0000
v_birdwoman_1_4,viewpoint,1065,877,4.43,50.4195,0.0000,0.0000,0.0000,0,0,0,0.0000,0.0000,0.0000,0.0000
v_birdwoman_1_5,viewpoint,1413,1289,4.70,52.6779,0.0000,0.0000,0.0021,0,0,0,0.0000,0.0000,0.0000,0.0000
v_birdwoman_1_6,viewpoint,1026,846,4.73,51.3511,0.0000,0.0000,0.0000,0,0,0,0.0000,0.0000,0.0000,0.0000
v_blueprint_1_2,viewpoint,1521,1413,4.92,0.4237,0.9277,0.9573,0.9776,1,1,1,0.5763,0.8588,0.9153,0.9576
v_blueprint_1_3,viewpoint,1356,1187,4.78,0.6254,0.8754,0.9329,0.9513,1,1,1,0.3746,0.7915,0.8749,0.9375
v_blueprint_1_4,viewpoint,1420,1303,4.81,0.4486,0.9183,0.9577,0.9725,1,1,1,0.5514,0.8505,0.9103,0.9551
v_blueprint_1_5,viewpoint,1152,965,4.75,0.4475,0.8351,0.8880,0.9141,1,1,1,0.5525,0.8508,0.9105,0.9552
v_blueprint_1_6,viewpoint,924,627,4.31,0.9441,0.6764,0.7446,0.7846,1,1,1,0.0559,0.6853,0.8112,0.9056
v_boat_1_2,viewpoint,1515,1352,12.52,0.2786,0.8924,0.9347,0.9584,1,1,1,0.7214,0.9071,0.9443,0.9721
v_boat_1_3,viewpoint,847,275,6.09,2.3188,0.3223,0.4179,0.5041,1,1,1,0.0000,0.2271,0.5362,0.7681
v_boat_1_4,viewpoint,569,8,6.43,744.0326,0.0176,0.0281,0.0387,0,0,0,0.0000,0.0000,0.0000,0.0000
v_boat_1_5,viewpoint,547,10,6.40,265.7198,0.0000,0.0018,0.0018,0,0,0,0.0000,0.0000,0.0000,0.0000
v_boat_1_6,viewpoint,800,321,5.01,0.9932,0.4037,0.4625,0.5025,1,1,1,0.0068,0.6689,0.8014,0.9007
v_bricks_1_2,viewpoint,1635,1562,4.85,33.4315,0.0049,0.0190,0.0502,0,0,0,0.0000,0.0000,0.0000,0.0000
v_bricks_1_3,viewpoint,1602,1470,4.85,32.1897,0.0012,0.0131,0.0362,0,0,0,0.0000,0.0000,0.0000,0.0000
v_bricks_1_4,viewpoint,1425,1277,4.68,31.1193,0.0000,0.0014,0.0204,0,0,0,0.0000,0.0000,0.0000,0.0000
v_bricks_1_5,viewpoint,1284,1077,4.67,28.0144,0.0000,0.0039,0.0249,0,0,0,0.0000,0.0000,0.0000,0.0000
v_bricks_1_6,viewpoint,1025,689,4.40,27.7110,0.0000,0.0020,0.0049,0,0,0,0.0000,0.0000,0.0000,0.0000
v_busstop_1_2,viewpoint,1439,1330,4.89,0.4106,0.9249,0.9465,0.9576,1,1,1,0.5894,0.8631,0.9179,0.9589
v_busstop_1_3,viewpoint,1249,1112,4.92,0.5625,0.8871,0.9223,0.9303,1,1,1,0.4375,0.8125,0.8875,0.9438
v_busstop_1_4,viewpoint,1296,1198,4.90,0.6764,0.9244,0.9545,0.9576,1,1,1,0.3236,0.7745,0.8647,0.9324
v_busstop_1_5,viewpoint,1325,1219,4.78,0.6111,0.9200,0.9426,0.9494,1,1,1,0.3889,0.7963,0.8778,0.9389
v_busstop_1_6,viewpoint,1496,1371,4.85,0.6065,0.9171,0.9532,0.9626,1,1,1,0.3935,0.7978,0.8787,0.9394
v_calder_1_2,viewpoint,1100,1000,4.42,0.2806,0.9055,0.9391,0.9527,1,1,1,0.7194,0.9065,0.9439,0.9719
v_calder_1_3,viewpoint,1284,1202,4.77,0.3060,0.9338,0.9657,0.9743,1,1,1,0.6940,0.8980,0.9388,0.9694
v_calder_1_4,viewpoint,841,659,4.22,1.0433,0.7812,0.8288,0.8490,1,1,1,0.0000,0.6522,0.7913,0.8957
v_calder_1_5,viewpoint,805,575,4.59,0.4224,0.7155,0.7615,0.7839,1,1,1,0.5776,0.8592,0.9155,0.9578
v_calder_1_6,viewpoint,680,307,4.17,0.7734,0.4529,0.5118,0.5368,1,1,1,0.2266,0.7422,0.8453,0.9227
v_cartooncity_1_2,viewpoint,1647,1546,4.85,62.0934,0.0000,0.0000,0.0006,0,0,0,0.0000,0.0000,0.0000,0.0000
v_cartooncity_1_3,viewpoint,1141,900,4.69,66.0567,0.0000,0.0000,0.0009,0,0,0,0.0000,0.0000,0.0000,0.0000
v_cartooncity_1_4,viewpoint,1487,1352,4.82,74.3745,0.0000,0.0007,0.0027,0,0,0,0.0000,0.0000,0.0000,0.0000
v_cartooncity_1_5,viewpoint,1172,959,4.50,75.8659,0.0000,0.0000,0.0000,0,0,0,0.0000,0.0000,0.0000,0.0000
v_cartooncity_1_6,viewpoint,1116,836,4.87,70.5484,0.0000,0.0000,0.0027,0,0,0,0.0000,0.0000,0.0000,0.0000
v_charing_1_2,viewpoint,738,456,4.18,4.0977,0.6057,0.7100,0.7520,0,1,1,0.0000,0.0000,0.1805,0.5902
v_charing_1_3,viewpoint,600,298,4.36,38.0890,0.4800,0.6217,0.6750,0,0,0,0.0000,0.0000,0.0000,0.0000
v_charing_1_4,viewpoint,647,416,3.97,2.3386,0.6368,0.7079,0.7543,1,1,1,0.0000,0.2205,0.5323,0.7661
v_charing_1_5,viewpoint,551,407,3.69,42.6638,0.7278,0.8258,0.8621,0,0,0,0.0000,0.0000,0.0000,0.0000
v_charing_1_6,viewpoint,558,392,3.62,141.1123,0.6864,0.8118,0.8513,0,0,0,0.0000,0.0000,0.0000,0.0000
v_churchill_1_2,viewpoint,1080,982,4.33,0.5047,0.9074,0.9472,0.9657,1,1,1,0.4953,0.8318,0.8991,0.9495
v_churchill_1_3,viewpoint,1025,855,5.06,2.7457,0.8332,0.9171,0.9415,1,1,1,0.0000,0.0848,0.4509,0.7254
v_churchill_1_4,viewpoint,1012,890,4.37,0.6153,0.8765,0.9318,0.9526,1,1,1,0.3847,0.7949,0.8769,0.9385
v_churchill_1_5,viewpoint,1212,1179,4.36,0.1036,0.9736,0.9860,0.9926,1,1,1,0.8964,0.9655,0.9793,0.9896
v_churchill_1_6,viewpoint,814,649,4.12,1.3651,0.7961,0.8759,0.9066,1,1,1,0.0000,0.5450,0.7270,0.8635
v_circus_1_2,viewpoint,1265,1111,4.70,0.4035,0.8814,0.9336,0.9549,1,1,1,0.5965,0.8655,0.9193,0.9596
v_circus_1_3,viewpoint,1209,948,4.81,0.9838,0.7816,0.8792,0.9181,1,1,1,0.0162,0.6721,0.8032,0.9016
v_circus_1_4,viewpoint,960,667,4.53,1.1144,0.7010,0.8333,0.8740,1,1,1,0.0000,0.6285,0.7771,0.8886
v_circus_1_5,viewpoint,1237,1058,4.89,0.3802,0.8545,0.9232,0.9410,1,1,1,0.6198,0.8733,0.9240,0.9620
v_circus_1_6,viewpoint,1078,846,4.65,0.9427,0.7727,0.8859,0.9184,1,1,1,0.0573,0.6858,0.8115,0.9057
v_coffeehouse_1_2,viewpoint,983,893,4.13,0.5917,0.9084,0.9369,0.9440,1,1,1,0.4083,0.8028,0.8817,0.9408
v_coffeehouse_1_3,viewpoint,1006,924,4.06,0.4324,0.9195,0.9493,0.9573,1,1,1,0.5676,0.8559,0.9135,0.9568
v_coffeehouse_1_4,viewpoint,950,854,4.00,1.1752,0.8937,0.9432,0.9505,1,1,1,0.0000,0.6083,0.7650,0.8825
v_coffeehouse_1_5,viewpoint,906,817,4.11,0.5320,0.8996,0.9272,0.9349,1,1,1,0.4680,0.8227,0.8936,0.9468
v_coffeehouse_1_6,viewpoint,821,676,3.88,0.8377,0.8283,0.8697,0.8879,1,1,1,0.1623,0.7208,0.8325,0.9162
v_colors_1_2,viewpoint,404,270,4.02,0.6478,0.6683,0.7921,0.8317,1,1,1,0.3522,0.7841,0.8704,0.9352
v_colors_1_3,viewpoint,352,167,3.51,0.8286,0.4659,0.6051,0.6449,1,1,1,0.1714,0.7238,0.8343,0.9171
v_colors_1_4,viewpoint,263,65,3.56,3.1114,0.2471,0.3232,0.3536,0,1,1,0.0000,0.0000,0.3777,0.6889
v_colors_1_5,viewpoint,212,41,3.71,15.7733,0.1981,0.2453,0.2736,0,0,0,0.0000,0.0000,0.0000,0.0000
v_colors_1_6,viewpoint,188,33,4.33,13.6990,0.1755,0.2128,0.2500,0,0,0,0.0000,0.0000,0.0000,0.0000
v_courses_1_2,viewpoint,1222,1161,4.38,0.6933,0.9493,0.9705,0.9763,1,1,1,0.3067,0.7689,0.8613,0.9307
v_courses_1_3,viewpoint,1080,971,4.36,1.0296,0.9028,0.9630,0.9759,1,1,1,0.0000,0.6568,0.7941,0.8970
v_courses_1_4,viewpoint,1032,957,4.12,0.6497,0.9225,0.9700,0.9816,1,1,1,0.3503,0.7834,0.8701,0.9350
v_courses_1_5,viewpoint,932,794,4.40,1.5812,0.8294,0.9292,0.9539,1,1,1,0.0000,0.4729,0.6838,0.8419
v_courses_1_6,viewpoint,832,660,4.03,2.8712,0.7728,0.8714,0.9050,1,1,1,0.0000,0.0429,0.4258,0.7129
v_dirtywall_1_2,viewpoint,1466,1362,10.99,0.4104,0.9297,0.9598,0.9666,1,1,1,0.5896,0.8632,0.9179,0.9590
v_dirtywall_1_3,viewpoint,1382,1228,4.94,0.4300,0.8893,0.9262,0.9392,1,1,1,0.5700,0.8567,0.9140,0.9570
v_dirtywall_1_4,viewpoint,1215,957,4.47,0.6894,0.7835,0.8494,0.8733,1,1,1,0.3106,0.7702,0.8621,0.9311
v_dirtywall_1_5,viewpoint,1276,1102,4.68,0.7929,0.8597,0.8958,0.9130,1,1,1,0.2071,0.7357,0.8414,0.9207
v_dirtywall_1_6,viewpoint,962,689,4.61,0.6234,0.7131,0.7620,0.7838,1,1,1,0.3766,0.7922,0.8753,0.9377
v_dogman_1_2,viewpoint,711,623,3.67,1.1478,0.8762,0.9156,0.9325,1,1,1,0.0000,0.6174,0.7704,0.8852
v_dogman_1_3,viewpoint,745,683,4.48,0.2975,0.9154,0.9396,0.9517,1,1,1,0.7025,0.9008,0.9405,0.9703
v_dogman_1_4,viewpoint,549,388,3.65,5.4784,0.7049,0.7905,0.8324,0,0,1,0.0000,0.0000,0.0000,0.4522
v_dogman_1_5,viewpoint,614,507,4.04,1.1485,0.8176,0.9007,0.9267,1,1,1,0.0000,0.6172,0.7703,0.8851
v_dogman_1_6,viewpoint,438,223,3.30,5.0280,0.5046,0.5890,0.6370,0,0,1,0.0000,0.0000,0.0000,0.4972
v_eastsouth_1_2,viewpoint,1551,1460,4.85,0.2706,0.9426,0.9639,0.9749,1,1,1,0.7294,0.9098,0.9459,0.9729
v_eastsouth_1_3,viewpoint,845,199,5.17,0.5396,0.2379,0.3172,0.3633,1,1,1,0.4604,0.8201,0.8921,0.9460
v_eastsouth_1_4,viewpoint,684,10,4.92,345.3676,0.0029,0.0044,0.0117,0,0,0,0.0000,0.0000,0.0000,0.0000
v_eastsouth_1_5,viewpoint,758,26,4.63,23.2459,0.0607,0.0989,0.1253,0,0,0,0.0000,0.0000,0.0000,0.0000
v_eastsouth_1_6,viewpoint,796,145,4.62,1.1501,0.1834,0.2211,0.2538,1,1,1,0.0000,0.6166,0.7700,0.8850
v_feast_1_2,viewpoint,1325,1209,4.81,0.2729,0.9125,0.9449,0.9555,1,1,1,0.7271,0.9090,0.9454,0.9727
v_feast_1_3,viewpoint,1401,1296,4.78,0.6032,0.9208,0.9579,0.9722,1,1,1,0.3968,0.7989,0.8794,0.9397
v_feast_1_4,viewpoint,1095,884,4.58,0.3890,0.8073,0.8639,0.8868,1,1,1,0.6110,0.8703,0.9222,0.9611
v_feast_1_5,viewpoint,1289,1165,4.73,0.5111,0.9022,0.9364,0.9519,1,1,1,0.4889,0.8296,0.8978,0.9489
v_feast_1_6,viewpoint,1148,958,4.84,0.7981,0.8267,0.8780,0.8955,1,1,1,0.2019,0.7340,0.8404,0.9202
v_fest_1_2,viewpoint,1462,1347,4.75,0.5232,0.9172,0.9494,0.9596,1,1,1,0.4768,0.8256,0.8954,0.9477
v_fest_1_3,viewpoint,1174,999,4.93,1.3632,0.8501,0.9003,0.9131,1,1,1,0.0000,0.5456,0.7274,0.8637
v_fest_1_4,viewpoint,1168,1065,4.71,0.4487,0.9101,0.9272,0.9375,1,1,1,0.5513,0.8504,0.9103,0.9551
v_fest_1_5,viewpoint,1181,1039,4.74,1.2333,0.8747,0.9213,0.9340,1,1,1,0.0000,0.5889,0.7533,0.8767
v_fest_1_6,viewpoint,1070,800,4.90,2.6604,0.7430,0.8168,0.8458,1,1,1,0.0000,0.1132,0.4679,0.7340
v_gardens_1_2,viewpoint,1397,1269,4.84,0.9864,0.9005,0.9341,0.9492,1,1,1,0.0136,0.6712,0.8027,0.9014
v_gardens_1_3,viewpoint,935,598,4.83,3.0938,0.6278,0.7005,0.7380,0,1,1,0.0000,0.0000,0.3812,0.6906
v_gardens_1_4,viewpoint,1557,1442,4.77,0.5544,0.9268,0.9583,0.9724,1,1,1,0.4456,0.8152,0.8891,0.9446
v_gardens_1_5,viewpoint,1092,844,4.65,1.4538,0.7601,0.8324,0.8636,1,1,1,0.0000,0.5154,0.7092,0.8546
v_gardens_1_6,viewpoint,1287,1000,4.65,0.8501,0.7723,0.8920,0.9293,1,1,1,0.1499,0.7166,0.8300,0.9150
v_grace_1_2,viewpoint,904,815,3.86,0.2518,0.9027,0.9436,0.9558,1,1,1,0.7482,0.9161,0.9496,0.9748
v_grace_1_3,viewpoint,808,705,3.91,0.3876,0.8725,0.9146,0.9381,1,1,1,0.6124,0.8708,0.9225,0.9612
v_grace_1_4,viewpoint,747,609,4.09,1.2093,0.8139,0.8688,0.8849,1,1,1,0.0000,0.5969,0.7581,0.8791
v_grace_1_5,viewpoint,603,388,4.05,1.4070,0.6352,0.6998,0.7297,1,1,1,0.0000,0.5310,0.7186,0.8593
v_grace_1_6,viewpoint,516,205,3.94,3.0101,0.3895,0.4438,0.4767,0,1,1,0.0000,0.0000,0.3980,0.6990
v_graffiti_1_2,viewpoint,1082,862,4.80,0.6311,0.7967,0.8706,0.9104,1,1,1,0.3689,0.7896,0.8738,0.9369
v_graffiti_1_3,viewpoint,1051,820,4.67,1.4319,0.7669,0.8459,0.8773,1,1,1,0.0000,0.5227,0.7136,0.8568
v_graffiti_1_4,viewpoint,776,211,5.64,2.2741,0.2655,0.3634,0.4111,1,1,1,0.0000,0.2420,0.5452,0.7726
v_graffiti_1_5,viewpoint,785,458,6.49,0.9163,0.5745,0.6573,0.6968,1,1,1,0.0837,0.6946,0.8167,0.9084
v_graffiti_1_6,viewpoint,618,44,5.31,3.9440,0.0890,0.1246,0.1521,0,1,1,0.0000,0.0000,0.2112,0.6056
v_home_1_2,viewpoint,882,739,4.25,0.6118,0.8424,0.8730,0.8878,1,1,1,0.3882,0.7961,0.8776,0.9388
v_home_1_3,viewpoint,836,642,4.14,1.5305,0.7644,0.8158,0.8337,1,1,1,0.0000,0.4898,0.6939,0.8470
v_home_1_4,viewpoint,895,763,4.13,1.7035,0.8570,0.8950,0.9128,1,1,1,0.0000,0.4322,0.6593,0.8296
v_home_1_5,viewpoint,829,638,4.10,4.0753,0.7467,0.8263,0.8420,0,1,1,0.0000,0.0000,0.1849,0.5925
v_home_1_6,viewpoint,647,129,4.38,2.9698,0.1978,0.3045,0.3740,1,1,1,0.0000,0.0101,0.4060,0.7030
v_laptop_1_2,viewpoint,1107,1064,4.09,0.2691,0.9612,0.9874,0.9928,1,1,1,0.7309,0.9103,0.9462,0.9731
v_laptop_1_3,viewpoint,697,443,4.21,1.2394,0.6284,0.7518,0.8164,1,1,1,0.0000,0.5869,0.7521,0.8761
v_laptop_1_4,viewpoint,429,10,4.36,293.1247,0.0396,0.0769,0.1142,0,0,0,0.0000,0.0000,0.0000,0.0000
v_laptop_1_5,viewpoint,389,10,4.09,282.6127,0.0026,0.0103,0.0129,0,0,0,0.0000,0.0000,0.0000,0.0000
v_laptop_1_6,viewpoint,435,7,4.20,406.6965,0.0000,0.0046,0.0046,0,0,0,0.0000,0.0000,0.0000,0.0000
v_london_1_2,viewpoint,1555,1438,5.04,0.1550,0.9254,0.9588,0.9678,1,1,1,0.8450,0.9483,0.9690,0.9845
v_london_1_3,viewpoint,1370,1284,5.64,0.3617,0.9358,0.9613,0.9672,1,1,1,0.6383,0.8794,0.9277,0.9638
v_london_1_4,viewpoint,1385,1244,5.49,0.8707,0.8960,0.9329,0.9480,1,1,1,0.1293,0.7098,0.8259,0.9129
v_london_1_5,viewpoint,1514,1436,5.42,0.3117,0.9472,0.9709,0.9795,1,1,1,0.6883,0.8961,0.9377,0.9688
v_london_1_6,viewpoint,1658,1581,4.74,0.2515,0.9530,0.9723,0.9795,1,1,1,0.7485,0.9162,0.9497,0.9749
v_machines_1_2,viewpoint,1315,1207,4.72,0.5080,0.9156,0.9605,0.9726,1,1,1,0.4920,0.8307,0.8984,0.9492
v_machines_1_3,viewpoint,948,753,4.16,2.2039,0.7658,0.8871,0.9167,1,1,1,0.0000,0.2654,0.5592,0.7796
v_machines_1_4,viewpoint,1090,1043,4.49,0.8889,0.9532,0.9780,0.9853,1,1,1,0.1111,0.7037,0.8222,0.9111
v_machines_1_5,viewpoint,861,743,4.07,1.8347,0.8432,0.9210,0.9408,1,1,1,0.0000,0.3884,0.6331,0.8165
v_machines_1_6,viewpoint,1081,1032,4.17,0.2701,0.9547,0.9787,0.9843,1,1,1,0.7299,0.9100,0.9460,0.9730
v_man_1_2,viewpoint,1093,1011,4.39,2.5486,0.9158,0.9515,0.9607,1,1,1,0.0000,0.1505,0.4903,0.7451
v_man_1_3,viewpoint,908,745,4.11,3.4607,0.7985,0.8789,0.8976,0,1,1,0.0000,0.0000,0.3079,0.6539
v_man_1_4,viewpoint,844,695,4.12,2.0789,0.7927,0.8934,0.9218,1,1,1,0.0000,0.3070,0.5842,0.7921
v_man_1_5,viewpoint,1020,922,4.38,1.7097,0.9069,0.9510,0.9598,1,1,1,0.0000,0.4301,0.6581,0.8290
v_man_1_6,viewpoint,1051,934,4.29,2.1383,0.8820,0.9296,0.9334,1,1,1,0.0000,0.2872,0.5723,0.7862
v_maskedman_1_2,viewpoint,740,581,3.76,0.6448,0.7851,0.8554,0.8811,1,1,1,0.3552,0.7851,0.8710,0.9355
v_maskedman_1_3,viewpoint,651,498,4.41,1.5328,0.7604,0.8218,0.8449,1,1,1,0.0000,0.4891,0.6934,0.8467
v_maskedman_1_4,viewpoint,732,638,3.92,3.1726,0.8702,0.9071,0.9235,0,1,1,0.0000,0.0000,0.3655,0.6827
v_maskedman_1_5,viewpoint,744,665,3.60,1.2484,0.8911,0.9167,0.9315,1,1,1,0.0000,0.5839,0.7503,0.8752
v_maskedman_1_6,viewpoint,497,189,4.11,3.7825,0.3682,0.4306,0.4447,0,1,1,0.0000,0.0000,0.2435,0.6218
v_pomegranate_1_2,viewpoint,1547,1395,5.62,0.3477,0.9024,0.9560,0.9709,1,1,1,0.6523,0.8841,0.9305,0.9652
v_pomegranate_1_3,viewpoint,1452,1246,5.31,0.7961,0.8499,0.9242,0.9483,1,1,1,0.2039,0.7346,0.8408,0.9204
v_pomegranate_1_4,viewpoint,1349,1181,5.09,0.2960,0.8755,0.9207,0.9451,1,1,1,0.7040,0.9013,0.9408,0.9704
v_pomegranate_1_5,viewpoint,1421,1292,5.14,0.9390,0.9064,0.9564,0.9726,1,1,1,0.0610,0.6870,0.8122,0.9061
v_pomegranate_1_6,viewpoint,1385,1280,4.74,0.3493,0.9242,0.9625,0.9776,1,1,1,0.6507,0.8836,0.9301,0.9651
v_posters_1_2,viewpoint,1040,849,11.44,115.1666,0.0000,0.0000,0.0000,0,0,0,0.0000,0.0000,0.0000,0.0000
v_posters_1_3,viewpoint,1230,1103,5.13,120.8989,0.0000,0.0000,0.0000,0,0,0,0.0000,0.0000,0.0000,0.0000
v_posters_1_4,viewpoint,1156,1036,4.95,112.3374,0.0000,0.0000,0.0000,0,0,0,0.0000,0.0000,0.0000,0.0000
v_posters_1_5,viewpoint,1053,768,5.14,124.8536,0.0000,0.0000,0.0000,0,0,0,0.0000,0.0000,0.0000,0.0000
v_posters_1_6,viewpoint,1050,731,5.24,147.5522,0.0000,0.0000,0.0000,0,0,0,0.0000,0.0000,0.0000,0.0000
v_samples_1_2,viewpoint,1453,1349,5.77,67.8872,0.0000,0.0000,0.0007,0,0,0,0.0000,0.0000,0.0000,0.0000
v_samples_1_3,viewpoint,1548,1438,5.37,72.5923,0.0000,0.0006,0.0006,0,0,0,0.0000,0.0000,0.0000,0.0000
v_samples_1_4,viewpoint,1269,1127,5.77,71.6643,0.0000,0.0000,0.0039,0,0,0,0.0000,0.0000,0.0000,0.0000
v_samples_1_5,viewpoint,1421,1324,5.37,80.6954,0.0000,0.0000,0.0007,0,0,0,0.0000,0.0000,0.0000,0.0000
v_samples_1_6,viewpoint,1226,1060,5.16,66.9565,0.0000,0.0000,0.0082,0,0,0,0.0000,0.0000,0.0000,0.0000
v_soldiers_1_2,viewpoint,1118,1022,4.47,0.2992,0.9150,0.9571,0.9705,1,1,1,0.7008,0.9003,0.9402,0.9701
v_soldiers_1_3,viewpoint,851,728,3.98,1.3547,0.8590,0.9213,0.9459,1,1,1,0.0000,0.5484,0.7291,0.8645
v_soldiers_1_4,viewpoint,728,542,3.99,1.3361,0.7376,0.7857,0.7995,1,1,1,0.0000,0.5546,0.7328,0.8664
v_soldiers_1_5,viewpoint,689,379,4.31,1.8162,0.5443,0.5951,0.6125,1,1,1,0.0000,0.3946,0.6368,0.8184
v_soldiers_1_6,viewpoint,1015,929,4.34,97.0613,0.0000,0.0000,0.0000,0,0,0,0.0000,0.0000,0.0000,0.0000
v_strand_1_2,viewpoint,1411,1345,4.81,0.1207,0.9525,0.9787,0.9894,1,1,1,0.8793,0.9598,0.9759,0.9879
v_strand_1_3,viewpoint,1055,974,4.41,0.6428,0.9090,0.9716,0.9820,1,1,1,0.3572,0.7857,0.8714,0.9357
v_strand_1_4,viewpoint,985,911,4.56,2.6815,0.8954,0.9635,0.9736,1,1,1,0.0000,0.1062,0.4637,0.7319
v_strand_1_5,viewpoint,1126,1012,4.38,2.1680,0.8597,0.9520,0.9787,1,1,1,0.0000,0.2773,0.5664,0.7832
v_strand_1_6,viewpoint,880,763,4.13,4.1463,0.7920,0.9227,0.9625,0,1,1,0.0000,0.0000,0.1707,0.5854
v_sunseason_1_2,viewpoint,1715,1623,5.50,0.1327,0.9475,0.9714,0.9767,1,1,1,0.8673,0.9558,0.9735,0.9867
v_sunseason_1_3,viewpoint,1522,1410,5.88,0.2599,0.9277,0.9442,0.9501,1,1,1,0.7401,0.9134,0.9480,0.9740
v_sunseason_1_4,viewpoint,1093,837,5.49,0.7071,0.7630,0.7969,0.8060,1,1,1,0.2929,0.7643,0.8586,0.9293
v_sunseason_1_5,viewpoint,1018,733,5.24,0.9374,0.7161,0.7574,0.7692,1,1,1,0.0626,0.6875,0.8125,0.9063
v_sunseason_1_6,viewpoint,882,548,4.72,1.1874,0.6213,0.6610,0.6814,1,1,1,0.0000,0.6042,0.7625,0.8813
v_tabletop_1_2,viewpoint,1283,1135,4.81,0.3814,0.8846,0.9267,0.9345,1,1,1,0.6186,0.8729,0.9237,0.9619
v_tabletop_1_3,viewpoint,1036,571,4.97,1.2026,0.5512,0.6322,0.6651,1,1,1,0.0000,0.5991,0.7595,0.8797
v_tabletop_1_4,viewpoint,1036,738,4.58,1.4379,0.7124,0.7790,0.7973,1,1,1,0.0000,0.5207,0.7124,0.8562
v_tabletop_1_5,viewpoint,1044,784,4.88,0.8118,0.7481,0.8075,0.8228,1,1,1,0.1882,0.7294,0.8376,0.9188
v_tabletop_1_6,viewpoint,1049,805,4.78,0.7115,0.7664,0.8284,0.8456,1,1,1,0.2885,0.7628,0.8577,0.9288
v_tempera_1_2,viewpoint,770,728,3.68,0.5078,0.9429,0.9675,0.9857,1,1,1,0.4922,0.8307,0.8984,0.9492
v_tempera_1_3,viewpoint,757,719,3.69,0.5168,0.9445,0.9749,0.9828,1,1,1,0.4832,0.8277,0.8966,0.9483
v_tempera_1_4,viewpoint,722,666,3.69,0.6611,0.9197,0.9543,0.9681,1,1,1,0.3389,0.7796,0.8678,0.9339
v_tempera_1_5,viewpoint,701,617,3.62,0.8449,0.8802,0.9215,0.9358,1,1,1,0.1551,0.7184,0.8310,0.9155
v_tempera_1_6,viewpoint,461,335,3.69,1.5374,0.7332,0.8026,0.8438,1,1,1,0.0000,0.4875,0.6925,0.8463
v_there_1_2,viewpoint,512,434,4.39,0.9027,0.8379,0.9062,0.9531,1,1,1,0.0973,0.6991,0.8195,0.9097
v_there_1_3,viewpoint,410,139,3.99,1.9073,0.3390,0.4098,0.4415,1,1,1,0.0000,0.3642,0.6185,0.8093
v_there_1_4,viewpoint,397,56,3.93,1.5777,0.1411,0.1662,0.1839,1,1,1,0.0000,0.4741,0.6845,0.8422
v_there_1_5,viewpoint,360,8,4.32,274.8086,0.0250,0.0444,0.0528,0,0,0,0.0000,0.0000,0.0000,0.0000
v_there_1_6,viewpoint,347,8,4.71,280.8238,0.0000,0.0000,0.0058,0,0,0,0.0000,0.0000,0.0000,0.0000
v_underground_1_2,viewpoint,1502,1449,4.83,0.2165,0.9634,0.9834,0.9860,1,1,1,0.7835,0.9278,0.9567,0.9783
v_underground_1_3,viewpoint,1326,1248,4.69,0.5309,0.9397,0.9623,0.9661,1,1,1,0.4691,0.8230,0.8938,0.9469
v_underground_1_4,viewpoint,1050,928,4.51,0.5318,0.8895,0.9267,0.9410,1,1,1,0.4682,0.8227,0.8936,0.9468
v_underground_1_5,viewpoint,909,728,4.36,1.1757,0.8020,0.8647,0.8878,1,1,1,0.0000,0.6081,0.7649,0.8824
v_underground_1_6,viewpoint,737,489,4.10,2.7230,0.6662,0.7476,0.7910,1,1,1,0.0000,0.0923,0.4554,0.7277
v_vitro_1_2,viewpoint,1655,1566,5.30,0.1787,0.9462,0.9668,0.9686,1,1,1,0.8213,0.9404,0.9643,0.9821
v_vitro_1_3,viewpoint,1514,1418,4.83,0.3652,0.9366,0.9538,0.9584,1,1,1,0.6348,0.8783,0.9270,0.9635
v_vitro_1_4,viewpoint,1328,1185,4.73,0.4661,0.8938,0.9315,0.9383,1,1,1,0.5339,0.8446,0.9068,0.9534
v_vitro_1_5,viewpoint,1541,1463,4.89,0.3048,0.9487,0.9695,0.9721,1,1,1,0.6952,0.8984,0.9390,0.9695
v_vitro_1_6,viewpoint,1440,1299,4.78,0.4059,0.9007,0.9507,0.9563,1,1,1,0.5941,0.8647,0.9188,0.9594
v_wall_1_2,viewpoint,1125,1062,4.14,0.8780,0.9413,0.9600,0.9698,1,1,1,0.1220,0.7073,0.8244,0.9122
v_wall_1_3,viewpoint,1005,893,4.28,1.5085,0.8816,0.9244,0.9413,1,1,1,0.0000,0.4972,0.6983,0.8492
v_wall_1_4,viewpoint,1150,1099,5.40,0.2598,0.9539,0.9704,0.9757,1,1,1,0.7402,0.9134,0.9480,0.9740
v_wall_1_5,viewpoint,1034,889,3.98,1.3980,0.8540,0.9081,0.9304,1,1,1,0.0000,0.5340,0.7204,0.8602
v_wall_1_6,viewpoint,923,748,3.97,4.1825,0.8082,0.8635,0.8830,0,1,1,0.0000,0.0000,0.1635,0.5817
v_wapping_1_2,viewpoint,1317,932,5.87,0.2247,0.7039,0.8208,0.8732,1,1,1,0.7753,0.9251,0.9551,0.9775
v_wapping_1_3,viewpoint,1060,644,4.82,1.2215,0.6066,0.6943,0.7443,1,1,1,0.0000,0.5928,0.7557,0.8778
v_wapping_1_4,viewpoint,1024,614,5.24,1.8901,0.5967,0.6836,0.7295,1,1,1,0.0000,0.3700,0.6220,0.8110
v_wapping_1_5,viewpoint,885,417,5.07,0.7518,0.4633,0.5379,0.5684,1,1,1,0.2482,0.7494,0.8496,0.9248
v_wapping_1_6,viewpoint,800,225,4.81,1.9371,0.2812,0.3463,0.3700,1,1,1,0.0000,0.3543,0.6126,0.8063
v_war_1_2,viewpoint,1142,964,4.65,1.2626,0.8494,0.9142,0.9326,1,1,1,0.0000,0.5791,0.7475,0.8737
v_war_1_3,viewpoint,951,711,4.43,1.5898,0.7539,0.8496,0.8812,1,1,1,0.0000,0.4701,0.6820,0.8410
v_war_1_4,viewpoint,1361,1308,4.90,0.4680,0.9581,0.9735,0.9824,1,1,1,0.5320,0.8440,0.9064,0.9532
v_war_1_5,viewpoint,1279,1203,4.58,0.5430,0.9390,0.9750,0.9828,1,1,1,0.4570,0.8190,0.8914,0.9457
v_war_1_6,viewpoint,901,702,4.54,1.5027,0.7580,0.8668,0.8923,1,1,1,0.0000,0.4991,0.6995,0.8497
v_weapons_1_2,viewpoint,1210,1142,4.67,0.6485,0.9471,0.9678,0.9752,1,1,1,0.3515,0.7838,0.8703,0.9351
v_weapons_1_3,viewpoint,1118,1017,7.02,0.3426,0.9079,0.9571,0.9624,1,1,1,0.6574,0.8858,0.9315,0.9657
v_weapons_1_4,viewpoint,1141,1021,4.80,0.8248,0.8948,0.9422,0.9571,1,1,1,0.1752,0.7251,0.8350,0.9175
v_weapons_1_5,viewpoint,1224,1157,4.81,0.7889,0.9453,0.9779,0.9869,1,1,1,0.2111,0.7370,0.8422,0.9211
v_weapons_1_6,viewpoint,1078,1016,4.60,1.1476,0.9378,0.9712,0.9796,1,1,1,0.0000,0.6175,0.7705,0.8852
v_woman_1_2,viewpoint,709,491,4.18,46.3690,0.0014,0.0014,0.0014,0,0,0,0.0000,0.0000,0.0000,0.0000
v_woman_1_3,viewpoint,785,619,4.19,49.6323,0.0000,0.0000,0.0000,0,0,0,0.0000,0.0000,0.0000,0.0000
v_woman_1_4,viewpoint,721,510,3.98,50.7550,0.0000,0.0000,0.0000,0,0,0,0.0000,0.0000,0.0000,0.0000
v_woman_1_5,viewpoint,634,356,3.99,43.8375,0.0000,0.0000,0.0000,0,0,0,0.0000,0.0000,0.0000,0.0000
v_woman_1_6,viewpoint,639,437,4.03,48.5504,0.0000,0.0000,0.0000,0,0,0,0.0000,0.0000,0.0000,0.0000
v_wormhole_1_2,viewpoint,1137,1011,4.36,0.3283,0.8865,0.9235,0.9367,1,1,1,0.6717,0.8906,0.9343,0.9672
v_wormhole_1_3,viewpoint,1223,1111,4.35,0.5523,0.9068,0.9501,0.9616,1,1,1,0.4477,0.8159,0.8895,0.9448
v_wormhole_1_4,viewpoint,1336,1244,4.34,0.4809,0.9266,0.9566,0.9731,1,1,1,0.5191,0.8397,0.9038,0.9519
v_wormhole_1_5,viewpoint,1101,879,4.57,4.7817,0.7866,0.8538,0.8765,0,1,1,0.0000,0.0000,0.0437,0.5218
v_wormhole_1_6,viewpoint,795,459,4.45,2.2992,0.5447,0.6730,0.7195,1,1,1,0.0000,0.2336,0.5402,0.7701
v_wounded_1_2,viewpoint,1058,964,4.50,0.8073,0.9093,0.9603,0.9707,1,1,1,0.1927,0.7309,0.8385,0.9193
v_wounded_1_3,viewpoint,777,583,4.55,2.2393,0.7490,0.8044,0.8340,1,1,1,0.0000,0.2536,0.5521,0.7761
v_wounded_1_4,viewpoint,482,292,3.97,33.7642,0.5934,0.6929,0.7510,0,0,0,0.0000,0.0000,0.0000,0.0000
v_wounded_1_5,viewpoint,706,556,4.04,1.8543,0.7918,0.8470,0.8768,1,1,1,0.0000,0.3819,0.6291,0.8146
v_wounded_1_6,viewpoint,506,308,4.06,10.7633,0.6126,0.7134,0.7628,0,0,0,0.0000,0.0000,0.0000,0.0000
v_yard_1_2,viewpoint,1405,1330,4.81,0.4264,0.9452,0.9715,0.9801,1,1,1,0.5736,0.8579,0.9147,0.9574
v_yard_1_3,viewpoint,1018,727,4.99,1.4393,0.6650,0.7996,0.8212,1,1,1,0.0000,0.5202,0.7121,0.8561
v_yard_1_4,viewpoint,1315,1210,4.80,0.5335,0.9186,0.9544,0.9643,1,1,1,0.4665,0.8222,0.8933,0.9467
v_yard_1_5,viewpoint,1131,926,4.70,0.8669,0.8117,0.8700,0.8930,1,1,1,0.1331,0.7110,0.8266,0.9133
v_yard_1_6,viewpoint,1011,593,4.95,2.2386,0.5668,0.6894,0.7349,1,1,1,0.0000,0.2538,0.5523,0.7761
v_yuri_1_2,viewpoint,729,663,3.73,0.6171,0.9108,0.9561,0.9808,1,1,1,0.3829,0.7943,0.8766,0.9383
v_yuri_1_3,viewpoint,610,532,3.79,2.6137,0.8689,0.9377,0.9689,1,1,1,0.0000,0.1288,0.4773,0.7386
v_yuri_1_4,viewpoint,544,401,3.92,40.4562,0.6912,0.8346,0.8732,0,0,0,0.0000,0.0000,0.0000,0.0000
v_yuri_1_5,viewpoint,633,559,3.79,2.2147,0.8784,0.9494,0.9668,1,1,1,0.0000,0.2618,0.5571,0.7785
v_yuri_1_6,viewpoint,555,435,3.68,4.3851,0.7550,0.8775,0.9207,0,1,1,0.0000,0.0000,0.1230,0.5615
