PairName,SeqType,NumMatches,Inliers,TimeMS,H_Error,MMA@3,MMA@5,MMA@7,MHA_Acc@3,MHA_Acc@5,MHA_Acc@7,AUC@1,AUC@3,AUC@5,AUC@10
i_ajuntament_1_2,illumination,963,956,265.19,0.2616,0.9917,1.0000,1.0000,1,1,1,0.7384,0.9128,0.9477,0.9738
i_ajuntament_1_3,illumination,665,661,61.31,0.7273,0.9925,1.0000,1.0000,1,1,1,0.2727,0.7576,0.8545,0.9273
i_ajuntament_1_4,illumination,464,455,59.36,0.6783,0.9784,0.9957,0.9978,1,1,1,0.3217,0.7739,0.8643,0.9322
i_ajuntament_1_5,illumination,477,469,54.86,0.5070,0.9706,0.9937,0.9979,1,1,1,0.4930,0.8310,0.8986,0.9493
i_ajuntament_1_6,illumination,480,474,56.15,0.9628,0.9854,0.9938,0.9979,1,1,1,0.0372,0.6791,0.8074,0.9037
i_autannes_1_2,illumination,436,431,53.26,0.3212,0.9885,0.9954,0.9954,1,1,1,0.6788,0.8929,0.9358,0.9679
i_autannes_1_3,illumination,379,375,48.22,0.5058,0.9921,0.9974,1.0000,1,1,1,0.4942,0.8314,0.8988,0.9494
i_autannes_1_4,illumination,316,311,48.87,1.2157,0.9557,0.9968,1.0000,1,1,1,0.0000,0.5948,0.7569,0.8784
i_autannes_1_5,illumination,331,326,49.23,0.8404,0.9789,0.9970,0.9970,1,1,1,0.1596,0.7199,0.8319,0.9160
i_autannes_1_6,illumination,367,359,46.16,0.3556,0.9809,1.0000,1.0000,1,1,1,0.6444,0.8815,0.9289,0.9644
i_bologna_1_2,illumination,611,611,45.91,0.0974,1.0000,1.0000,1.0000,1,1,1,0.9026,0.9675,0.9805,0.9903
i_bologna_1_3,illumination,558,558,41.17,0.1895,1.0000,1.0000,1.0000,1,1,1,0.8105,0.9368,0.9621,0.9810
i_bologna_1_4,illumination,542,540,43.28,0.3335,0.9963,0.9982,0.9982,1,1,1,0.6665,0.8888,0.9333,0.9666
i_bologna_1_5,illumination,506,504,41.65,0.3423,0.9941,0.9960,0.9980,1,1,1,0.6577,0.8859,0.9315,0.9658
i_bologna_1_6,illumination,494,491,42.96,0.3054,0.9919,1.0000,1.0000,1,1,1,0.6946,0.8982,0.9389,0.9695
i_books_1_2,illumination,812,810,52.57,0.1370,0.9975,1.0000,1.0000,1,1,1,0.8630,0.9543,0.9726,0.9863
i_books_1_3,illumination,792,784,50.95,0.2515,0.9899,0.9937,0.9987,1,1,1,0.7485,0.9162,0.9497,0.9748
i_books_1_4,illumination,821,815,49.35,0.2285,0.9927,0.9988,1.0000,1,1,1,0.7715,0.9238,0.9543,0.9772
i_books_1_5,illumination,838,834,50.23,0.2480,0.9940,1.0000,1.0000,1,1,1,0.7520,0.9173,0.9504,0.9752
i_books_1_6,illumination,794,789,50.87,0.2015,0.9937,0.9987,1.0000,1,1,1,0.7985,0.9328,0.9597,0.9799
i_boutique_1_2,illumination,1213,1208,57.37,0.1277,0.9951,1.0000,1.0000,1,1,1,0.8723,0.9574,0.9745,0.9872
i_boutique_1_3,illumination,1278,1273,60.23,0.1390,0.9961,1.0000,1.0000,1,1,1,0.8610,0.9537,0.9722,0.9861
i_boutique_1_4,illumination,1235,1229,54.23,0.1998,0.9951,1.0000,1.0000,1,1,1,0.8002,0.9334,0.9600,0.9800
i_boutique_1_5,illumination,990,984,59.03,0.2432,0.9919,1.0000,1.0000,1,1,1,0.7568,0.9189,0.9514,0.9757
i_boutique_1_6,illumination,975,968,59.01,0.4157,0.9928,1.0000,1.0000,1,1,1,0.5843,0.8614,0.9169,0.9584
i_bridger_1_2,illumination,872,868,44.15,0.4276,0.9920,1.0000,1.0000,1,1,1,0.5724,0.8575,0.9145,0.9572
i_bridger_1_3,illumination,811,805,39.36,0.3521,0.9901,1.0000,1.0000,1,1,1,0.6479,0.8826,0.9296,0.9648
i_bridger_1_4,illumination,821,819,39.55,0.3105,0.9988,1.0000,1.0000,1,1,1,0.6895,0.8965,0.9379,0.9689
i_bridger_1_5,illumination,748,739,40.65,0.3020,0.9893,0.9987,1.0000,1,1,1,0.6980,0.8993,0.9396,0.9698
i_bridger_1_6,illumination,576,569,44.84,0.5903,0.9826,1.0000,1.0000,1,1,1,0.4097,0.8032,0.8819,0.9410
i_brooklyn_1_2,illumination,986,982,49.29,0.3702,0.9959,0.9990,1.0000,1,1,1,0.6298,0.8766,0.9260,0.9630
i_brooklyn_1_3,illumination,1147,1143,43.89,1.1747,0.9826,0.9991,1.0000,1,1,1,0.0000,0.6084,0.7651,0.8825
i_brooklyn_1_4,illumination,916,907,46.19,0.9111,0.9847,0.9989,1.0000,1,1,1,0.0889,0.6963,0.8178,0.9089
i_brooklyn_1_5,illumination,1124,1122,46.01,1.4601,0.9733,0.9991,0.9991,1,1,1,0.0000,0.5133,0.7080,0.8540
i_brooklyn_1_6,illumination,980,977,46.04,1.4412,0.9765,1.0000,1.0000,1,1,1,0.0000,0.5196,0.7118,0.8559
i_castle_1_2,illumination,629,629,55.84,0.6812,0.9984,1.0000,1.0000,1,1,1,0.3188,0.7729,0.8638,0.9319
i_castle_1_3,illumination,727,725,49.55,0.6218,0.9972,1.0000,1.0000,1,1,1,0.3782,0.7927,0.8756,0.9378
i_castle_1_4,illumination,656,651,49.05,0.7424,0.9909,1.0000,1.0000,1,1,1,0.2576,0.7525,0.8515,0.9258
i_castle_1_5,illumination,628,625,51.74,0.5227,0.9968,1.0000,1.0000,1,1,1,0.4773,0.8258,0.8955,0.9477
i_castle_1_6,illumination,622,621,51.81,0.3869,0.9984,1.0000,1.0000,1,1,1,0.6131,0.8710,0.9226,0.9613
i_chestnuts_1_2,illumination,943,938,54.01,0.3050,0.9936,1.0000,1.0000,1,1,1,0.6950,0.8983,0.9390,0.9695
i_chestnuts_1_3,illumination,917,910,51.11,0.2230,0.9924,0.9989,1.0000,1,1,1,0.7770,0.9257,0.9554,0.9777
i_chestnuts_1_4,illumination,920,909,50.45,0.1770,0.9880,0.9989,1.0000,1,1,1,0.8230,0.9410,0.9646,0.9823
i_chestnuts_1_5,illumination,897,886,52.33,0.1791,0.9877,0.9989,1.0000,1,1,1,0.8209,0.9403,0.9642,0.9821
i_chestnuts_1_6,illumination,795,793,53.00,0.3001,0.9975,1.0000,1.0000,1,1,1,0.6999,0.9000,0.9400,0.9700
i_crownday_1_2,illumination,627,624,56.14,0.3414,0.9952,0.9984,1.0000,1,1,1,0.6586,0.8862,0.9317,0.9659
i_crownday_1_3,illumination,712,709,52.37,0.2660,0.9958,1.0000,1.0000,1,1,1,0.7340,0.9113,0.9468,0.9734
i_crownday_1_4,illumination,714,709,55.86,0.1798,0.9916,1.0000,1.0000,1,1,1,0.8202,0.9401,0.9640,0.9820
i_crownday_1_5,illumination,782,780,55.73,0.3209,0.9987,1.0000,1.0000,1,1,1,0.6791,0.8930,0.9358,0.9679
i_crownday_1_6,illumination,590,586,55.95,0.4695,0.9949,1.0000,1.0000,1,1,1,0.5305,0.8435,0.9061,0.9530
i_dome_1_2,illumination,1333,1330,52.01,0.1184,0.9970,0.9992,1.0000,1,1,1,0.8816,0.9605,0.9763,0.9882
i_dome_1_3,illumination,710,647,53.05,0.9799,0.9183,0.9338,0.9507,1,1,1,0.0201,0.6734,0.8040,0.9020
i_dome_1_4,illumination,720,693,52.35,1.4244,0.9542,0.9792,0.9875,1,1,1,0.0000,0.5252,0.7151,0.8576
i_dome_1_5,illumination,718,640,52.09,3.1218,0.8886,0.9095,0.9206,0,1,1,0.0000,0.0000,0.3756,0.6878
i_dome_1_6,illumination,1018,1014,52.44,0.2907,0.9961,0.9980,1.0000,1,1,1,0.7093,0.9031,0.9419,0.9709
i_duda_1_2,illumination,716,715,46.27,0.1447,0.9986,1.0000,1.0000,1,1,1,0.8553,0.9518,0.9711,0.9855
i_duda_1_3,illumination,670,669,42.77,0.1559,0.9985,1.0000,1.0000,1,1,1,0.8441,0.9480,0.9688,0.9844
i_duda_1_4,illumination,628,628,42.67,0.2385,1.0000,1.0000,1.0000,1,1,1,0.7615,0.9205,0.9523,0.9762
i_duda_1_5,illumination,593,593,44.50,0.2682,1.0000,1.0000,1.0000,1,1,1,0.7318,0.9106,0.9464,0.9732
i_duda_1_6,illumination,546,546,48.75,0.3121,1.0000,1.0000,1.0000,1,1,1,0.6879,0.8960,0.9376,0.9688
i_fenis_1_2,illumination,719,708,47.62,0.1839,0.9861,1.0000,1.0000,1,1,1,0.8161,0.9387,0.9632,0.9816
i_fenis_1_3,illumination,593,589,46.06,0.1902,0.9916,1.0000,1.0000,1,1,1,0.8098,0.9366,0.9620,0.9810
i_fenis_1_4,illumination,439,432,44.75,0.7380,0.9772,0.9954,1.0000,1,1,1,0.2620,0.7540,0.8524,0.9262
i_fenis_1_5,illumination,405,399,43.85,0.6007,0.9802,0.9951,1.0000,1,1,1,0.3993,0.7998,0.8799,0.9399
i_fenis_1_6,illumination,388,383,43.68,0.4981,0.9845,0.9948,0.9974,1,1,1,0.5019,0.8340,0.9004,0.9502
i_fog_1_2,illumination,488,484,42.85,0.4293,0.9918,1.0000,1.0000,1,1,1,0.5707,0.8569,0.9141,0.9571
i_fog_1_3,illumination,405,402,40.31,0.1801,0.9926,0.9975,1.0000,1,1,1,0.8199,0.9400,0.9640,0.9820
i_fog_1_4,illumination,313,309,39.50,0.5112,0.9872,1.0000,1.0000,1,1,1,0.4888,0.8296,0.8978,0.9489
i_fog_1_5,illumination,351,341,41.42,0.9966,0.9658,0.9915,1.0000,1,1,1,0.0034,0.6678,0.8007,0.9003
i_fog_1_6,illumination,338,332,40.90,1.2833,0.9793,0.9970,0.9970,1,1,1,0.0000,0.5722,0.7433,0.8717
i_fruits_1_2,illumination,1107,1079,70.73,0.2488,0.9729,0.9928,0.9937,1,1,1,0.7512,0.9171,0.9502,0.9751
i_fruits_1_3,illumination,1006,974,66.32,0.1792,0.9672,0.9940,0.9970,1,1,1,0.8208,0.9403,0.9642,0.9821
i_fruits_1_4,illumination,1043,1008,79.25,0.2332,0.9664,0.9923,0.9971,1,1,1,0.7668,0.9223,0.9534,0.9767
i_fruits_1_5,illumination,1016,969,67.52,0.2998,0.9528,0.9931,0.9961,1,1,1,0.7002,0.9001,0.9400,0.9700
i_fruits_1_6,illumination,1028,984,66.65,0.2782,0.9572,0.9922,0.9990,1,1,1,0.7218,0.9073,0.9444,0.9722
i_gonnenberg_1_2,illumination,595,589,42.24,0.4173,0.9899,1.0000,1.0000,1,1,1,0.5827,0.8609,0.9165,0.9583
i_gonnenberg_1_3,illumination,584,578,38.59,0.3313,0.9863,1.0000,1.0000,1,1,1,0.6687,0.8896,0.9337,0.9669
i_gonnenberg_1_4,illumination,533,524,38.26,0.3638,0.9831,0.9944,0.9962,1,1,1,0.6362,0.8787,0.9272,0.9636
i_gonnenberg_1_5,illumination,555,554,38.49,0.2681,0.9964,0.9982,1.0000,1,1,1,0.7319,0.9106,0.9464,0.9732
i_gonnenberg_1_6,illumination,569,564,38.41,0.3020,0.9895,1.0000,1.0000,1,1,1,0.6980,0.8993,0.9396,0.9698
i_greenhouse_1_2,illumination,1095,1076,52.94,0.1576,0.9826,1.0000,1.0000,1,1,1,0.8424,0.9475,0.9685,0.9842
i_greenhouse_1_3,illumination,1016,1000,50.23,0.3826,0.9852,0.9902,0.9980,1,1,1,0.6174,0.8725,0.9235,0.9617
i_greenhouse_1_4,illumination,982,976,50.33,0.3597,0.9919,0.9990,1.0000,1,1,1,0.6403,0.8801,0.9281,0.9640
i_greenhouse_1_5,illumination,934,927,50.14,0.6060,0.9893,1.0000,1.0000,1,1,1,0.3940,0.7980,0.8788,0.9394
i_greenhouse_1_6,illumination,908,888,54.53,0.6239,0.9725,0.9978,1.0000,1,1,1,0.3761,0.7920,0.8752,0.9376
i_greentea_1_2,illumination,861,855,58.82,0.4342,0.9919,0.9977,1.0000,1,1,1,0.5658,0.8553,0.9132,0.9566
i_greentea_1_3,illumination,1045,1041,52.56,0.1267,0.9962,0.9981,0.9990,1,1,1,0.8733,0.9578,0.9747,0.9873
i_greentea_1_4,illumination,1093,1087,49.16,0.1011,0.9945,0.9954,0.9963,1,1,1,0.8989,0.9663,0.9798,0.9899
i_greentea_1_5,illumination,1072,1070,50.59,0.1162,0.9981,0.9981,0.9991,1,1,1,0.8838,0.9613,0.9768,0.9884
i_greentea_1_6,illumination,1027,1019,50.62,0.1688,0.9932,0.9990,1.0000,1,1,1,0.8312,0.9437,0.9662,0.9831
i_indiana_1_2,illumination,776,770,42.37,0.2268,0.9923,1.0000,1.0000,1,1,1,0.7732,0.9244,0.9546,0.9773
i_indiana_1_3,illumination,725,715,39.49,0.2160,0.9821,0.9986,1.0000,1,1,1,0.7840,0.9280,0.9568,0.9784
i_indiana_1_4,illumination,722,715,39.26,0.2480,0.9889,1.0000,1.0000,1,1,1,0.7520,0.9173,0.9504,0.9752
i_indiana_1_5,illumination,715,706,39.39,0.3201,0.9874,1.0000,1.0000,1,1,1,0.6799,0.8933,0.9360,0.9680
i_indiana_1_6,illumination,672,672,42.17,0.1472,1.0000,1.0000,1.0000,1,1,1,0.8528,0.9509,0.9706,0.9853
i_kions_1_2,illumination,748,732,49.95,0.8955,0.9545,0.9987,1.0000,1,1,1,0.1045,0.7015,0.8209,0.9104
i_kions_1_3,illumination,717,716,49.10,0.5633,0.9958,1.0000,1.0000,1,1,1,0.4367,0.8122,0.8873,0.9437
i_kions_1_4,illumination,602,597,49.00,0.7441,0.9884,1.0000,1.0000,1,1,1,0.2559,0.7520,0.8512,0.9256
i_kions_1_5,illumination,611,605,48.95,0.8260,0.9853,1.0000,1.0000,1,1,1,0.1740,0.7247,0.8348,0.9174
i_kions_1_6,illumination,697,694,49.52,0.3366,0.9943,0.9986,1.0000,1,1,1,0.6634,0.8878,0.9327,0.9663
i_ktirio_1_2,illumination,1183,1176,54.13,0.1410,0.9941,0.9992,1.0000,1,1,1,0.8590,0.9530,0.9718,0.9859
i_ktirio_1_3,illumination,863,861,55.39,0.1755,0.9977,0.9988,1.0000,1,1,1,0.8245,0.9415,0.9649,0.9825
i_ktirio_1_4,illumination,799,779,56.07,0.8744,0.9687,0.9937,1.0000,1,1,1,0.1256,0.7085,0.8251,0.9126
i_ktirio_1_5,illumination,830,826,55.18,0.1204,0.9952,1.0000,1.0000,1,1,1,0.8796,0.9599,0.9759,0.9880
i_ktirio_1_6,illumination,784,773,56.07,0.2617,0.9860,0.9962,0.9987,1,1,1,0.7383,0.9128,0.9477,0.9738
i_kurhaus_1_2,illumination,897,895,47.32,0.1207,0.9955,1.0000,1.0000,1,1,1,0.8793,0.9598,0.9759,0.9879
i_kurhaus_1_3,illumination,791,778,43.03,0.1896,0.9848,0.9987,1.0000,1,1,1,0.8104,0.9368,0.9621,0.9810
i_kurhaus_1_4,illumination,736,734,44.19,0.1781,0.9973,0.9986,1.0000,1,1,1,0.8219,0.9406,0.9644,0.9822
i_kurhaus_1_5,illumination,684,679,44.28,0.2095,0.9927,0.9985,0.9985,1,1,1,0.7905,0.9302,0.9581,0.9790
i_kurhaus_1_6,illumination,640,631,44.03,0.3015,0.9859,0.9969,1.0000,1,1,1,0.6985,0.8995,0.9397,0.9699
i_leuven_1_2,illumination,1105,1104,49.74,0.7061,0.9991,1.0000,1.0000,1,1,1,0.2939,0.7646,0.8588,0.9294
i_leuven_1_3,illumination,1084,1079,45.49,1.0576,0.9945,0.9991,1.0000,1,1,1,0.0000,0.6475,0.7885,0.8942
i_leuven_1_4,illumination,1013,1007,44.74,1.5783,0.9921,1.0000,1.0000,1,1,1,0.0000,0.4739,0.6843,0.8422
i_leuven_1_5,illumination,966,960,44.89,1.1191,0.9917,1.0000,1.0000,1,1,1,0.0000,0.6270,0.7762,0.8881
i_leuven_1_6,illumination,858,852,49.44,6.4923,0.7657,0.8776,0.9510,0,0,1,0.0000,0.0000,0.0000,0.3508
i_lionday_1_2,illumination,1062,1035,65.47,1.6175,0.9652,0.9831,0.9991,1,1,1,0.0000,0.4608,0.6765,0.8382
i_lionday_1_3,illumination,969,964,64.16,0.7606,0.9938,0.9990,0.9990,1,1,1,0.2394,0.7465,0.8479,0.9239
i_lionday_1_4,illumination,819,800,60.80,1.0804,0.9426,0.9951,1.0000,1,1,1,0.0000,0.6399,0.7839,0.8920
i_lionday_1_5,illumination,893,877,58.11,0.9968,0.9709,0.9933,0.9989,1,1,1,0.0032,0.6677,0.8006,0.9003
i_lionday_1_6,illumination,1001,980,58.02,1.2957,0.9650,0.9950,1.0000,1,1,1,0.0000,0.5681,0.7409,0.8704
i_lionnight_1_2,illumination,1078,1049,61.89,0.4825,0.9722,0.9870,1.0000,1,1,1,0.5175,0.8392,0.9035,0.9518
i_lionnight_1_3,illumination,919,890,56.74,0.9215,0.9402,0.9978,1.0000,1,1,1,0.0785,0.6928,0.8157,0.9078
i_lionnight_1_4,illumination,1141,1127,58.65,0.4559,0.9842,0.9982,1.0000,1,1,1,0.5441,0.8480,0.9088,0.9544
i_lionnight_1_5,illumination,1161,1154,57.14,0.3205,0.9940,1.0000,1.0000,1,1,1,0.6795,0.8932,0.9359,0.9679
i_lionnight_1_6,illumination,1169,1159,57.31,0.3776,0.9872,1.0000,1.0000,1,1,1,0.6224,0.8741,0.9245,0.9622
i_londonbridge_1_2,illumination,1024,1018,47.70,1.0248,0.9854,1.0000,1.0000,1,1,1,0.0000,0.6584,0.7950,0.8975
i_londonbridge_1_3,illumination,960,957,44.06,0.8593,0.9896,1.0000,1.0000,1,1,1,0.1407,0.7136,0.8281,0.9141
i_londonbridge_1_4,illumination,849,835,45.29,3.0131,0.8963,0.9929,1.0000,0,1,1,0.0000,0.0000,0.3974,0.6987
i_londonbridge_1_5,illumination,675,537,49.37,5.0403,0.6800,0.8341,0.8919,0,0,1,0.0000,0.0000,0.0000,0.4960
i_londonbridge_1_6,illumination,837,835,45.54,0.6193,0.9952,1.0000,1.0000,1,1,1,0.3807,0.7936,0.8761,0.9381
i_melon_1_2,illumination,627,625,51.16,0.2581,0.9968,1.0000,1.0000,1,1,1,0.7419,0.9140,0.9484,0.9742
i_melon_1_3,illumination,511,506,48.55,0.2928,0.9902,0.9941,1.0000,1,1,1,0.7072,0.9024,0.9414,0.9707
i_melon_1_4,illumination,369,361,49.23,0.5263,0.9783,0.9919,0.9973,1,1,1,0.4737,0.8246,0.8947,0.9474
i_melon_1_5,illumination,517,514,50.93,0.5025,0.9942,1.0000,1.0000,1,1,1,0.4975,0.8325,0.8995,0.9497
i_melon_1_6,illumination,470,464,51.07,0.2599,0.9851,0.9957,1.0000,1,1,1,0.7401,0.9134,0.9480,0.9740
i_miniature_1_2,illumination,1294,1270,53.98,0.3111,0.9807,0.9961,1.0000,1,1,1,0.6889,0.8963,0.9378,0.9689
i_miniature_1_3,illumination,1100,1090,51.80,0.3071,0.9918,1.0000,1.0000,1,1,1,0.6929,0.8976,0.9386,0.9693
i_miniature_1_4,illumination,909,909,56.26,0.4161,0.9989,1.0000,1.0000,1,1,1,0.5839,0.8613,0.9168,0.9584
i_miniature_1_5,illumination,682,680,56.43,0.3918,0.9941,1.0000,1.0000,1,1,1,0.6082,0.8694,0.9216,0.9608
i_miniature_1_6,illumination,1070,1053,57.10,0.3159,0.9822,0.9991,1.0000,1,1,1,0.6841,0.8947,0.9368,0.9684
i_nescafe_1_2,illumination,921,911,56.50,0.4609,0.9902,0.9957,0.9967,1,1,1,0.5391,0.8464,0.9078,0.9539
i_nescafe_1_3,illumination,1040,1034,59.07,0.5384,0.9933,1.0000,1.0000,1,1,1,0.4616,0.8205,0.8923,0.9462
i_nescafe_1_4,illumination,1084,1079,55.93,0.2376,0.9963,0.9982,0.9991,1,1,1,0.7624,0.9208,0.9525,0.9762
i_nescafe_1_5,illumination,998,991,57.18,0.1411,0.9930,0.9970,1.0000,1,1,1,0.8589,0.9530,0.9718,0.9859
i_nescafe_1_6,illumination,938,925,60.31,0.1681,0.9840,0.9979,1.0000,1,1,1,0.8319,0.9440,0.9664,0.9832
i_nijmegen_1_2,illumination,1081,1071,57.60,0.8176,0.9824,0.9991,1.0000,1,1,1,0.1824,0.7275,0.8365,0.9182
i_nijmegen_1_3,illumination,1163,1141,53.31,0.5956,0.9768,0.9957,1.0000,1,1,1,0.4044,0.8015,0.8809,0.9404
i_nijmegen_1_4,illumination,760,759,54.96,0.4694,0.9947,1.0000,1.0000,1,1,1,0.5306,0.8435,0.9061,0.9531
i_nijmegen_1_5,illumination,1132,1102,49.12,0.5312,0.9673,0.9938,0.9982,1,1,1,0.4688,0.8229,0.8938,0.9469
i_nijmegen_1_6,illumination,1065,1050,50.56,0.4559,0.9840,0.9962,0.9991,1,1,1,0.5441,0.8480,0.9088,0.9544
i_nuts_1_2,illumination,764,714,77.50,0.6715,0.9215,0.9634,0.9764,1,1,1,0.3285,0.7762,0.8657,0.9328
i_nuts_1_3,illumination,693,630,73.46,0.3661,0.9120,0.9524,0.9798,1,1,1,0.6339,0.8780,0.9268,0.9634
i_nuts_1_4,illumination,567,546,74.26,0.6810,0.9683,0.9929,0.9982,1,1,1,0.3190,0.7730,0.8638,0.9319
i_nuts_1_5,illumination,604,565,73.02,0.7367,0.9272,0.9868,0.9901,1,1,1,0.2633,0.7544,0.8527,0.9263
i_nuts_1_6,illumination,627,560,74.43,1.2004,0.8931,0.9601,0.9793,1,1,1,0.0000,0.5999,0.7599,0.8800
i_objects_1_2,illumination,1063,1052,52.01,0.5091,0.9878,0.9991,1.0000,1,1,1,0.4909,0.8303,0.8982,0.9491
i_objects_1_3,illumination,987,964,49.37,0.9631,0.9635,0.9939,0.9959,1,1,1,0.0369,0.6790,0.8074,0.9037
i_objects_1_4,illumination,896,885,51.19,0.9550,0.9833,0.9944,1.0000,1,1,1,0.0450,0.6817,0.8090,0.9045
i_objects_1_5,illumination,855,844,51.56,0.7356,0.9813,0.9977,1.0000,1,1,1,0.2644,0.7548,0.8529,0.9264
i_objects_1_6,illumination,1327,1313,47.59,0.2906,0.9910,0.9970,1.0000,1,1,1,0.7094,0.9031,0.9419,0.9709
i_parking_1_2,illumination,1181,1179,59.01,0.1898,0.9983,1.0000,1.0000,1,1,1,0.8102,0.9367,0.9620,0.9810
i_parking_1_3,illumination,1028,1010,50.69,0.1766,0.9835,0.9903,0.9981,1,1,1,0.8234,0.9411,0.9647,0.9823
i_parking_1_4,illumination,949,946,55.98,0.5836,0.9916,1.0000,1.0000,1,1,1,0.4164,0.8055,0.8833,0.9416
i_parking_1_5,illumination,951,947,58.18,0.4372,0.9947,1.0000,1.0000,1,1,1,0.5628,0.8543,0.9126,0.9563
i_parking_1_6,illumination,969,968,58.41,0.4353,0.9979,1.0000,1.0000,1,1,1,0.5647,0.8549,0.9129,0.9565
i_partyfood_1_2,illumination,504,504,47.49,0.3647,1.0000,1.0000,1.0000,1,1,1,0.6353,0.8784,0.9271,0.9635
i_partyfood_1_3,illumination,458,458,46.14,0.4092,1.0000,1.0000,1.0000,1,1,1,0.5908,0.8636,0.9182,0.9591
i_partyfood_1_4,illumination,419,419,49.17,0.2445,1.0000,1.0000,1.0000,1,1,1,0.7555,0.9185,0.9511,0.9755
i_partyfood_1_5,illumination,403,403,48.17,0.3357,1.0000,1.0000,1.0000,1,1,1,0.6643,0.8881,0.9329,0.9664
i_partyfood_1_6,illumination,383,383,46.90,0.5431,1.0000,1.0000,1.0000,1,1,1,0.4569,0.8190,0.8914,0.9457
i_pinard_1_2,illumination,767,757,56.62,0.8656,0.9831,0.9922,0.9961,1,1,1,0.1344,0.7115,0.8269,0.9134
i_pinard_1_3,illumination,594,586,58.37,0.4756,0.9848,0.9933,0.9983,1,1,1,0.5244,0.8415,0.9049,0.9524
i_pinard_1_4,illumination,614,605,54.94,0.4159,0.9853,0.9870,0.9984,1,1,1,0.5841,0.8614,0.9168,0.9584
i_pinard_1_5,illumination,619,607,54.73,0.2033,0.9822,0.9903,0.9968,1,1,1,0.7967,0.9322,0.9593,0.9797
i_pinard_1_6,illumination,625,613,53.58,0.2579,0.9808,0.9888,1.0000,1,1,1,0.7421,0.9140,0.9484,0.9742
i_pool_1_2,illumination,614,604,56.01,0.4867,0.9821,1.0000,1.0000,1,1,1,0.5133,0.8378,0.9027,0.9513
i_pool_1_3,illumination,492,438,53.57,1.4058,0.8760,0.9614,0.9898,1,1,1,0.0000,0.5314,0.7188,0.8594
i_pool_1_4,illumination,501,451,54.64,1.7409,0.8683,0.9661,0.9940,1,1,1,0.0000,0.4197,0.6518,0.8259
i_pool_1_5,illumination,545,531,56.03,0.7200,0.9688,0.9945,1.0000,1,1,1,0.2800,0.7600,0.8560,0.9280
i_pool_1_6,illumination,544,529,52.89,0.9501,0.9743,1.0000,1.0000,1,1,1,0.0499,0.6833,0.8100,0.9050
i_porta_1_2,illumination,439,437,51.36,0.1997,0.9954,0.9954,1.0000,1,1,1,0.8003,0.9334,0.9601,0.9800
i_porta_1_3,illumination,427,424,49.51,0.2865,0.9930,1.0000,1.0000,1,1,1,0.7135,0.9045,0.9427,0.9713
i_porta_1_4,illumination,366,358,50.87,0.4011,0.9727,1.0000,1.0000,1,1,1,0.5989,0.8663,0.9198,0.9599
i_porta_1_5,illumination,374,372,50.29,0.9156,0.9840,0.9973,1.0000,1,1,1,0.0844,0.6948,0.8169,0.9084
i_porta_1_6,illumination,327,321,51.76,1.1194,0.9664,1.0000,1.0000,1,1,1,0.0000,0.6269,0.7761,0.8881
i_resort_1_2,illumination,765,765,57.80,0.2518,1.0000,1.0000,1.0000,1,1,1,0.7482,0.9161,0.9496,0.9748
i_resort_1_3,illumination,944,941,51.49,0.1560,0.9979,1.0000,1.0000,1,1,1,0.8440,0.9480,0.9688,0.9844
i_resort_1_4,illumination,917,913,54.56,0.2423,0.9945,1.0000,1.0000,1,1,1,0.7577,0.9192,0.9515,0.9758
i_resort_1_5,illumination,724,720,58.41,0.5042,0.9945,1.0000,1.0000,1,1,1,0.4958,0.8319,0.8992,0.9496
i_resort_1_6,illumination,761,752,50.60,0.6999,0.9855,0.9974,0.9987,1,1,1,0.3001,0.7667,0.8600,0.9300
i_salon_1_2,illumination,1599,1551,59.21,0.1859,0.9700,0.9944,0.9981,1,1,1,0.8141,0.9380,0.9628,0.9814
i_salon_1_3,illumination,1279,1261,60.12,0.2502,0.9851,0.9992,1.0000,1,1,1,0.7498,0.9166,0.9500,0.9750
i_salon_1_4,illumination,1072,1062,61.94,0.2478,0.9907,1.0000,1.0000,1,1,1,0.7522,0.9174,0.9504,0.9752
i_salon_1_5,illumination,1382,1363,61.96,0.2422,0.9841,0.9986,1.0000,1,1,1,0.7578,0.9193,0.9516,0.9758
i_salon_1_6,illumination,1159,1141,62.65,0.2842,0.9827,0.9991,1.0000,1,1,1,0.7158,0.9053,0.9432,0.9716
i_santuario_1_2,illumination,1220,1204,60.03,1.1399,0.9656,0.9992,1.0000,1,1,1,0.0000,0.6200,0.7720,0.8860
i_santuario_1_3,illumination,1198,1182,51.05,1.4449,0.9516,0.9992,1.0000,1,1,1,0.0000,0.5184,0.7110,0.8555
i_santuario_1_4,illumination,1086,1069,59.52,1.5564,0.9300,1.0000,1.0000,1,1,1,0.0000,0.4812,0.6887,0.8444
i_santuario_1_5,illumination,1196,1179,55.52,0.3179,0.9858,0.9992,0.9992,1,1,1,0.6821,0.8940,0.9364,0.9682
i_santuario_1_6,illumination,1045,1025,52.46,0.7889,0.9732,1.0000,1.0000,1,1,1,0.2111,0.7370,0.8422,0.9211
i_school_1_2,illumination,757,751,56.25,0.1370,0.9921,0.9974,1.0000,1,1,1,0.8630,0.9543,0.9726,0.9863
i_school_1_3,illumination,773,767,52.80,0.2495,0.9922,0.9948,1.0000,1,1,1,0.7505,0.9168,0.9501,0.9751
i_school_1_4,illumination,697,683,55.33,0.4591,0.9770,0.9943,0.9986,1,1,1,0.5409,0.8470,0.9082,0.9541
i_school_1_5,illumination,726,717,53.12,0.5928,0.9766,0.9945,0.9986,1,1,1,0.4072,0.8024,0.8814,0.9407
i_school_1_6,illumination,611,587,54.67,1.0758,0.9444,0.9853,1.0000,1,1,1,0.0000,0.6414,0.7848,0.8924
i_ski_1_2,illumination,789,783,52.15,0.2944,0.9924,1.0000,1.0000,1,1,1,0.7056,0.9019,0.9411,0.9706
i_ski_1_3,illumination,727,719,47.78,0.3547,0.9890,1.0000,1.0000,1,1,1,0.6453,0.8818,0.9291,0.9645
i_ski_1_4,illumination,655,653,49.02,0.5112,0.9939,1.0000,1.0000,1,1,1,0.4888,0.8296,0.8978,0.9489
i_ski_1_5,illumination,631,626,49.40,0.5028,0.9905,1.0000,1.0000,1,1,1,0.4972,0.8324,0.8994,0.9497
i_ski_1_6,illumination,613,608,49.35,0.4409,0.9918,1.0000,1.0000,1,1,1,0.5591,0.8530,0.9118,0.9559
i_smurf_1_2,illumination,912,906,54.71,0.2749,0.9934,0.9989,1.0000,1,1,1,0.7251,0.9084,0.9450,0.9725
i_smurf_1_3,illumination,900,890,52.54,0.2137,0.9867,0.9956,0.9967,1,1,1,0.7863,0.9288,0.9573,0.9786
i_smurf_1_4,illumination,875,853,52.74,0.2501,0.9771,0.9920,0.9989,1,1,1,0.7499,0.9166,0.9500,0.9750
i_smurf_1_5,illumination,843,823,52.84,0.1917,0.9739,0.9988,0.9988,1,1,1,0.8083,0.9361,0.9617,0.9808
i_smurf_1_6,illumination,742,736,54.03,0.4362,0.9906,0.9960,1.0000,1,1,1,0.5638,0.8546,0.9128,0.9564
i_steps_1_2,illumination,1205,1197,48.41,0.5183,0.9934,1.0000,1.0000,1,1,1,0.4817,0.8272,0.8963,0.9482
i_steps_1_3,illumination,1178,1164,45.47,0.6428,0.9881,0.9966,0.9983,1,1,1,0.3572,0.7857,0.8714,0.9357
i_steps_1_4,illumination,1171,1163,45.36,0.6381,0.9906,0.9991,1.0000,1,1,1,0.3619,0.7873,0.8724,0.9362
i_steps_1_5,illumination,963,960,47.85,0.6861,0.9948,1.0000,1.0000,1,1,1,0.3139,0.7713,0.8628,0.9314
i_steps_1_6,illumination,1052,1048,46.18,0.6373,0.9971,1.0000,1.0000,1,1,1,0.3627,0.7876,0.8725,0.9363
i_table_1_2,illumination,1063,1052,51.99,0.5091,0.9878,0.9991,1.0000,1,1,1,0.4909,0.8303,0.8982,0.9491
i_table_1_3,illumination,987,964,47.98,0.9631,0.9635,0.9939,0.9959,1,1,1,0.0369,0.6790,0.8074,0.9037
i_table_1_4,illumination,896,885,51.45,0.9550,0.9833,0.9944,1.0000,1,1,1,0.0450,0.6817,0.8090,0.9045
i_table_1_5,illumination,855,844,51.28,0.7356,0.9813,0.9977,1.0000,1,1,1,0.2644,0.7548,0.8529,0.9264
i_table_1_6,illumination,1327,1313,46.76,0.2906,0.9910,0.9970,1.0000,1,1,1,0.7094,0.9031,0.9419,0.9709
i_tools_1_2,illumination,414,369,49.17,2.0137,0.8188,0.9420,0.9855,1,1,1,0.0000,0.3288,0.5973,0.7986
i_tools_1_3,illumination,553,531,45.75,0.8615,0.9602,0.9964,1.0000,1,1,1,0.1385,0.7128,0.8277,0.9139
i_tools_1_4,illumination,435,379,45.96,1.7273,0.8299,0.9402,0.9724,1,1,1,0.0000,0.4242,0.6545,0.8273
i_tools_1_5,illumination,549,549,45.99,1.0789,0.9763,1.0000,1.0000,1,1,1,0.0000,0.6404,0.7842,0.8921
i_tools_1_6,illumination,460,329,46.35,3.7241,0.3978,0.6630,0.8174,0,1,1,0.0000,0.0000,0.2552,0.6276
i_toy_1_2,illumination,724,645,67.18,0.4297,0.8867,0.9738,0.9931,1,1,1,0.5703,0.8568,0.9141,0.9570
i_toy_1_3,illumination,594,532,65.71,0.4111,0.8939,0.9562,0.9731,1,1,1,0.5889,0.8630,0.9178,0.9589
i_toy_1_4,illumination,490,450,66.72,0.3635,0.9082,0.9857,0.9878,1,1,1,0.6365,0.8788,0.9273,0.9636
i_toy_1_5,illumination,436,384,68.56,0.5921,0.8784,0.9702,0.9908,1,1,1,0.4079,0.8026,0.8816,0.9408
i_toy_1_6,illumination,372,292,68.50,1.0605,0.7903,0.9489,0.9731,1,1,1,0.0000,0.6465,0.7879,0.8939
i_troulos_1_2,illumination,543,529,49.40,0.4599,0.9761,0.9963,1.0000,1,1,1,0.5401,0.8467,0.9080,0.9540
i_troulos_1_3,illumination,511,485,49.34,2.2545,0.6830,0.9785,0.9961,1,1,1,0.0000,0.2485,0.5491,0.7746
i_troulos_1_4,illumination,574,563,44.30,0.4552,0.9774,0.9895,0.9948,1,1,1,0.5448,0.8483,0.9090,0.9545
i_troulos_1_5,illumination,513,501,50.55,0.9246,0.9747,0.9864,1.0000,1,1,1,0.0754,0.6918,0.8151,0.9075
i_troulos_1_6,illumination,537,530,47.77,1.1502,0.9683,0.9944,1.0000,1,1,1,0.0000,0.6166,0.7700,0.8850
i_veggies_1_2,illumination,979,961,52.41,0.3181,0.9785,0.9990,1.0000,1,1,1,0.6819,0.8940,0.9364,0.9682
i_veggies_1_3,illumination,754,743,50.22,0.4899,0.9814,1.0000,1.0000,1,1,1,0.5101,0.8367,0.9020,0.9510
i_veggies_1_4,illumination,778,770,49.83,0.2285,0.9884,1.0000,1.0000,1,1,1,0.7715,0.9238,0.9543,0.9772
i_veggies_1_5,illumination,604,603,52.51,0.5779,0.9917,1.0000,1.0000,1,1,1,0.4221,0.8074,0.8844,0.9422
i_veggies_1_6,illumination,560,555,54.47,0.4319,0.9893,0.9982,1.0000,1,1,1,0.5681,0.8560,0.9136,0.9568
i_village_1_2,illumination,836,822,70.25,0.6836,0.9821,0.9988,1.0000,1,1,1,0.3164,0.7721,0.8633,0.9316
i_village_1_3,illumination,854,844,65.72,0.6098,0.9871,1.0000,1.0000,1,1,1,0.3902,0.7967,0.8780,0.9390
i_village_1_4,illumination,845,836,63.53,0.4298,0.9858,0.9988,1.0000,1,1,1,0.5702,0.8567,0.9140,0.9570
i_village_1_5,illumination,1110,1103,63.81,0.3219,0.9937,0.9991,0.9991,1,1,1,0.6781,0.8927,0.9356,0.9678
i_village_1_6,illumination,839,821,64.57,0.4858,0.9702,1.0000,1.0000,1,1,1,0.5142,0.8381,0.9028,0.9514
i_yellowtent_1_2,illumination,1366,1346,55.00,0.3004,0.9846,0.9956,0.9985,1,1,1,0.6996,0.8999,0.9399,0.9700
i_yellowtent_1_3,illumination,1161,1144,56.79,0.3544,0.9793,1.0000,1.0000,1,1,1,0.6456,0.8819,0.9291,0.9646
i_yellowtent_1_4,illumination,964,954,58.94,0.3831,0.9782,1.0000,1.0000,1,1,1,0.6169,0.8723,0.9234,0.9617
i_yellowtent_1_5,illumination,1071,1054,54.82,0.2999,0.9841,0.9888,0.9888,1,1,1,0.7001,0.9000,0.9400,0.9700
i_yellowtent_1_6,illumination,974,971,53.92,0.2476,0.9959,1.0000,1.0000,1,1,1,0.7524,0.9175,0.9505,0.9752
i_zion_1_2,illumination,544,537,48.54,0.1619,0.9853,0.9982,1.0000,1,1,1,0.8381,0.9460,0.9676,0.9838
i_zion_1_3,illumination,388,377,45.99,0.7009,0.9716,1.0000,1.0000,1,1,1,0.2991,0.7664,0.8598,0.9299
i_zion_1_4,illumination,303,298,47.71,0.4954,0.9835,0.9967,1.0000,1,1,1,0.5046,0.8349,0.9009,0.9505
i_zion_1_5,illumination,284,278,47.66,0.5115,0.9507,0.9965,1.0000,1,1,1,0.4885,0.8295,0.8977,0.9489
i_zion_1_6,illumination,285,276,47.10,0.9490,0.9579,1.0000,1.0000,1,1,1,0.0510,0.6837,0.8102,0.9051
v_abstract_1_2,viewpoint,1210,1200,55.03,0.2283,0.9934,1.0000,1.0000,1,1,1,0.7717,0.9239,0.9543,0.9772
v_abstract_1_3,viewpoint,1122,1108,51.02,0.5654,0.9884,0.9991,1.0000,1,1,1,0.4346,0.8115,0.8869,0.9435
v_abstract_1_4,viewpoint,756,741,53.74,0.8122,0.9802,0.9987,0.9987,1,1,1,0.1878,0.7293,0.8376,0.9188
v_abstract_1_5,viewpoint,997,976,50.94,0.6025,0.9759,0.9980,1.0000,1,1,1,0.3975,0.7992,0.8795,0.9398
v_abstract_1_6,viewpoint,748,720,52.35,0.9562,0.9479,0.9973,1.0000,1,1,1,0.0438,0.6813,0.8088,0.9044
v_adam_1_2,viewpoint,680,679,52.26,0.3470,0.9985,1.0000,1.0000,1,1,1,0.6530,0.8843,0.9306,0.9653
v_adam_1_3,viewpoint,600,599,48.72,0.6051,0.9967,1.0000,1.0000,1,1,1,0.3949,0.7983,0.8790,0.9395
v_adam_1_4,viewpoint,394,394,50.52,0.7579,0.9898,1.0000,1.0000,1,1,1,0.2421,0.7474,0.8484,0.9242
v_adam_1_5,viewpoint,539,538,49.67,0.4425,1.0000,1.0000,1.0000,1,1,1,0.5575,0.8525,0.9115,0.9557
v_adam_1_6,viewpoint,539,536,49.59,0.7153,0.9944,1.0000,1.0000,1,1,1,0.2847,0.7616,0.8569,0.9285
v_apprentices_1_2,viewpoint,1515,1514,59.82,0.1445,0.9993,1.0000,1.0000,1,1,1,0.8555,0.9518,0.9711,0.9856
v_apprentices_1_3,viewpoint,1303,1292,55.83,0.5436,0.9916,0.9992,1.0000,1,1,1,0.4564,0.8188,0.8913,0.9456
v_apprentices_1_4,viewpoint,1080,1074,57.65,0.7372,0.9954,1.0000,1.0000,1,1,1,0.2628,0.7543,0.8526,0.9263
v_apprentices_1_5,viewpoint,859,853,58.78,1.0975,0.9907,0.9988,1.0000,1,1,1,0.0000,0.6342,0.7805,0.8902
v_apprentices_1_6,viewpoint,754,753,57.51,0.7091,0.9973,1.0000,1.0000,1,1,1,0.2909,0.7636,0.8582,0.9291
v_azzola_1_2,viewpoint,1251,1202,54.78,0.5476,0.9544,0.9976,0.9992,1,1,1,0.4524,0.8175,0.8905,0.9452
v_azzola_1_3,viewpoint,1075,962,52.02,1.1109,0.8753,0.9916,1.0000,1,1,1,0.0000,0.6297,0.7778,0.8889
v_azzola_1_4,viewpoint,1248,1220,48.96,0.4737,0.9784,0.9984,1.0000,1,1,1,0.5263,0.8421,0.9053,0.9526
v_azzola_1_5,viewpoint,870,807,53.15,0.9879,0.8897,0.9851,0.9989,1,1,1,0.0121,0.6707,0.8024,0.9012
v_azzola_1_6,viewpoint,503,467,55.14,1.3689,0.8728,0.9901,1.0000,1,1,1,0.0000,0.5437,0.7262,0.8631
v_bark_1_2,viewpoint,488,473,47.22,0.2886,0.9713,1.0000,1.0000,1,1,1,0.7114,0.9038,0.9423,0.9711
v_bark_1_3,viewpoint,9,4,42.35,379.1855,0.0000,0.0000,0.0000,0,0,0,0.0000,0.0000,0.0000,0.0000
v_bark_1_4,viewpoint,8,4,42.96,338.0880,0.0000,0.0000,0.0000,0,0,0,0.0000,0.0000,0.0000,0.0000
v_bark_1_5,viewpoint,118,100,49.68,1.0539,0.8475,0.9407,0.9576,1,1,1,0.0000,0.6487,0.7892,0.8946
v_bark_1_6,viewpoint,18,6,42.51,142.9460,0.0000,0.0000,0.0000,0,0,0,0.0000,0.0000,0.0000,0.0000
v_bees_1_2,viewpoint,1446,1427,54.81,0.1521,0.9876,0.9979,1.0000,1,1,1,0.8479,0.9493,0.9696,0.9848
v_bees_1_3,viewpoint,1462,1446,50.25,0.6304,0.9891,1.0000,1.0000,1,1,1,0.3696,0.7899,0.8739,0.9370
v_bees_1_4,viewpoint,1273,1259,50.15,0.6199,0.9906,1.0000,1.0000,1,1,1,0.3801,0.7934,0.8760,0.9380
v_bees_1_5,viewpoint,872,863,52.33,0.5376,0.9839,0.9989,1.0000,1,1,1,0.4624,0.8208,0.8925,0.9462
v_bees_1_6,viewpoint,1047,1013,52.80,0.6581,0.9561,0.9876,0.9971,1,1,1,0.3419,0.7806,0.8684,0.9342
v_beyus_1_2,viewpoint,404,403,58.14,0.9172,0.9950,1.0000,1.0000,1,1,1,0.0828,0.6943,0.8166,0.9083
v_beyus_1_3,viewpoint,371,355,53.97,3.0649,0.9407,0.9919,1.0000,0,1,1,0.0000,0.0000,0.3870,0.6935
v_beyus_1_4,viewpoint,476,475,54.08,0.5036,0.9979,1.0000,1.0000,1,1,1,0.4964,0.8321,0.8993,0.9496
v_beyus_1_5,viewpoint,301,298,53.61,0.6583,0.9900,1.0000,1.0000,1,1,1,0.3417,0.7806,0.8683,0.9342
v_beyus_1_6,viewpoint,382,377,53.63,0.6262,0.9869,1.0000,1.0000,1,1,1,0.3738,0.7913,0.8748,0.9374
v_bip_1_2,viewpoint,847,847,56.32,0.1986,0.9988,1.0000,1.0000,1,1,1,0.8014,0.9338,0.9603,0.9801
v_bip_1_3,viewpoint,737,736,52.42,0.1815,0.9973,1.0000,1.0000,1,1,1,0.8185,0.9395,0.9637,0.9818
v_bip_1_4,viewpoint,755,753,52.16,0.2768,0.9974,1.0000,1.0000,1,1,1,0.7232,0.9077,0.9446,0.9723
v_bip_1_5,viewpoint,388,383,55.50,0.8690,0.9665,0.9948,1.0000,1,1,1,0.1310,0.7103,0.8262,0.9131
v_bip_1_6,viewpoint,8,4,54.42,190.9553,0.3750,0.3750,0.3750,0,0,0,0.0000,0.0000,0.0000,0.0000
v_bird_1_2,viewpoint,790,788,65.11,76.5678,0.0000,0.0000,0.0000,0,0,0,0.0000,0.0000,0.0000,0.0000
v_bird_1_3,viewpoint,787,749,68.33,83.6500,0.0000,0.0000,0.0013,0,0,0,0.0000,0.0000,0.0000,0.0000
v_bird_1_4,viewpoint,781,770,71.43,99.5555,0.0000,0.0000,0.0000,0,0,0,0.0000,0.0000,0.0000,0.0000
v_bird_1_5,viewpoint,723,695,71.73,87.1122,0.0000,0.0000,0.0014,0,0,0,0.0000,0.0000,0.0000,0.0000
v_bird_1_6,viewpoint,447,401,65.62,186.7240,0.0000,0.0000,0.0000,0,0,0,0.0000,0.0000,0.0000,0.0000
v_birdwoman_1_2,viewpoint,302,295,57.72,44.8259,0.0000,0.0000,0.0000,0,0,0,0.0000,0.0000,0.0000,0.0000
v_birdwoman_1_3,viewpoint,356,335,52.10,52.9154,0.0000,0.0000,0.0000,0,0,0,0.0000,0.0000,0.0000,0.0000
v_birdwoman_1_4,viewpoint,408,398,52.39,50.6682,0.0000,0.0000,0.0000,0,0,0,0.0000,0.0000,0.0000,0.0000
v_birdwoman_1_5,viewpoint,748,728,49.59,52.9121,0.0000,0.0000,0.0013,0,0,0,0.0000,0.0000,0.0000,0.0000
v_birdwoman_1_6,viewpoint,550,538,50.24,50.9906,0.0000,0.0000,0.0000,0,0,0,0.0000,0.0000,0.0000,0.0000
v_blueprint_1_2,viewpoint,1018,1013,53.86,0.3438,0.9931,1.0000,1.0000,1,1,1,0.6562,0.8854,0.9312,0.9656
v_blueprint_1_3,viewpoint,804,800,51.36,0.4240,0.9975,1.0000,1.0000,1,1,1,0.5760,0.8587,0.9152,0.9576
v_blueprint_1_4,viewpoint,993,981,50.00,0.6746,0.9869,0.9990,1.0000,1,1,1,0.3254,0.7751,0.8651,0.9325
v_blueprint_1_5,viewpoint,684,680,51.39,0.6367,0.9883,1.0000,1.0000,1,1,1,0.3633,0.7878,0.8727,0.9363
v_blueprint_1_6,viewpoint,545,537,52.34,1.0267,0.9798,1.0000,1.0000,1,1,1,0.0000,0.6578,0.7947,0.8973
v_boat_1_2,viewpoint,1017,1008,57.07,0.4035,0.9921,0.9980,1.0000,1,1,1,0.5965,0.8655,0.9193,0.9597
v_boat_1_3,viewpoint,739,732,54.16,0.2511,0.9892,0.9959,1.0000,1,1,1,0.7489,0.9163,0.9498,0.9749
v_boat_1_4,viewpoint,38,26,57.49,2.3068,0.6842,0.7105,0.7368,1,1,1,0.0000,0.2311,0.5386,0.7693
v_boat_1_5,viewpoint,7,4,52.64,303.7453,0.0000,0.0000,0.0000,0,0,0,0.0000,0.0000,0.0000,0.0000
v_boat_1_6,viewpoint,276,274,54.33,0.3626,0.9928,0.9928,0.9964,1,1,1,0.6374,0.8791,0.9275,0.9637
v_bricks_1_2,viewpoint,1089,1081,48.52,33.4817,0.0037,0.0129,0.0450,0,0,0,0.0000,0.0000,0.0000,0.0000
v_bricks_1_3,viewpoint,1048,1017,47.17,31.9035,0.0019,0.0172,0.0448,0,0,0,0.0000,0.0000,0.0000,0.0000
v_bricks_1_4,viewpoint,856,838,50.68,30.8043,0.0012,0.0058,0.0234,0,0,0,0.0000,0.0000,0.0000,0.0000
v_bricks_1_5,viewpoint,728,705,53.99,27.8344,0.0014,0.0110,0.0357,0,0,0,0.0000,0.0000,0.0000,0.0000
v_bricks_1_6,viewpoint,533,523,54.19,27.6078,0.0000,0.0000,0.0000,0,0,0,0.0000,0.0000,0.0000,0.0000
v_busstop_1_2,viewpoint,1034,1004,53.14,0.2862,0.9681,0.9961,1.0000,1,1,1,0.7138,0.9046,0.9428,0.9714
v_busstop_1_3,viewpoint,891,851,48.36,0.4636,0.9551,0.9921,0.9978,1,1,1,0.5364,0.8455,0.9073,0.9536
v_busstop_1_4,viewpoint,793,759,48.20,0.4404,0.9559,0.9975,1.0000,1,1,1,0.5596,0.8532,0.9119,0.9560
v_busstop_1_5,viewpoint,746,730,47.93,0.5344,0.9705,0.9973,1.0000,1,1,1,0.4656,0.8219,0.8931,0.9466
v_busstop_1_6,viewpoint,932,903,46.60,0.4850,0.9678,0.9946,0.9989,1,1,1,0.5150,0.8383,0.9030,0.9515
v_calder_1_2,viewpoint,826,823,55.74,0.5120,0.9976,1.0000,1.0000,1,1,1,0.4880,0.8293,0.8976,0.9488
v_calder_1_3,viewpoint,1103,1097,50.51,0.2315,0.9955,1.0000,1.0000,1,1,1,0.7685,0.9228,0.9537,0.9768
v_calder_1_4,viewpoint,593,590,53.67,0.5289,0.9916,0.9983,1.0000,1,1,1,0.4711,0.8237,0.8942,0.9471
v_calder_1_5,viewpoint,503,498,52.93,0.2594,0.9901,0.9960,1.0000,1,1,1,0.7406,0.9135,0.9481,0.9741
v_calder_1_6,viewpoint,395,394,54.09,0.2847,0.9975,1.0000,1.0000,1,1,1,0.7153,0.9051,0.9431,0.9715
v_cartooncity_1_2,viewpoint,1399,1379,47.97,62.1623,0.0000,0.0000,0.0021,0,0,0,0.0000,0.0000,0.0000,0.0000
v_cartooncity_1_3,viewpoint,744,724,47.52,66.6344,0.0000,0.0000,0.0000,0,0,0,0.0000,0.0000,0.0000,0.0000
v_cartooncity_1_4,viewpoint,1269,1242,44.61,74.4952,0.0000,0.0008,0.0024,0,0,0,0.0000,0.0000,0.0000,0.0000
v_cartooncity_1_5,viewpoint,899,880,47.64,76.0023,0.0000,0.0000,0.0000,0,0,0,0.0000,0.0000,0.0000,0.0000
v_cartooncity_1_6,viewpoint,683,658,47.45,70.0308,0.0000,0.0000,0.0000,0,0,0,0.0000,0.0000,0.0000,0.0000
v_charing_1_2,viewpoint,381,363,57.15,2.6159,0.9449,0.9711,0.9869,1,1,1,0.0000,0.1280,0.4768,0.7384
v_charing_1_3,viewpoint,293,270,52.64,5.8063,0.8840,0.9625,0.9659,0,0,1,0.0000,0.0000,0.0000,0.4194
v_charing_1_4,viewpoint,320,307,52.51,2.2672,0.9437,0.9812,0.9906,1,1,1,0.0000,0.2443,0.5466,0.7733
v_charing_1_5,viewpoint,303,289,54.49,54.8335,0.9274,0.9934,0.9967,0,0,0,0.0000,0.0000,0.0000,0.0000
v_charing_1_6,viewpoint,299,281,52.53,126.1245,0.9298,0.9933,1.0000,0,0,0,0.0000,0.0000,0.0000,0.0000
v_churchill_1_2,viewpoint,780,772,54.41,0.4230,0.9897,0.9987,1.0000,1,1,1,0.5770,0.8590,0.9154,0.9577
v_churchill_1_3,viewpoint,652,646,53.71,0.5208,0.9939,1.0000,1.0000,1,1,1,0.4792,0.8264,0.8958,0.9479
v_churchill_1_4,viewpoint,628,613,53.10,0.5273,0.9729,0.9968,1.0000,1,1,1,0.4727,0.8242,0.8945,0.9473
v_churchill_1_5,viewpoint,898,896,48.59,0.2357,0.9978,1.0000,1.0000,1,1,1,0.7643,0.9214,0.9529,0.9764
v_churchill_1_6,viewpoint,485,473,52.47,1.5283,0.9649,0.9918,0.9959,1,1,1,0.0000,0.4906,0.6943,0.8472
v_circus_1_2,viewpoint,710,704,55.18,0.2383,0.9930,1.0000,1.0000,1,1,1,0.7617,0.9206,0.9523,0.9762
v_circus_1_3,viewpoint,631,619,58.68,1.4887,0.9651,1.0000,1.0000,1,1,1,0.0000,0.5038,0.7023,0.8511
v_circus_1_4,viewpoint,522,475,55.44,1.7655,0.8946,0.9866,0.9981,1,1,1,0.0000,0.4115,0.6469,0.8235
v_circus_1_5,viewpoint,723,717,58.45,0.3277,0.9862,1.0000,1.0000,1,1,1,0.6723,0.8908,0.9345,0.9672
v_circus_1_6,viewpoint,588,570,58.04,1.1568,0.9524,1.0000,1.0000,1,1,1,0.0000,0.6144,0.7686,0.8843
v_coffeehouse_1_2,viewpoint,946,938,53.57,0.5281,0.9894,1.0000,1.0000,1,1,1,0.4719,0.8240,0.8944,0.9472
v_coffeehouse_1_3,viewpoint,1012,990,51.06,0.7421,0.9763,0.9852,0.9911,1,1,1,0.2579,0.7526,0.8516,0.9258
v_coffeehouse_1_4,viewpoint,902,896,54.75,1.1688,0.9922,1.0000,1.0000,1,1,1,0.0000,0.6104,0.7662,0.8831
v_coffeehouse_1_5,viewpoint,848,842,46.86,0.5300,0.9917,0.9988,1.0000,1,1,1,0.4700,0.8233,0.8940,0.9470
v_coffeehouse_1_6,viewpoint,677,665,49.22,0.7631,0.9838,1.0000,1.0000,1,1,1,0.2369,0.7456,0.8474,0.9237
v_colors_1_2,viewpoint,543,530,49.28,0.4235,0.9687,0.9945,1.0000,1,1,1,0.5765,0.8588,0.9153,0.9577
v_colors_1_3,viewpoint,552,537,47.40,0.6847,0.9710,0.9964,1.0000,1,1,1,0.3153,0.7718,0.8631,0.9315
v_colors_1_4,viewpoint,306,268,45.48,4.7551,0.8627,0.9542,0.9869,0,1,1,0.0000,0.0000,0.0490,0.5245
v_colors_1_5,viewpoint,284,241,47.47,12.2226,0.8204,0.9401,0.9789,0,0,0,0.0000,0.0000,0.0000,0.0000
v_colors_1_6,viewpoint,146,114,46.81,9.3150,0.7671,0.8836,0.9315,0,0,0,0.0000,0.0000,0.0000,0.0685
v_courses_1_2,viewpoint,1289,1283,54.97,0.5079,0.9946,1.0000,1.0000,1,1,1,0.4921,0.8307,0.8984,0.9492
v_courses_1_3,viewpoint,1045,1022,59.43,0.9517,0.9799,0.9981,1.0000,1,1,1,0.0483,0.6828,0.8097,0.9048
v_courses_1_4,viewpoint,1072,1055,56.81,0.8315,0.9823,1.0000,1.0000,1,1,1,0.1685,0.7228,0.8337,0.9169
v_courses_1_5,viewpoint,853,820,58.83,1.5598,0.9484,0.9941,0.9988,1,1,1,0.0000,0.4801,0.6880,0.8440
v_courses_1_6,viewpoint,726,693,55.90,2.6537,0.9229,0.9917,0.9986,1,1,1,0.0000,0.1154,0.4693,0.7346
v_dirtywall_1_2,viewpoint,1029,1005,48.18,0.3826,0.9728,0.9913,0.9990,1,1,1,0.6174,0.8725,0.9235,0.9617
v_dirtywall_1_3,viewpoint,951,931,46.63,0.2067,0.9769,0.9979,1.0000,1,1,1,0.7933,0.9311,0.9587,0.9793
v_dirtywall_1_4,viewpoint,725,703,47.95,0.6280,0.9697,0.9903,0.9945,1,1,1,0.3720,0.7907,0.8744,0.9372
v_dirtywall_1_5,viewpoint,825,807,46.48,0.7031,0.9697,0.9915,0.9964,1,1,1,0.2969,0.7656,0.8594,0.9297
v_dirtywall_1_6,viewpoint,543,527,48.73,0.6872,0.9742,0.9890,0.9945,1,1,1,0.3128,0.7709,0.8626,0.9313
v_dogman_1_2,viewpoint,965,930,52.10,1.0979,0.9596,0.9865,0.9886,1,1,1,0.0000,0.6340,0.7804,0.8902
v_dogman_1_3,viewpoint,1046,1001,50.01,0.4602,0.9560,0.9656,0.9685,1,1,1,0.5398,0.8466,0.9080,0.9540
v_dogman_1_4,viewpoint,562,531,53.51,3.2183,0.9217,0.9822,0.9964,0,1,1,0.0000,0.0000,0.3563,0.6782
v_dogman_1_5,viewpoint,775,760,55.10,1.3811,0.9716,0.9948,1.0000,1,1,1,0.0000,0.5396,0.7238,0.8619
v_dogman_1_6,viewpoint,400,373,50.66,7.5412,0.9125,0.9650,0.9825,0,0,0,0.0000,0.0000,0.0000,0.2459
v_eastsouth_1_2,viewpoint,718,715,57.47,0.2989,0.9958,0.9986,1.0000,1,1,1,0.7011,0.9004,0.9402,0.9701
v_eastsouth_1_3,viewpoint,506,505,57.62,0.2767,0.9960,1.0000,1.0000,1,1,1,0.7233,0.9078,0.9447,0.9723
v_eastsouth_1_4,viewpoint,19,6,55.56,234.9016,0.0000,0.0000,0.0000,0,0,0,0.0000,0.0000,0.0000,0.0000
v_eastsouth_1_5,viewpoint,268,266,60.56,0.6804,0.9888,0.9963,0.9963,1,1,1,0.3196,0.7732,0.8639,0.9320
v_eastsouth_1_6,viewpoint,155,153,58.18,0.6677,0.9871,1.0000,1.0000,1,1,1,0.3323,0.7774,0.8665,0.9332
v_feast_1_2,viewpoint,829,810,56.31,0.4939,0.9783,0.9952,1.0000,1,1,1,0.5061,0.8354,0.9012,0.9506
v_feast_1_3,viewpoint,1200,1148,54.51,0.4086,0.9492,0.9958,0.9992,1,1,1,0.5914,0.8638,0.9183,0.9591
v_feast_1_4,viewpoint,585,573,55.02,0.8521,0.9590,0.9983,1.0000,1,1,1,0.1479,0.7160,0.8296,0.9148
v_feast_1_5,viewpoint,991,970,51.47,0.4637,0.9738,1.0000,1.0000,1,1,1,0.5363,0.8454,0.9073,0.9536
v_feast_1_6,viewpoint,747,728,50.77,0.6841,0.9612,1.0000,1.0000,1,1,1,0.3159,0.7720,0.8632,0.9316
v_fest_1_2,viewpoint,1262,1233,52.69,0.4044,0.9754,0.9945,0.9992,1,1,1,0.5956,0.8652,0.9191,0.9596
v_fest_1_3,viewpoint,984,942,51.60,0.9876,0.9502,0.9929,0.9980,1,1,1,0.0124,0.6708,0.8025,0.9012
v_fest_1_4,viewpoint,1012,972,49.24,0.4975,0.9595,0.9941,0.9990,1,1,1,0.5025,0.8342,0.9005,0.9502
v_fest_1_5,viewpoint,985,949,51.44,1.3225,0.9604,0.9959,1.0000,1,1,1,0.0000,0.5592,0.7355,0.8678
v_fest_1_6,viewpoint,770,741,54.06,1.8881,0.9506,0.9948,0.9974,1,1,1,0.0000,0.3706,0.6224,0.8112
v_gardens_1_2,viewpoint,1046,1031,57.03,1.0609,0.9771,0.9990,1.0000,1,1,1,0.0000,0.6464,0.7878,0.8939
v_gardens_1_3,viewpoint,622,598,55.03,2.6113,0.9341,0.9823,0.9968,1,1,1,0.0000,0.1296,0.4777,0.7389
v_gardens_1_4,viewpoint,1278,1270,51.78,0.8701,0.9859,1.0000,1.0000,1,1,1,0.1299,0.7100,0.8260,0.9130
v_gardens_1_5,viewpoint,694,691,55.35,1.4712,0.9914,1.0000,1.0000,1,1,1,0.0000,0.5096,0.7058,0.8529
v_gardens_1_6,viewpoint,1131,1111,51.26,0.7173,0.9788,0.9965,0.9973,1,1,1,0.2827,0.7609,0.8565,0.9283
v_grace_1_2,viewpoint,757,751,48.37,0.4710,0.9908,0.9987,1.0000,1,1,1,0.5290,0.8430,0.9058,0.9529
v_grace_1_3,viewpoint,696,692,47.12,0.7411,0.9928,0.9986,0.9986,1,1,1,0.2589,0.7530,0.8518,0.9259
v_grace_1_4,viewpoint,596,587,47.12,1.3527,0.9765,0.9966,0.9966,1,1,1,0.0000,0.5491,0.7295,0.8647
v_grace_1_5,viewpoint,466,464,46.74,1.1389,0.9914,1.0000,1.0000,1,1,1,0.0000,0.6204,0.7722,0.8861
v_grace_1_6,viewpoint,343,311,45.99,3.0846,0.9125,0.9767,0.9883,0,1,1,0.0000,0.0000,0.3831,0.6915
v_graffiti_1_2,viewpoint,993,986,63.91,0.2608,0.9919,0.9990,1.0000,1,1,1,0.7392,0.9131,0.9478,0.9739
v_graffiti_1_3,viewpoint,816,805,62.52,1.1702,0.9792,0.9988,1.0000,1,1,1,0.0000,0.6099,0.7660,0.8830
v_graffiti_1_4,viewpoint,732,678,65.55,0.9529,0.8866,0.9850,1.0000,1,1,1,0.0471,0.6824,0.8094,0.9047
v_graffiti_1_5,viewpoint,518,474,63.74,1.2454,0.8842,0.9595,0.9942,1,1,1,0.0000,0.5849,0.7509,0.8755
v_graffiti_1_6,viewpoint,402,312,68.01,2.7822,0.7065,0.8582,0.9502,1,1,1,0.0000,0.0726,0.4436,0.7218
v_home_1_2,viewpoint,614,613,59.70,0.5079,0.9967,1.0000,1.0000,1,1,1,0.4921,0.8307,0.8984,0.9492
v_home_1_3,viewpoint,549,547,56.11,1.4043,0.9872,1.0000,1.0000,1,1,1,0.0000,0.5319,0.7191,0.8596
v_home_1_4,viewpoint,607,605,52.61,0.4279,0.9967,1.0000,1.0000,1,1,1,0.5721,0.8574,0.9144,0.9572
v_home_1_5,viewpoint,514,512,53.35,3.4123,0.9591,0.9942,1.0000,0,1,1,0.0000,0.0000,0.3175,0.6588
v_home_1_6,viewpoint,553,551,52.47,0.5871,0.9928,1.0000,1.0000,1,1,1,0.4129,0.8043,0.8826,0.9413
v_laptop_1_2,viewpoint,866,853,51.67,0.1831,0.9850,0.9954,1.0000,1,1,1,0.8169,0.9390,0.9634,0.9817
v_laptop_1_3,viewpoint,570,561,53.07,0.6398,0.9825,0.9895,0.9982,1,1,1,0.3602,0.7867,0.8720,0.9360
v_laptop_1_4,viewpoint,205,179,55.10,4.4598,0.8683,0.9171,0.9659,0,1,1,0.0000,0.0000,0.1080,0.5540
v_laptop_1_5,viewpoint,9,6,51.36,330.4160,0.0000,0.0000,0.0000,0,0,0,0.0000,0.0000,0.0000,0.0000
v_laptop_1_6,viewpoint,28,11,54.19,368.2733,0.0000,0.0000,0.0000,0,0,0,0.0000,0.0000,0.0000,0.0000
v_london_1_2,viewpoint,1149,1110,50.08,0.2148,0.9652,0.9922,0.9991,1,1,1,0.7852,0.9284,0.9570,0.9785
v_london_1_3,viewpoint,995,978,47.19,0.2871,0.9809,0.9980,1.0000,1,1,1,0.7129,0.9043,0.9426,0.9713
v_london_1_4,viewpoint,887,861,49.73,1.0082,0.9696,0.9944,1.0000,1,1,1,0.0000,0.6639,0.7984,0.8992
v_london_1_5,viewpoint,1142,1116,48.01,0.3459,0.9764,0.9982,0.9991,1,1,1,0.6541,0.8847,0.9308,0.9654
v_london_1_6,viewpoint,1179,1157,49.84,0.2691,0.9796,0.9983,1.0000,1,1,1,0.7309,0.9103,0.9462,0.9731
v_machines_1_2,viewpoint,1201,1181,63.97,0.8094,0.9767,0.9975,0.9992,1,1,1,0.1906,0.7302,0.8381,0.9191
v_machines_1_3,viewpoint,870,830,63.49,2.1129,0.8908,0.9851,1.0000,1,1,1,0.0000,0.2957,0.5774,0.7887
v_machines_1_4,viewpoint,1010,1003,60.36,0.3894,0.9931,0.9990,1.0000,1,1,1,0.6106,0.8702,0.9221,0.9611
v_machines_1_5,viewpoint,757,748,66.78,1.5974,0.9590,0.9974,1.0000,1,1,1,0.0000,0.4675,0.6805,0.8403
v_machines_1_6,viewpoint,900,900,63.39,0.3007,1.0000,1.0000,1.0000,1,1,1,0.6993,0.8998,0.9399,0.9699
v_man_1_2,viewpoint,882,858,57.03,1.7673,0.9660,0.9989,1.0000,1,1,1,0.0000,0.4109,0.6465,0.8233
v_man_1_3,viewpoint,664,637,52.32,3.8033,0.8795,0.9880,0.9985,0,1,1,0.0000,0.0000,0.2393,0.6197
v_man_1_4,viewpoint,609,582,53.93,3.3934,0.8834,0.9737,0.9967,0,1,1,0.0000,0.0000,0.3213,0.6607
v_man_1_5,viewpoint,822,805,55.03,2.0892,0.9720,0.9988,1.0000,1,1,1,0.0000,0.3036,0.5822,0.7911
v_man_1_6,viewpoint,826,803,57.18,1.4720,0.9770,1.0000,1.0000,1,1,1,0.0000,0.5093,0.7056,0.8528
v_maskedman_1_2,viewpoint,605,594,57.94,0.6483,0.9835,0.9983,1.0000,1,1,1,0.3517,0.7839,0.8703,0.9352
v_maskedman_1_3,viewpoint,531,522,55.40,0.9744,0.9623,0.9906,1.0000,1,1,1,0.0256,0.6752,0.8051,0.9026
v_maskedman_1_4,viewpoint,593,588,54.40,2.7217,0.9882,0.9983,1.0000,1,1,1,0.0000,0.0928,0.4557,0.7278
v_maskedman_1_5,viewpoint,632,626,44.64,2.1062,0.9778,0.9921,0.9984,1,1,1,0.0000,0.2979,0.5788,0.7894
v_maskedman_1_6,viewpoint,247,230,47.82,3.7625,0.8543,0.9798,1.0000,0,1,1,0.0000,0.0000,0.2475,0.6238
v_pomegranate_1_2,viewpoint,958,944,53.33,0.6835,0.9823,0.9969,0.9990,1,1,1,0.3165,0.7722,0.8633,0.9317
v_pomegranate_1_3,viewpoint,861,841,52.20,1.3964,0.9605,0.9930,0.9988,1,1,1,0.0000,0.5345,0.7207,0.8604
v_pomegranate_1_4,viewpoint,746,738,49.84,0.5730,0.9839,1.0000,1.0000,1,1,1,0.4270,0.8090,0.8854,0.9427
v_pomegranate_1_5,viewpoint,853,838,51.10,0.7020,0.9859,1.0000,1.0000,1,1,1,0.2980,0.7660,0.8596,0.9298
v_pomegranate_1_6,viewpoint,885,879,49.40,0.2480,0.9932,0.9989,1.0000,1,1,1,0.7520,0.9173,0.9504,0.9752
v_posters_1_2,viewpoint,783,774,72.89,115.1366,0.0000,0.0000,0.0000,0,0,0,0.0000,0.0000,0.0000,0.0000
v_posters_1_3,viewpoint,996,983,71.59,120.6802,0.0000,0.0000,0.0000,0,0,0,0.0000,0.0000,0.0000,0.0000
v_posters_1_4,viewpoint,927,921,68.78,112.4052,0.0000,0.0000,0.0000,0,0,0,0.0000,0.0000,0.0000,0.0000
v_posters_1_5,viewpoint,801,785,70.55,124.5606,0.0000,0.0000,0.0000,0,0,0,0.0000,0.0000,0.0000,0.0000
v_posters_1_6,viewpoint,746,718,70.94,147.4059,0.0000,0.0000,0.0000,0,0,0,0.0000,0.0000,0.0000,0.0000
v_samples_1_2,viewpoint,1130,1122,74.39,67.9783,0.0000,0.0000,0.0000,0,0,0,0.0000,0.0000,0.0000,0.0000
v_samples_1_3,viewpoint,1206,1193,74.47,72.4531,0.0000,0.0000,0.0008,0,0,0,0.0000,0.0000,0.0000,0.0000
v_samples_1_4,viewpoint,1045,1041,82.69,71.9347,0.0000,0.0000,0.0077,0,0,0,0.0000,0.0000,0.0000,0.0000
v_samples_1_5,viewpoint,1111,1106,73.92,80.6310,0.0000,0.0000,0.0000,0,0,0,0.0000,0.0000,0.0000,0.0000
v_samples_1_6,viewpoint,974,969,74.00,67.1840,0.0000,0.0041,0.0164,0,0,0,0.0000,0.0000,0.0000,0.0000
v_soldiers_1_2,viewpoint,770,754,55.97,0.7166,0.9766,0.9961,1.0000,1,1,1,0.2834,0.7611,0.8567,0.9283
v_soldiers_1_3,viewpoint,552,543,53.24,1.4299,0.9819,0.9964,0.9982,1,1,1,0.0000,0.5234,0.7140,0.8570
v_soldiers_1_4,viewpoint,424,421,52.64,0.9014,0.9906,1.0000,1.0000,1,1,1,0.0986,0.6995,0.8197,0.9099
v_soldiers_1_5,viewpoint,385,365,57.68,0.9101,0.9481,0.9948,1.0000,1,1,1,0.0899,0.6966,0.8180,0.9090
v_soldiers_1_6,viewpoint,635,617,48.97,97.2390,0.0000,0.0000,0.0000,0,0,0,0.0000,0.0000,0.0000,0.0000
v_strand_1_2,viewpoint,1111,1108,53.65,0.0917,0.9982,1.0000,1.0000,1,1,1,0.9083,0.9694,0.9817,0.9908
v_strand_1_3,viewpoint,856,817,50.04,0.8061,0.9171,0.9953,0.9988,1,1,1,0.1939,0.7313,0.8388,0.9194
v_strand_1_4,viewpoint,855,821,50.85,2.4874,0.9450,0.9930,0.9942,1,1,1,0.0000,0.1709,0.5025,0.7513
v_strand_1_5,viewpoint,839,829,50.98,2.3092,0.9476,1.0000,1.0000,1,1,1,0.0000,0.2303,0.5382,0.7691
v_strand_1_6,viewpoint,708,659,52.31,4.4132,0.8432,0.9576,0.9845,0,1,1,0.0000,0.0000,0.1174,0.5587
v_sunseason_1_2,viewpoint,1546,1523,49.21,0.1951,0.9858,0.9987,1.0000,1,1,1,0.8049,0.9350,0.9610,0.9805
v_sunseason_1_3,viewpoint,1289,1280,48.32,0.2891,0.9915,0.9984,1.0000,1,1,1,0.7109,0.9036,0.9422,0.9711
v_sunseason_1_4,viewpoint,855,838,49.77,0.3772,0.9801,0.9988,1.0000,1,1,1,0.6228,0.8743,0.9246,0.9623
v_sunseason_1_5,viewpoint,743,729,50.68,1.0883,0.9798,0.9973,1.0000,1,1,1,0.0000,0.6372,0.7823,0.8912
v_sunseason_1_6,viewpoint,565,546,49.53,1.5291,0.9646,0.9894,1.0000,1,1,1,0.0000,0.4903,0.6942,0.8471
v_tabletop_1_2,viewpoint,1097,1078,53.06,0.3211,0.9818,0.9973,1.0000,1,1,1,0.6789,0.8930,0.9358,0.9679
v_tabletop_1_3,viewpoint,752,740,52.60,0.5013,0.9827,1.0000,1.0000,1,1,1,0.4987,0.8329,0.8997,0.9499
v_tabletop_1_4,viewpoint,691,672,52.71,0.6057,0.9667,0.9942,1.0000,1,1,1,0.3943,0.7981,0.8789,0.9394
v_tabletop_1_5,viewpoint,730,716,56.11,0.3766,0.9753,1.0000,1.0000,1,1,1,0.6234,0.8745,0.9247,0.9623
v_tabletop_1_6,viewpoint,738,721,53.23,0.3090,0.9729,1.0000,1.0000,1,1,1,0.6910,0.8970,0.9382,0.9691
v_tempera_1_2,viewpoint,806,804,53.39,0.2372,0.9975,1.0000,1.0000,1,1,1,0.7628,0.9209,0.9526,0.9763
v_tempera_1_3,viewpoint,848,846,52.09,0.4682,0.9988,1.0000,1.0000,1,1,1,0.5318,0.8439,0.9064,0.9532
v_tempera_1_4,viewpoint,681,680,54.90,0.4819,0.9985,1.0000,1.0000,1,1,1,0.5181,0.8394,0.9036,0.9518
v_tempera_1_5,viewpoint,613,613,53.67,0.5593,0.9984,1.0000,1.0000,1,1,1,0.4407,0.8136,0.8881,0.9441
v_tempera_1_6,viewpoint,415,411,51.76,0.7308,0.9880,1.0000,1.0000,1,1,1,0.2692,0.7564,0.8538,0.9269
v_there_1_2,viewpoint,492,491,47.84,0.2606,0.9980,1.0000,1.0000,1,1,1,0.7394,0.9131,0.9479,0.9739
v_there_1_3,viewpoint,206,203,47.14,0.5792,0.9854,0.9951,1.0000,1,1,1,0.4208,0.8069,0.8842,0.9421
v_there_1_4,viewpoint,140,134,46.06,1.3040,0.9500,1.0000,1.0000,1,1,1,0.0000,0.5653,0.7392,0.8696
v_there_1_5,viewpoint,15,6,45.40,304.3175,0.0000,0.0000,0.0000,0,0,0,0.0000,0.0000,0.0000,0.0000
v_there_1_6,viewpoint,7,4,45.34,207.4900,0.0000,0.0000,0.0000,0,0,0,0.0000,0.0000,0.0000,0.0000
v_underground_1_2,viewpoint,1287,1270,50.14,0.0888,0.9860,1.0000,1.0000,1,1,1,0.9112,0.9704,0.9822,0.9911
v_underground_1_3,viewpoint,1062,1054,49.95,0.3564,0.9915,1.0000,1.0000,1,1,1,0.6436,0.8812,0.9287,0.9644
v_underground_1_4,viewpoint,807,801,49.89,0.3819,0.9901,0.9988,1.0000,1,1,1,0.6181,0.8727,0.9236,0.9618
v_underground_1_5,viewpoint,609,582,48.74,1.2990,0.9491,0.9885,0.9984,1,1,1,0.0000,0.5670,0.7402,0.8701
v_underground_1_6,viewpoint,390,346,47.81,2.0492,0.8897,0.9744,0.9897,1,1,1,0.0000,0.3169,0.5902,0.7951
v_vitro_1_2,viewpoint,1166,1159,55.26,0.1694,0.9940,1.0000,1.0000,1,1,1,0.8306,0.9435,0.9661,0.9831
v_vitro_1_3,viewpoint,1033,1023,56.66,0.4664,0.9864,0.9990,1.0000,1,1,1,0.5336,0.8445,0.9067,0.9534
v_vitro_1_4,viewpoint,842,840,62.22,0.3735,0.9917,1.0000,1.0000,1,1,1,0.6265,0.8755,0.9253,0.9627
v_vitro_1_5,viewpoint,1062,1042,58.79,0.4018,0.9812,0.9991,1.0000,1,1,1,0.5982,0.8661,0.9196,0.9598
v_vitro_1_6,viewpoint,913,908,56.47,0.4464,0.9923,0.9989,1.0000,1,1,1,0.5536,0.8512,0.9107,0.9554
v_wall_1_2,viewpoint,1158,1142,49.56,0.3691,0.9845,0.9991,1.0000,1,1,1,0.6309,0.8770,0.9262,0.9631
v_wall_1_3,viewpoint,984,940,46.10,1.2337,0.9482,0.9868,0.9980,1,1,1,0.0000,0.5888,0.7533,0.8766
v_wall_1_4,viewpoint,1129,1095,43.23,0.3980,0.9663,0.9885,0.9885,1,1,1,0.6020,0.8673,0.9204,0.9602
v_wall_1_5,viewpoint,872,820,45.46,1.1600,0.9312,0.9771,0.9874,1,1,1,0.0000,0.6133,0.7680,0.8840
v_wall_1_6,viewpoint,849,783,48.32,3.2616,0.9069,0.9776,0.9941,0,1,1,0.0000,0.0000,0.3477,0.6738
v_wapping_1_2,viewpoint,845,836,55.26,0.4289,0.9917,1.0000,1.0000,1,1,1,0.5711,0.8570,0.9142,0.9571
v_wapping_1_3,viewpoint,584,575,54.16,0.7431,0.9812,0.9983,1.0000,1,1,1,0.2569,0.7523,0.8514,0.9257
v_wapping_1_4,viewpoint,635,627,54.03,1.1493,0.9748,1.0000,1.0000,1,1,1,0.0000,0.6169,0.7701,0.8851
v_wapping_1_5,viewpoint,408,396,53.71,1.4484,0.9681,0.9951,0.9975,1,1,1,0.0000,0.5172,0.7103,0.8552
v_wapping_1_6,viewpoint,275,260,52.87,4.0464,0.8764,0.9564,0.9818,0,1,1,0.0000,0.0000,0.1907,0.5954
v_war_1_2,viewpoint,895,863,56.00,1.3252,0.9553,0.9989,0.9989,1,1,1,0.0000,0.5583,0.7350,0.8675
v_war_1_3,viewpoint,701,676,55.42,1.8886,0.9301,0.9971,1.0000,1,1,1,0.0000,0.3705,0.6223,0.8111
v_war_1_4,viewpoint,1114,1102,49.46,0.3851,0.9874,0.9991,1.0000,1,1,1,0.6149,0.8716,0.9230,0.9615
v_war_1_5,viewpoint,1123,1114,51.21,0.5185,0.9911,1.0000,1.0000,1,1,1,0.4815,0.8272,0.8963,0.9482
v_war_1_6,viewpoint,704,679,54.79,1.9987,0.8977,0.9957,1.0000,1,1,1,0.0000,0.3338,0.6003,0.8001
v_weapons_1_2,viewpoint,1058,1046,54.31,0.4473,0.9905,0.9991,1.0000,1,1,1,0.5527,0.8509,0.9105,0.9553
v_weapons_1_3,viewpoint,838,836,55.11,0.5761,0.9952,1.0000,1.0000,1,1,1,0.4239,0.8080,0.8848,0.9424
v_weapons_1_4,viewpoint,929,921,51.52,0.6296,0.9849,1.0000,1.0000,1,1,1,0.3704,0.7901,0.8741,0.9370
v_weapons_1_5,viewpoint,1055,1050,51.90,1.2307,0.9886,1.0000,1.0000,1,1,1,0.0000,0.5898,0.7539,0.8769
v_weapons_1_6,viewpoint,962,960,53.60,0.9977,0.9906,1.0000,1.0000,1,1,1,0.0023,0.6674,0.8005,0.9002
v_woman_1_2,viewpoint,507,502,54.09,46.2810,0.0000,0.0000,0.0000,0,0,0,0.0000,0.0000,0.0000,0.0000
v_woman_1_3,viewpoint,649,636,50.25,49.5394,0.0000,0.0000,0.0000,0,0,0,0.0000,0.0000,0.0000,0.0000
v_woman_1_4,viewpoint,549,541,52.03,50.1433,0.0000,0.0000,0.0000,0,0,0,0.0000,0.0000,0.0000,0.0000
v_woman_1_5,viewpoint,382,378,51.58,44.5064,0.0000,0.0000,0.0000,0,0,0,0.0000,0.0000,0.0000,0.0000
v_woman_1_6,viewpoint,467,452,50.73,49.3732,0.0000,0.0000,0.0000,0,0,0,0.0000,0.0000,0.0000,0.0000
v_wormhole_1_2,viewpoint,789,781,46.71,0.4133,0.9911,1.0000,1.0000,1,1,1,0.5867,0.8622,0.9173,0.9587
v_wormhole_1_3,viewpoint,996,986,45.58,0.5019,0.9930,1.0000,1.0000,1,1,1,0.4981,0.8327,0.8996,0.9498
v_wormhole_1_4,viewpoint,998,985,44.62,0.4431,0.9850,0.9980,0.9990,1,1,1,0.5569,0.8523,0.9114,0.9557
v_wormhole_1_5,viewpoint,686,668,46.73,4.0385,0.9504,0.9883,0.9971,0,1,1,0.0000,0.0000,0.1923,0.5962
v_wormhole_1_6,viewpoint,412,386,47.90,2.5252,0.8932,0.9830,0.9903,1,1,1,0.0000,0.1583,0.4950,0.7475
v_wounded_1_2,viewpoint,574,570,53.37,0.5462,0.9913,0.9965,0.9965,1,1,1,0.4538,0.8179,0.8908,0.9454
v_wounded_1_3,viewpoint,410,394,50.22,10.3413,0.9439,0.9707,0.9756,0,0,0,0.0000,0.0000,0.0000,0.0000
v_wounded_1_4,viewpoint,230,220,49.44,30.6616,0.9217,0.9783,0.9870,0,0,0,0.0000,0.0000,0.0000,0.0000
v_wounded_1_5,viewpoint,407,389,50.22,1.8577,0.9386,0.9754,0.9951,1,1,1,0.0000,0.3808,0.6285,0.8142
v_wounded_1_6,viewpoint,303,277,49.76,5.4804,0.9076,0.9670,0.9769,0,0,1,0.0000,0.0000,0.0000,0.4520
v_yard_1_2,viewpoint,1230,1213,52.60,0.3265,0.9846,0.9984,1.0000,1,1,1,0.6735,0.8912,0.9347,0.9673
v_yard_1_3,viewpoint,725,661,50.17,1.5468,0.8676,0.9917,0.9986,1,1,1,0.0000,0.4844,0.6906,0.8453
v_yard_1_4,viewpoint,1038,1025,51.36,0.5711,0.9836,1.0000,1.0000,1,1,1,0.4289,0.8096,0.8858,0.9429
v_yard_1_5,viewpoint,850,817,52.82,0.9710,0.9659,0.9976,1.0000,1,1,1,0.0290,0.6763,0.8058,0.9029
v_yard_1_6,viewpoint,652,577,55.49,0.7875,0.8896,0.9847,0.9969,1,1,1,0.2125,0.7375,0.8425,0.9213
v_yuri_1_2,viewpoint,596,593,55.35,0.6253,0.9950,0.9983,1.0000,1,1,1,0.3747,0.7916,0.8749,0.9375
v_yuri_1_3,viewpoint,482,472,53.11,1.6834,0.9710,0.9938,0.9938,1,1,1,0.0000,0.4389,0.6633,0.8317
v_yuri_1_4,viewpoint,399,373,53.60,51.2064,0.8747,0.9749,0.9975,0,0,0,0.0000,0.0000,0.0000,0.0000
v_yuri_1_5,viewpoint,521,517,53.67,0.8427,0.9904,1.0000,1.0000,1,1,1,0.1573,0.7191,0.8315,0.9157
v_yuri_1_6,viewpoint,428,411,52.98,3.9327,0.9533,0.9953,1.0000,0,1,1,0.0000,0.0000,0.2135,0.6067
